[{"id":"007d1a99-a204-4300-9301-02f01a16b390","name":"右舍咖啡 vicinocafe","city":"changhua","wifi":5,"seat":4,"quiet":4,"tasty":5,"cheap":4,"music":5,"url":"https://www.facebook.com/taiwanvicinocafe/","address":"彰化縣員林市萬年路三段67號","latitude":"23.95756180","longitude":"120.57399800","limited_time":"maybe","socket":"maybe","standing_desk":"no","mrt":"","open_time":""},{"id":"0173d45f-0bc4-4b64-98ac-c238bd1b81c5","name":"老鼠尾巴","city":"changhua","wifi":4,"seat":5,"quiet":5,"tasty":5,"cheap":5,"music":5,"url":"","address":"521彰化縣北斗鎮興農路二段247-1號","latitude":"23.86439160","longitude":"120.53307650","limited_time":"no","socket":"maybe","standing_desk":"yes","mrt":"","open_time":""},{"id":"017b8ca7-7116-41a9-8e36-e590ef94cc3f","name":"星巴克-曉陽門市","city":"changhua","wifi":3,"seat":2,"quiet":1,"tasty":5,"cheap":3,"music":3,"url":"","address":"彰化縣彰化市曉陽路358號","latitude":"24.07382390","longitude":"120.53275900","limited_time":"no","socket":"maybe","standing_desk":"no","mrt":"","open_time":"07:00~22:30"},{"id":"0a381793-21df-4844-916f-e9d8a5b3c1ef","name":"歐芙娜咖啡","city":"changhua","wifi":2,"seat":4.5,"quiet":3,"tasty":3,"cheap":3.5,"music":3,"url":"https://www.facebook.com/Aofissogood/","address":"彰化縣彰化市陳稜路264號號","latitude":"24.07972520","longitude":"120.53781810","limited_time":"no","socket":"yes","standing_desk":"yes","mrt":"","open_time":""},{"id":"0b45f261-7596-4cc9-80a0-d34ec7551e05","name":"窩嚐咖啡自家烘焙館","city":"changhua","wifi":5,"seat":5,"quiet":5,"tasty":5,"cheap":5,"music":5,"url":"https://m.facebook.com/HCRoasters/","address":"員林市溝皂街298號","latitude":"23.94833400","longitude":"120.56739100","limited_time":"no","socket":"no","standing_desk":"no","mrt":"","open_time":"10:00-18:00"},{"id":"0ca410ca-5edc-4cbf-b170-b997f5ae58c8","name":"敘杯Sobremesa","city":"changhua","wifi":5,"seat":5,"quiet":5,"tasty":5,"cheap":5,"music":5,"url":"https://m.facebook.com/coffeesobremesa/?ref=bookmarks","address":"彰化縣彰化市旭光路221號","latitude":"24.07132900","longitude":"120.54567940","limited_time":"no","socket":"maybe","standing_desk":"yes","mrt":"","open_time":"星期一隔週休"},{"id":"17cbb8d3-4d47-4e57-b122-ad134b8a887f","name":"小街咖啡","city":"changhua","wifi":5,"seat":4.5,"quiet":5,"tasty":5,"cheap":5,"music":5,"url":"https://www.facebook.com/MinervaCafe.Yuanlin/","address":"彰化縣員林市僑信街70號","latitude":"23.96840900","longitude":"120.57305700","limited_time":"no","socket":"yes","standing_desk":"yes","mrt":"","open_time":"週日固定公休"},{"id":"18e98010-98fb-4302-ade2-5c60a03d4946","name":"咪咖啡","city":"changhua","wifi":0,"seat":5,"quiet":4,"tasty":5,"cheap":4,"music":4,"url":"https://www.facebook.com/micafeshop/","address":"彰化縣和美鎮彰草路二段442號-3號","latitude":"24.08140790","longitude":"120.50506600","limited_time":"maybe","socket":"maybe","standing_desk":"yes","mrt":"","open_time":""},{"id":"1b5ed511-19ef-4861-8ef9-35c818fa561e","name":"Biking16/ 單車旅人","city":"changhua","wifi":4,"seat":5,"quiet":4,"tasty":5,"cheap":5,"music":5,"url":"https://www.facebook.com/biking16Taiwan/","address":"彰化市城中街16號","latitude":"24.07900290","longitude":"120.54117250","limited_time":"yes","socket":"maybe","standing_desk":"no","mrt":"","open_time":""},{"id":"1cc09415-5c6e-48da-ab71-c571877b6e1c","name":"秋瀾號","city":"changhua","wifi":0,"seat":0,"quiet":0,"tasty":0,"cheap":0,"music":0,"url":"","address":"彰化縣員林市大同路二段129巷27弄6號","latitude":"23.96818440","longitude":"120.57685090","limited_time":"","socket":"","standing_desk":"","mrt":"","open_time":""},{"id":"1cc7b88c-7010-47cf-ba2e-ac4c6e6293c9","name":"Am1 CAFE","city":"changhua","wifi":0,"seat":5,"quiet":5,"tasty":5,"cheap":5,"music":4,"url":"https://www.facebook.com/AM1CafeChanghua/?fref=ts","address":"彰化市建寶街1-21號","latitude":"24.06946140","longitude":"120.54596610","limited_time":"no","socket":"maybe","standing_desk":"yes","mrt":"","open_time":"8:30 - 18:30"},{"id":"1ec643bc-55c9-4840-a566-2e7bc62ec0eb","name":"行板 Andante","city":"changhua","wifi":5,"seat":5,"quiet":5,"tasty":5,"cheap":4.5,"music":5,"url":"https://www.facebook.com/andantechw/","address":"彰化市永安街208巷32號 ","latitude":"24.08819290","longitude":"120.54532500","limited_time":"no","socket":"yes","standing_desk":"no","mrt":"","open_time":"以分計費，第一小時60元，之後一分鐘1塊錢，三小時後不再計費。  店裡有書，有當期的藝文雜誌，有wifi有插座，有黑咖啡和幾款飲品任你喝。 另外提供加價購的其他飲品和點心。  可用外食，但垃圾請帶走，不然會酌收20元清潔費喔!"},{"id":"2ec53c31-4806-4025-b911-bc309f2dfaa1","name":"喵思咖啡","city":"changhua","wifi":2,"seat":5,"quiet":4.5,"tasty":5,"cheap":4.5,"music":5,"url":"https://www.facebook.com/muse.cofe","address":"彰化縣福興鄉沿海路五段18號","latitude":"24.04444090","longitude":"120.42765990","limited_time":"no","socket":"maybe","standing_desk":"no","mrt":"","open_time":""},{"id":"3052164d-3999-4426-97ea-edcc5f27a597","name":"All in coffee","city":"changhua","wifi":5,"seat":4,"quiet":4,"tasty":4.5,"cheap":4,"music":3.5,"url":"https://www.facebook.com/AllInCoffee.tw/","address":"彰化縣員林市林森 路 215 巷1號","latitude":"23.95408090","longitude":"120.57798490","limited_time":"no","socket":"maybe","standing_desk":"","mrt":"","open_time":""},{"id":"31fe3e0b-bf61-4264-b283-b0f94ef9e37f","name":"花舒哿精品咖啡","city":"changhua","wifi":5,"seat":5,"quiet":4,"tasty":5,"cheap":5,"music":5,"url":"https://m.facebook.com/forcecafe7863286/","address":"彰化縣花壇鄉花壇街186號","latitude":"24.02376690","longitude":"120.53874400","limited_time":"no","socket":"maybe","standing_desk":"no","mrt":"","open_time":"週二至週日11:00-18:30"},{"id":"320bb5f3-d6b7-4bb1-8607-fd1743021965","name":"二本咖啡-URBAN CAFE","city":"changhua","wifi":5,"seat":4,"quiet":5,"tasty":5,"cheap":4,"music":3,"url":"https://www.facebook.com/yuanlin.urbancafe/","address":"彰化縣員林鎮南昌路119號","latitude":"23.95428440","longitude":"120.57042810","limited_time":"no","socket":"maybe","standing_desk":"yes","mrt":"","open_time":""},{"id":"32ac4b3e-f793-4296-ac8a-0f1617466302","name":"circus cafe 圓圈咖啡","city":"changhua","wifi":5,"seat":5,"quiet":4,"tasty":5,"cheap":5,"music":5,"url":"https://www.facebook.com/circusparkcafe/","address":"彰化縣員林市員東路二段351巷1號","latitude":"23.95828590","longitude":"120.58033950","limited_time":"no","socket":"yes","standing_desk":"no","mrt":"","open_time":""},{"id":"3501cb44-3268-4802-b4ac-804403d875ed","name":"Beginning Cafe 人之初·手作咖啡","city":"changhua","wifi":5,"seat":4,"quiet":3,"tasty":5,"cheap":5,"music":5,"url":"https://www.facebook.com/beginning150530","address":"彰化縣彰化市彰化市中山路二段72號之 1 號","latitude":"24.06763700","longitude":"120.53984000","limited_time":"no","socket":"no","standing_desk":"yes","mrt":"","open_time":""},{"id":"371239b3-9e8e-40e7-9a98-9f3c4ccec631","name":"Origin cafe","city":"changhua","wifi":5,"seat":5,"quiet":4.5,"tasty":4.5,"cheap":4.5,"music":4.5,"url":"https://www.facebook.com/origincafe/","address":"彰化縣彰化市太平街16號","latitude":"24.07726790","longitude":"120.54369000","limited_time":"no","socket":"yes","standing_desk":"yes","mrt":"","open_time":""},{"id":"37144277-b52e-4439-a6e0-e7c778a24389","name":"一帖咖啡","city":"changhua","wifi":4,"seat":5,"quiet":4,"tasty":5,"cheap":4,"music":4,"url":"https://www.facebook.com/theonecoffee2017/","address":"彰化縣花壇鄉花南路","latitude":"24.02129910","longitude":"120.55131230","limited_time":"no","socket":"maybe","standing_desk":"yes","mrt":"","open_time":""},{"id":"3d9d0338-4929-4eb4-9c2f-f30edd7bf236","name":"天外啡鮮","city":"changhua","wifi":1,"seat":5,"quiet":4,"tasty":5,"cheap":5,"music":2,"url":"https://www.facebook.com/%E5%A4%A9%E5%A4%96%E5%95%A1%E9%AE%AE-%E6%89%8B%E4%BD%9C%E5%92%96%E5%95%A1%E8%B1%86%E5%B0%88%E9%96%80-815921811870373/","address":"彰化縣秀水鄉彰水路二段321號","latitude":"24.02627700","longitude":"120.49274800","limited_time":"no","socket":"no","standing_desk":"no","mrt":"","open_time":"8:30 - 18:00"},{"id":"45264ff3-9b00-4b2c-bbfe-011183b3d216","name":"Tzemdas Kaffa 手作.獨立思考咖啡","city":"changhua","wifi":4.5,"seat":4.5,"quiet":5,"tasty":4.5,"cheap":4,"music":5,"url":"https://www.facebook.com/Tzemdaskaffa","address":"彰化縣彰化市自強路248號","latitude":"24.09036990","longitude":"120.54521600","limited_time":"no","socket":"maybe","standing_desk":"no","mrt":"","open_time":"10:00 - 22:00"},{"id":"4c42bd65-8b51-43ea-90f9-331c8a2a8b45","name":"Ace Café","city":"changhua","wifi":1,"seat":4,"quiet":1,"tasty":5,"cheap":5,"music":3,"url":"https://www.facebook.com/aceacecafe","address":"彰化縣彰化市中正路一段218號","latitude":"24.08391190","longitude":"120.54763300","limited_time":"no","socket":"yes","standing_desk":"no","mrt":"","open_time":"8:00 - 18:00"},{"id":"4c9766e2-f0dd-4b18-bd1b-07ceeb3c524f","name":"典藏家咖啡","city":"changhua","wifi":5,"seat":5,"quiet":4,"tasty":5,"cheap":4,"music":4,"url":"https://www.facebook.com/cafeclassicosince2005/","address":"彰化縣彰化市民族路129巷54號","latitude":"24.06912650","longitude":"120.53662560","limited_time":"no","socket":"maybe","standing_desk":"no","mrt":"","open_time":""},{"id":"4cf30e10-b28e-43d6-b68f-64d8c0b7156a","name":"白色方塊咖啡&工作室","city":"changhua","wifi":4,"seat":5,"quiet":3.5,"tasty":3.5,"cheap":3.5,"music":4.5,"url":"https://www.facebook.com/whitecube23/","address":"彰化縣彰化市公園路一段50號","latitude":"24.07682500","longitude":"120.54583100","limited_time":"no","socket":"maybe","standing_desk":"no","mrt":"","open_time":""},{"id":"4f8f50ea-2b72-454f-a9fc-d970dbca3066","name":"米德咖啡坊","city":"changhua","wifi":5,"seat":4,"quiet":4,"tasty":5,"cheap":5,"music":2,"url":"https://www.facebook.com/MEDECAFE888/","address":"彰化縣鹿港鎮永安二路105號","latitude":"24.06221600","longitude":"120.44023160","limited_time":"no","socket":"no","standing_desk":"no","mrt":"","open_time":""},{"id":"553116b1-cc51-40e0-9f40-34269145410e","name":" Skinny Cafe 瘦子咖啡","city":"changhua","wifi":5,"seat":4,"quiet":4,"tasty":5,"cheap":4,"music":4,"url":"www.skinnycafe.tw","address":"彰化縣彰化市光復路143巷4號","latitude":"24.08029400","longitude":"120.53986900","limited_time":"maybe","socket":"maybe","standing_desk":"yes","mrt":"","open_time":"禮拜三、四公休"},{"id":"56594cea-b8c8-41a2-9b37-e2d75562d984","name":"天空藍咖啡","city":"changhua","wifi":4.5,"seat":4.5,"quiet":4,"tasty":3.5,"cheap":2.5,"music":4.5,"url":"https://www.facebook.com/%E5%A4%A9%E7%A9%BA%E8%97%8D%E5%92%96%E5%95%A1CafeAozora-153822047994497/","address":"彰化縣彰化市成功路222號","latitude":"24.08037200","longitude":"120.54169800","limited_time":"","socket":"","standing_desk":"","mrt":"","open_time":""},{"id":"58f74a85-c25f-4099-a3b3-0a02074a6d71","name":"旅。咖啡","city":"changhua","wifi":5,"seat":5,"quiet":5,"tasty":5,"cheap":4,"music":4,"url":"https://www.facebook.com/tripcafetw/","address":"彰化市彰化市民權路241號","latitude":"24.07687490","longitude":"120.53726800","limited_time":"","socket":"","standing_desk":"","mrt":"","open_time":""},{"id":"5c16f440-cc99-4700-9765-c1902b69f802","name":"尋鹿咖啡","city":"changhua","wifi":5,"seat":4,"quiet":4,"tasty":5,"cheap":4,"music":4,"url":"","address":"彰化市永安街476號","latitude":"24.09417800","longitude":"120.54197370","limited_time":"no","socket":"maybe","standing_desk":"yes","mrt":"","open_time":"08:00～21:00"},{"id":"619c58a1-ebd5-4669-bd98-bb16fbbd3106","name":"端倪生活","city":"changhua","wifi":4.5,"seat":5,"quiet":2.5,"tasty":3,"cheap":3,"music":5,"url":"https://www.facebook.com/life.clue.store","address":"彰化市三民路九號","latitude":"24.08216300","longitude":"120.53919200","limited_time":"no","socket":"maybe","standing_desk":"no","mrt":"","open_time":"11-21"},{"id":"62253131-3a5b-4970-b39f-2a3fb92e6edc","name":"美寶","city":"changhua","wifi":5,"seat":5,"quiet":5,"tasty":4,"cheap":5,"music":5,"url":"https://www.facebook.com/RubyCafe186/","address":"彰化縣花壇鄉中正路186號","latitude":"24.02674800","longitude":"120.54226400","limited_time":"","socket":"","standing_desk":"","mrt":"","open_time":""},{"id":"64bac1da-558b-4353-b903-b709bf45b4a7","name":"Free Will啡嚐自由","city":"changhua","wifi":4,"seat":4.5,"quiet":5,"tasty":5,"cheap":4,"music":4.5,"url":"https://www.facebook.com/Free-Will%E5%95%A1%E5%9A%90%E8%87%AA%E7%94%B1-431925970499757","address":"彰化縣彰化市雲長路95號","latitude":"24.06092610","longitude":"120.53685010","limited_time":"no","socket":"maybe","standing_desk":"no","mrt":"","open_time":""},{"id":"6de512d9-48d3-41e6-941a-cb14cf35a55e","name":"cama café -彰化中正店","city":"changhua","wifi":0,"seat":0,"quiet":0,"tasty":0,"cheap":0,"music":0,"url":"","address":"500彰化縣彰化市中正路二段642號","latitude":"24.06828100","longitude":"120.53508500","limited_time":"","socket":"","standing_desk":"","mrt":"","open_time":""},{"id":"6f9882d3-d68c-4478-9294-1114953c9e01","name":"樂居咖啡","city":"changhua","wifi":4,"seat":3,"quiet":4,"tasty":3,"cheap":4,"music":5,"url":"https://www.facebook.com/lovestaycafe","address":"彰化縣員林市萬年路四段","latitude":"23.96673480","longitude":"120.60153650","limited_time":"maybe","socket":"no","standing_desk":"yes","mrt":"","open_time":"9:00-18:00"},{"id":"71ef6e0b-0aa9-405e-b4ee-32dd320b724a","name":"卡夫瓦咖啡 Kahve Coffee Roaster","city":"changhua","wifi":5,"seat":5,"quiet":5,"tasty":5,"cheap":5,"music":5,"url":"https://www.facebook.com/KahveCoffeeRoaster/","address":"彰化縣鹿港鎮公園三路69巷68號","latitude":"24.05590170","longitude":"120.43007850","limited_time":"no","socket":"maybe","standing_desk":"yes","mrt":"","open_time":"不定期公休，公休會及發布於FB及Line @"},{"id":"7fd03039-61c0-4ab7-b43a-006fba76c2ea","name":"DeerHer甜點廚坊","city":"changhua","wifi":5,"seat":5,"quiet":5,"tasty":5,"cheap":5,"music":4,"url":"https://www.facebook.com/deerherbakery/","address":"彰化縣和美鎮線東路二段712號","latitude":"24.09152780","longitude":"120.51986200","limited_time":"maybe","socket":"yes","standing_desk":"yes","mrt":"","open_time":"1:00pm~7:00pm"},{"id":"83e42a65-7feb-4261-a55f-5d2b790bdafc","name":"咖啡烟","city":"changhua","wifi":5,"seat":4,"quiet":4,"tasty":5,"cheap":3,"music":4,"url":"https://www.facebook.com/%E5%92%96%E5%95%A1-%E7%83%9F-1912258569078902/?modal=admin_todo_tour","address":"永樂街199號","latitude":"24.07721810","longitude":"120.53900550","limited_time":"no","socket":"yes","standing_desk":"no","mrt":"","open_time":""},{"id":"894e0471-438b-40dd-af36-d0779ad2b842","name":"松果咖啡","city":"changhua","wifi":5,"seat":5,"quiet":5,"tasty":5,"cheap":5,"music":5,"url":"https://www.facebook.com/SungoCaffe/","address":"彰化縣員林市成功東路162-1號","latitude":"23.96141300","longitude":"120.58175400","limited_time":"no","socket":"yes","standing_desk":"yes","mrt":"","open_time":""},{"id":"911f300c-afdb-4e27-b483-df4d612d9332","name":"豪珈琲","city":"changhua","wifi":5,"seat":5,"quiet":4,"tasty":5,"cheap":4,"music":5,"url":"","address":"彰化縣社頭鄉社斗路一段355號","latitude":"23.89661120","longitude":"120.58489330","limited_time":"","socket":"","standing_desk":"","mrt":"","open_time":""},{"id":"924f80e8-9ce2-4743-b431-58ba35f2e16b","name":"Dreasist Coffee Roasters®","city":"changhua","wifi":5,"seat":5,"quiet":5,"tasty":5,"cheap":5,"music":5,"url":"https://www.facebook.com/dreasistcoffee/","address":"彰化縣員林市惠明街168巷72號","latitude":"23.95233070","longitude":"120.56859960","limited_time":"no","socket":"maybe","standing_desk":"yes","mrt":"","open_time":"週一、週二、週五、週六、週日"},{"id":"99bdb9a3-acfb-41b0-b5b1-24d18a2ce7b8","name":"53咖啡","city":"changhua","wifi":0,"seat":4,"quiet":5,"tasty":5,"cheap":5,"music":3,"url":"https://www.facebook.com/53coffeelove","address":"彰化市民權路53巷2號","latitude":"24.07537180","longitude":"120.54209120","limited_time":"","socket":"","standing_desk":"","mrt":"","open_time":""},{"id":"9c1b23f6-53c1-42a2-bf60-facc9ddec5ea","name":"Sean's cafe享樂玩咖","city":"changhua","wifi":0,"seat":5,"quiet":4,"tasty":5,"cheap":5,"music":5,"url":"Sean's cafe享樂玩咖","address":"500彰化縣彰化市長壽街157號","latitude":"24.08337390","longitude":"120.54278800","limited_time":"maybe","socket":"maybe","standing_desk":"yes","mrt":"","open_time":""},{"id":"9cf818fb-16ad-412b-8a19-58ca70e825f2","name":"旅人咖啡館員林店","city":"changhua","wifi":5,"seat":3,"quiet":3,"tasty":3,"cheap":4,"music":5,"url":"https://www.facebook.com/thetraveleryuanlin/","address":"員林大道一段90號","latitude":"23.94936300","longitude":"120.56798500","limited_time":"maybe","socket":"","standing_desk":"","mrt":"","open_time":""},{"id":"9f31d449-14d6-4044-b0cc-e90f78330b72","name":"Loca Caf'e","city":"changhua","wifi":4.5,"seat":3.5,"quiet":3.5,"tasty":5,"cheap":5,"music":4.5,"url":"https://m.facebook.com/Loca-Caf%C3%A9-1779070185720438/","address":"彰化縣二林鎮南光里南安路454號","latitude":"23.89471460","longitude":"120.36798200","limited_time":"maybe","socket":"yes","standing_desk":"no","mrt":"","open_time":"不定時公休"},{"id":"a07584ba-94c0-4393-93b9-6a2203d5b6ef","name":"熙舍咖啡 CICILIANO CAFE","city":"changhua","wifi":0,"seat":5,"quiet":5,"tasty":5,"cheap":5,"music":5,"url":"https://www.facebook.com/CicilianoCafe","address":"彰化縣員林市中山路2段121號","latitude":"23.96323900","longitude":"120.57091000","limited_time":"no","socket":"no","standing_desk":"no","mrt":"","open_time":""},{"id":"a09ce260-76b9-49e5-8f07-ec6b14ec17c5","name":"土丿匕木十豆寸Caf'e","city":"changhua","wifi":0,"seat":0,"quiet":0,"tasty":0,"cheap":0,"music":0,"url":"","address":"510彰化縣員林市浮圳巷224號","latitude":"23.96791440","longitude":"120.59175730","limited_time":"","socket":"","standing_desk":"","mrt":"","open_time":""},{"id":"a4d0b220-8790-4593-97fb-06ec21c85465","name":"法莫拉咖啡","city":"changhua","wifi":5,"seat":5,"quiet":3,"tasty":3,"cheap":3,"music":4,"url":"","address":"500彰化縣彰化市四維路69巷2號","latitude":"24.06647160","longitude":"120.53586040","limited_time":"no","socket":"yes","standing_desk":"yes","mrt":"","open_time":""},{"id":"a5d0caf2-e0bf-4b75-a57c-7262b2f85632","name":"沐森咖啡","city":"changhua","wifi":0,"seat":5,"quiet":5,"tasty":5,"cheap":3,"music":5,"url":"http://www.musun.com.tw/","address":"員林市成功路57號","latitude":"23.96457260","longitude":"120.57966490","limited_time":"no","socket":"yes","standing_desk":"","mrt":"","open_time":"12:00-21:00"},{"id":"aa029a72-e7e9-4c65-9d80-e3bf2e488170","name":"coco鬆餅屋","city":"changhua","wifi":4,"seat":1,"quiet":1,"tasty":4,"cheap":3,"music":3,"url":"https://www.facebook.com/cocoffee579/?fref=ts","address":"彰化縣員林鎮中正路581號","latitude":"23.96121200","longitude":"120.57134000","limited_time":"","socket":"","standing_desk":"","mrt":"","open_time":"10:30 - 21:30"},{"id":"acd33b1f-ad7c-49ee-a131-da0642bfc424","name":"炎生咖啡","city":"changhua","wifi":0,"seat":5,"quiet":5,"tasty":5,"cheap":4,"music":5,"url":"https://m.facebook.com/YanShengCaffe/?locale2=zh_TW","address":"彰化市建文街11號","latitude":"24.07045760","longitude":"120.52938020","limited_time":"no","socket":"maybe","standing_desk":"no","mrt":"","open_time":"外帶折扣20；晚上可能會提早打烊"},{"id":"c1cc949e-903e-4d77-836c-145587dd6c8a","name":"沐佈咖啡","city":"changhua","wifi":5,"seat":4,"quiet":4,"tasty":4,"cheap":4,"music":4,"url":"https://www.facebook.com/mooboocafe/","address":"彰化縣彰化市中興路171號","latitude":"24.06975820","longitude":"120.54395820","limited_time":"maybe","socket":"maybe","standing_desk":"yes","mrt":"","open_time":""},{"id":"c4d04d52-cdda-4c32-8368-157a2e0dbdec","name":"kisweet coffee","city":"changhua","wifi":4,"seat":5,"quiet":4,"tasty":5,"cheap":5,"music":4,"url":"","address":"彰化縣彰化市彰新路一段52號","latitude":"24.09014620","longitude":"120.53855500","limited_time":"","socket":"yes","standing_desk":"","mrt":"","open_time":""},{"id":"c776edf3-c1a3-465d-9c47-aab2d6bc54f7","name":"sokoso手勾手咖啡館","city":"changhua","wifi":5,"seat":3,"quiet":2.5,"tasty":5,"cheap":3,"music":3.5,"url":"https://www.facebook.com/Sokosocafe/?fref=ts","address":"彰化縣彰化市華山路9號","latitude":"24.07430230","longitude":"120.54328250","limited_time":"","socket":"no","standing_desk":"","mrt":"","open_time":""},{"id":"c89a99c5-95ae-4909-93e5-59bebaf876d1","name":"Yolo cafe","city":"changhua","wifi":5,"seat":4.5,"quiet":4.5,"tasty":3.5,"cheap":3,"music":5,"url":"https://www.facebook.com/yolocafe.tw/","address":"彰化縣彰化市中正路一段430號","latitude":"24.08280000","longitude":"120.54268500","limited_time":"","socket":"","standing_desk":"","mrt":"","open_time":""},{"id":"c99622aa-bbc8-4153-9c63-6034c62ba34b","name":"摩露啡 MoLuFi Cafe","city":"changhua","wifi":5,"seat":5,"quiet":5,"tasty":4,"cheap":5,"music":4,"url":"https://www.facebook.com/moluficafe/","address":"510彰化縣員林市成功東路317巷22號","latitude":"23.95809550","longitude":"120.58290150","limited_time":"no","socket":"maybe","standing_desk":"yes","mrt":"","open_time":"11:00~21:00"},{"id":"cf4efb0a-7693-4c25-83f6-3b0d1374edcc","name":"與咖啡 And. Coffee","city":"changhua","wifi":5,"seat":4,"quiet":4,"tasty":5,"cheap":5,"music":5,"url":"","address":"彰化縣北斗鎮斗苑路一段379號","latitude":"23.87223780","longitude":"120.51925050","limited_time":"maybe","socket":"maybe","standing_desk":"yes","mrt":"","open_time":""},{"id":"cf9f4a37-905e-4f28-8d31-f3c619ff7632","name":"村上珈琲","city":"changhua","wifi":3,"seat":5,"quiet":2,"tasty":5,"cheap":4,"music":3,"url":"https://www.facebook.com/村上珈琲-彰化金馬路門市-1395031783924352/","address":"彰化市建國北路238號","latitude":"24.09669000","longitude":"120.54926600","limited_time":"no","socket":"yes","standing_desk":"no","mrt":"","open_time":""},{"id":"d4078620-766a-4c05-8b33-a959d859a926","name":"Golden Lumiére Café 金莎時光咖啡館","city":"changhua","wifi":0,"seat":0,"quiet":0,"tasty":0,"cheap":0,"music":0,"url":"https://www.facebook.com/glcafe/","address":"彰化縣和美鎮彰美路五段159號","latitude":"24.10814760","longitude":"120.50180530","limited_time":"","socket":"","standing_desk":"","mrt":"","open_time":""},{"id":"d41ebeed-a6f4-4205-b815-fcf9fa039b98","name":"頂客來咖啡","city":"changhua","wifi":0,"seat":0,"quiet":5,"tasty":5,"cheap":5,"music":0,"url":"https://m.facebook.com/Dinkeleycafe","address":"彰化縣埤頭鄉文鄉南街103號","latitude":"23.88890780","longitude":"120.45805800","limited_time":"no","socket":"maybe","standing_desk":"no","mrt":"","open_time":""},{"id":"e5d2f02c-6723-463b-885b-a9802dc6799b","name":"Bon Voyage Patisserie 感官之旅","city":"changhua","wifi":5,"seat":5,"quiet":4,"tasty":5,"cheap":4,"music":5,"url":"https://www.facebook.com/BonVoyagePatisserie/","address":"彰化市自強路102號","latitude":"24.08967400","longitude":"120.54065600","limited_time":"no","socket":"yes","standing_desk":"","mrt":"","open_time":"週三-週日  12：00-20：00"},{"id":"ebb1b04f-8f62-4d92-83e9-5e79ad4ebb29","name":"迥畫廊咖啡","city":"changhua","wifi":3.5,"seat":4.5,"quiet":4.5,"tasty":4,"cheap":2.5,"music":4.5,"url":"https://www.facebook.com/ChanghuaLanCafe","address":"彰化縣員林市台鳳路2號","latitude":"23.96341000","longitude":"120.56843800","limited_time":"","socket":"","standing_desk":"","mrt":"","open_time":""},{"id":"f533573a-3a1b-4183-8834-b142bdc29185","name":"Stable Fly 穩定飛行模式","city":"changhua","wifi":5,"seat":5,"quiet":4,"tasty":5,"cheap":4,"music":5,"url":"https://www.facebook.com/StableFly","address":"彰化縣彰化市永樂街44巷2號","latitude":"24.07624810","longitude":"120.54379970","limited_time":"maybe","socket":"yes","standing_desk":"yes","mrt":"","open_time":""},{"id":"f8d26034-0353-4034-8e5e-a3918a2c3003","name":"The Planet 星球咖啡","city":"changhua","wifi":5,"seat":5,"quiet":4,"tasty":3,"cheap":3,"music":4,"url":"https://www.facebook.com/THEplanet8/?fref=ts","address":"彰化縣彰化市中華路260號","latitude":"24.07770900","longitude":"120.53757700","limited_time":"no","socket":"maybe","standing_desk":"no","mrt":"","open_time":"9:30 - 22:00"},{"id":"fd53a7eb-c299-42f7-86f3-7be84a1cc318","name":"本心咖啡","city":"changhua","wifi":5,"seat":5,"quiet":5,"tasty":5,"cheap":5,"music":5,"url":"https://www.facebook.com/followyourheart.tw/","address":"彰化縣員林市靜修路64號1樓","latitude":"23.96205190","longitude":"120.56717300","limited_time":"maybe","socket":"no","standing_desk":"yes","mrt":"","open_time":"特殊店休會公佈在粉絲團"}]