[{"id":"00014645-38c8-4eb4-ad9b-faa871d7e511","name":"R5小餐館","city":"chiayi","wifi":5,"seat":5,"quiet":5,"tasty":5,"cheap":5,"music":5,"url":"https://www.facebook.com/r5.bistro","address":"嘉義市東區忠孝路205號","latitude":"23.48386540","longitude":"120.45358340","limited_time":"maybe","socket":"maybe","standing_desk":"no","mrt":"","open_time":"11:30~21:00"},{"id":"051b007e-6b16-45f3-a034-d38846f08dd7","name":"胡永泰咖啡店(仁愛)","city":"chiayi","wifi":4,"seat":3,"quiet":2,"tasty":4,"cheap":5,"music":3,"url":"","address":"嘉義市西區仁愛路149號1樓","latitude":"23.46938540","longitude":"120.44284780","limited_time":"no","socket":"no","standing_desk":"yes","mrt":"","open_time":""},{"id":"061efc0b-2b3a-4174-9d24-f12ecd757b2f","name":"藏.咖啡嘉義中山店 CANG CAFE","city":"chiayi","wifi":3.5,"seat":4,"quiet":3.5,"tasty":4,"cheap":5,"music":3.5,"url":"https://www.facebook.com/cangcoffee/","address":"600嘉義市東區中山路233號 ","latitude":"23.48080090","longitude":"120.45179210","limited_time":"","socket":"yes","standing_desk":"no","mrt":"","open_time":""},{"id":"06e08ad7-6445-489c-8b09-985450c1c2fb","name":"秘氏咖啡嘉義店","city":"chiayi","wifi":0,"seat":0,"quiet":0,"tasty":0,"cheap":0,"music":0,"url":"","address":"600嘉義市西區延平街288號","latitude":"23.47670540","longitude":"120.44829100","limited_time":"","socket":"","standing_desk":"","mrt":"","open_time":""},{"id":"0ad49d07-623f-4fda-975e-edf97185b966","name":"Morikoohii森咖啡","city":"chiayi","wifi":0,"seat":0,"quiet":0,"tasty":0,"cheap":0,"music":0,"url":"https://www.facebook.com/morikoohii/","address":"嘉義市東區共和路199巷1號","latitude":"23.48602550","longitude":"120.45414080","limited_time":"","socket":"","standing_desk":"","mrt":"","open_time":""},{"id":"0bacad72-eab5-46b7-bd22-289ed8c7af2f","name":"正方芳Cafe","city":"chiayi","wifi":0,"seat":0,"quiet":0,"tasty":0,"cheap":0,"music":0,"url":"https://www.facebook.com/PositiveFengFeng/","address":"600嘉義市東區林森東路103號","latitude":"23.48695810","longitude":"120.45664810","limited_time":"maybe","socket":"maybe","standing_desk":"","mrt":"","open_time":""},{"id":"105e0bb1-34f2-4ce9-a3c9-6efc356200b1","name":"Louisa Coffee 路易．莎咖啡(嘉義圓環門市)","city":"chiayi","wifi":0,"seat":0,"quiet":0,"tasty":0,"cheap":0,"music":0,"url":"","address":"600嘉義市西區中山路294號","latitude":"23.48008060","longitude":"120.44935830","limited_time":"","socket":"maybe","standing_desk":"no","mrt":"","open_time":""},{"id":"128e428b-c609-419e-a3e2-29f7a596aa76","name":"小口品S","city":"chiayi","wifi":5,"seat":4,"quiet":5,"tasty":5,"cheap":5,"music":5,"url":"https://www.facebook.com/xiaokoupin/","address":"嘉義市光彩街453號","latitude":"23.47790720","longitude":"120.44698480","limited_time":"no","socket":"","standing_desk":"","mrt":"","open_time":"10:30~19:00"},{"id":"15c26d3a-e1b9-477b-b8a0-dddfc5c04c98","name":"慢靈魂 Slow Soul Coffee","city":"chiayi","wifi":5,"seat":4,"quiet":5,"tasty":5,"cheap":5,"music":5,"url":"https://www.facebook.com/slowsoulcoffee/","address":"嘉義市民雄鄉西安村復興路93號","latitude":"23.55782610","longitude":"120.42854150","limited_time":"","socket":"","standing_desk":"","mrt":"","open_time":""},{"id":"17f21982-63ac-4f66-9167-fce5389bf016","name":"VR 文森家小茶館","city":"chiayi","wifi":5,"seat":5,"quiet":4,"tasty":0,"cheap":4,"music":5,"url":"https://m.facebook.com/vr.tea.house/?locale2=zh_TW","address":"嘉義市西區重慶路322號","latitude":"23.46384470","longitude":"120.43277220","limited_time":"","socket":"maybe","standing_desk":"yes","mrt":"","open_time":"週四週五公休"},{"id":"191f2fcf-4e60-407c-b4f9-bcffbbbc6a5d","name":"玖咖啡","city":"chiayi","wifi":5,"seat":5,"quiet":4.5,"tasty":5,"cheap":4,"music":5,"url":"https://www.facebook.com/jioucafe/","address":"嘉義市東區興業東路387號","latitude":"23.46993570","longitude":"120.45847980","limited_time":"no","socket":"maybe","standing_desk":"yes","mrt":"","open_time":"週一三四日：13:00~22:00，週五週六：13:00~23:00，週二公休"},{"id":"1a09f263-5d9e-44df-857b-106f7ac646b2","name":"Coffeeology咖啡學","city":"chiayi","wifi":4,"seat":5,"quiet":4,"tasty":5,"cheap":5,"music":4,"url":"https://www.facebook.com/coffeeologylove/","address":"嘉義縣大林鎮南華路一段55號(咖啡學)","latitude":"23.56858000","longitude":"120.49462100","limited_time":"no","socket":"maybe","standing_desk":"","mrt":"","open_time":""},{"id":"1e48f4fa-8a3a-4616-9b80-ce811185dacf","name":"簡單咖啡","city":"chiayi","wifi":0,"seat":5,"quiet":5,"tasty":3,"cheap":5,"music":4,"url":"https://www.facebook.com/cafesimplecafe/","address":"嘉義市民權路55號","latitude":"23.48412590","longitude":"120.46305290","limited_time":"no","socket":"maybe","standing_desk":"no","mrt":"","open_time":""},{"id":"2871bf0f-b1e3-4317-88d6-10b9faade4b8","name":"幸福原在","city":"chiayi","wifi":4,"seat":4,"quiet":4,"tasty":5,"cheap":3,"music":3,"url":"https://m.facebook.com/%E5%B9%B8%E7%A6%8F%E5%8E%9F%E5%9C%A8-503529266441072/timeline/","address":"嘉義市維新路135號","latitude":"23.48449660","longitude":"120.45825470","limited_time":"no","socket":"no","standing_desk":"yes","mrt":"","open_time":"早上10:00~晚上8:00"},{"id":"2a06c50a-5b33-4528-917a-f94e7e28373f","name":"山多斯咖啡","city":"chiayi","wifi":0,"seat":5,"quiet":5,"tasty":5,"cheap":5,"music":5,"url":"https://www.facebook.com/%E5%B1%B1%E5%A4%9A%E6%96%AF%E5%92%96%E5%95%A1%E7%83%98%E7%84%99-148269725185422/notifications/","address":"嘉義縣民雄鄉保生街67號","latitude":"23.55299920","longitude":"120.42798750","limited_time":"maybe","socket":"no","standing_desk":"no","mrt":"","open_time":""},{"id":"470c4807-af38-45fd-9c87-2f933102715a","name":"Mimico cafe 秘密客咖啡館","city":"chiayi","wifi":5,"seat":5,"quiet":5,"tasty":5,"cheap":5,"music":5,"url":"https://www.facebook.com/mimicocafe/","address":"600嘉義市東區興中街200-1號","latitude":"23.48366810","longitude":"120.44989820","limited_time":"no","socket":"no","standing_desk":"yes","mrt":"","open_time":"10:00～22:00"},{"id":"5cdc727b-700f-420a-9bff-ace6252d7edb","name":"假日咖啡-自家烘焙","city":"chiayi","wifi":4,"seat":5,"quiet":5,"tasty":4,"cheap":4,"music":5,"url":"https://m.facebook.com/JiaRihCafe/","address":"嘉義市東區垂楊路167號","latitude":"23.47456090","longitude":"120.45717570","limited_time":"no","socket":"no","standing_desk":"yes","mrt":"","open_time":"三四五六"},{"id":"6321fe7c-5b33-47e1-a7c6-1a97ab7405c6","name":"AMON 咖啡所","city":"chiayi","wifi":4,"seat":4,"quiet":4,"tasty":5,"cheap":4,"music":5,"url":"https://www.facebook.com/AMONCafe666/","address":"嘉義市市宅街22巷5弄5號","latitude":"23.47402860","longitude":"120.45987390","limited_time":"no","socket":"no","standing_desk":"no","mrt":"","open_time":"週二到週日：13:00~21:00，週一公休"},{"id":"641a2f0a-945f-45c4-8d92-f446815719f7","name":"二通672","city":"chiayi","wifi":4,"seat":4,"quiet":3,"tasty":4,"cheap":4,"music":4,"url":"https://www.facebook.com/Niton672/","address":"嘉義市西區中正路672號","latitude":"23.47862600","longitude":"120.44353300","limited_time":"no","socket":"maybe","standing_desk":"no","mrt":"","open_time":"二三四10:00 - 22:00 五六日12:00 - 22:00 周一休"},{"id":"654d93d8-30bd-46da-a606-e40224676a2b","name":"木更咖啡 Mugeneration 檜意店","city":"chiayi","wifi":0,"seat":3.5,"quiet":3.5,"tasty":5,"cheap":5,"music":5,"url":"https://m.facebook.com/mugeneration189/","address":"嘉義市共和路356巷5號","latitude":"23.48497140","longitude":"120.45522640","limited_time":"maybe","socket":"yes","standing_desk":"no","mrt":"","open_time":""},{"id":"65f18bfd-95c7-4932-85e7-bfef5add789a","name":"Daisy的雜貨店","city":"chiayi","wifi":0,"seat":0,"quiet":0,"tasty":0,"cheap":0,"music":0,"url":"https://www.facebook.com/fuxiaxdaisy/","address":"嘉義市東區維新路73號","latitude":"23.48162020","longitude":"120.45869210","limited_time":"maybe","socket":"","standing_desk":"yes","mrt":"","open_time":"無公休，休假另行公告。"},{"id":"68a1e4f0-6390-420c-a964-0bbd5170aa3f","name":"享物 手作烘焙。咖啡","city":"chiayi","wifi":0,"seat":4,"quiet":5,"tasty":5,"cheap":4,"music":4,"url":"https://www.facebook.com/siangwu2015/","address":"嘉義市東區維新路190巷2弄1號","latitude":"23.48998800","longitude":"120.45752700","limited_time":"no","socket":"no","standing_desk":"no","mrt":"","open_time":"《營業時間》 平日：12:30 ─ 19:00 假日：11:00 ─ 19:00  《公休日》 單數週：週三 雙數週：週二 + 週三"},{"id":"701fc291-5bf4-4dca-a3d9-3510c1150ff8","name":"FERNS蕨醒咖啡","city":"chiayi","wifi":2.5,"seat":5,"quiet":5,"tasty":5,"cheap":5,"music":5,"url":"https://www.facebook.com/FernsCoffee.138/","address":"嘉義市忠義街138號","latitude":"23.48028200","longitude":"120.44730160","limited_time":"no","socket":"no","standing_desk":"yes","mrt":"","open_time":"08：30～20：00"},{"id":"716edc5c-35e2-4736-94b2-3267b1377874","name":"CouCou Cafe Pâtisserie 咕咕甜點咖啡","city":"chiayi","wifi":5,"seat":5,"quiet":5,"tasty":5,"cheap":5,"music":5,"url":"https://www.facebook.com/coucoucoffee/","address":"嘉義市新生路450號","latitude":"23.48951340","longitude":"120.45927740","limited_time":"maybe","socket":"maybe","standing_desk":"no","mrt":"","open_time":"週二未營業，週一到週日：13:00~19:00"},{"id":"7ad3de68-2d10-4f29-a37c-4b012cef7feb","name":"Yoi傢俱樂窩","city":"chiayi","wifi":5,"seat":5,"quiet":5,"tasty":3,"cheap":5,"music":5,"url":"https://zh-tw.facebook.com/yoitheworld/","address":"嘉義市體育路51號","latitude":"23.47456600","longitude":"120.46156700","limited_time":"no","socket":"yes","standing_desk":"yes","mrt":"","open_time":"11:00-20:30"},{"id":"8765e0be-68ce-4d44-b470-e6d9022b61ad","name":"暮森咖啡","city":"chiayi","wifi":5,"seat":5,"quiet":5,"tasty":5,"cheap":4.5,"music":4.5,"url":"https://www.facebook.com/Musencoffee/","address":"嘉義市興業東路115巷12號","latitude":"0.00000000","longitude":"0.00000000","limited_time":"no","socket":"maybe","standing_desk":"no","mrt":"","open_time":"禮拜ㄧ-禮拜日"},{"id":"8b8bc93e-96d1-4384-bf79-5b279b66dd05","name":"後站 漫時光","city":"chiayi","wifi":0,"seat":0,"quiet":0,"tasty":0,"cheap":0,"music":0,"url":"https://www.facebook.com/time.truth/","address":"嘉義市遠東街2號","latitude":"23.48861140","longitude":"120.44097930","limited_time":"","socket":"","standing_desk":"","mrt":"","open_time":"週二～日：09:00 - 21:00 週一公休"},{"id":"907c71b4-60a0-4b49-89af-3319a4449796","name":"85度C新民店","city":"chiayi","wifi":0,"seat":0,"quiet":0,"tasty":0,"cheap":0,"music":0,"url":"","address":"新北市板橋區文化路一段186號","latitude":"25.01954240","longitude":"121.46588350","limited_time":"","socket":"","standing_desk":"","mrt":"","open_time":""},{"id":"93fbedad-e6c2-48eb-b5e6-48f305fc81a2","name":"初咖啡-The Origin Specialty Coffee Roaster ","city":"chiayi","wifi":4,"seat":5,"quiet":5,"tasty":5,"cheap":4.5,"music":4,"url":"http://www.facebook.com/theorigincoffee ","address":"嘉義市西區力行街15號","latitude":"23.47354240","longitude":"120.43796180","limited_time":"maybe","socket":"maybe","standing_desk":"no","mrt":"","open_time":""},{"id":"959f5610-a09f-45b2-ae6c-8407a3a76526","name":"寒溪呢咖啡廳","city":"chiayi","wifi":0,"seat":5,"quiet":3,"tasty":3,"cheap":3,"music":5,"url":"","address":"603嘉義縣梅山鄉太和村社後坪2附11","latitude":"23.55866610","longitude":"120.73398500","limited_time":"no","socket":"no","standing_desk":"no","mrt":"","open_time":""},{"id":"973665e6-207f-4d85-9d87-dc0a4813301b","name":"832 Coffee Roasters_捌參貳焙煎所","city":"chiayi","wifi":5,"seat":4,"quiet":5,"tasty":5,"cheap":4,"music":5,"url":"https://www.facebook.com/832coffee/","address":"嘉義市東區成仁街228號","latitude":"23.48296460","longitude":"120.45118160","limited_time":"maybe","socket":"maybe","standing_desk":"no","mrt":"","open_time":""},{"id":"99e9983b-5ca4-4514-8167-f7f7de068db1","name":"融合度咖啡","city":"chiayi","wifi":5,"seat":5,"quiet":4,"tasty":5,"cheap":5,"music":4.5,"url":"https://www.facebook.com/%E8%9E%8D%E5%90%88%E5%BA%A6%E5%92%96%E5%95%A1-%E5%98%89%E7%BE%A9%E4%BA%BA%E6%83%85%E5%91%B3-619704534780616/?ref=ts&fref=ts","address":"嘉義市中山路223號","latitude":"23.48092350","longitude":"120.45210870","limited_time":"no","socket":"","standing_desk":"","mrt":"","open_time":"8:30 - 20:30"},{"id":"9b98f0ad-a880-42b6-9070-d4537ad001bc","name":"咖啡人自家烘焙","city":"chiayi","wifi":0,"seat":5,"quiet":5,"tasty":5,"cheap":4,"music":4,"url":"https://m.facebook.com/profile.php?id=1384396911787087","address":"嘉義市民國路170號","latitude":"23.48124480","longitude":"120.46006260","limited_time":"no","socket":"maybe","standing_desk":"no","mrt":"","open_time":"二三四五六日"},{"id":"9e5450ee-f870-42ad-98cc-d07d519132c2","name":"卓武咖啡","city":"chiayi","wifi":5,"seat":5,"quiet":4,"tasty":4,"cheap":4,"music":4.5,"url":"","address":"嘉義市西區民生北路194號","latitude":"23.47870660","longitude":"120.44644140","limited_time":"yes","socket":"maybe","standing_desk":"yes","mrt":"","open_time":""},{"id":"a8cbe7dd-0d6a-4234-82c0-d823dc924db3","name":"新銳咖啡嘉義民生店","city":"chiayi","wifi":0,"seat":0,"quiet":0,"tasty":0,"cheap":0,"music":0,"url":"","address":"600嘉義市西區民生北路126號","latitude":"23.47706590","longitude":"120.44665310","limited_time":"","socket":"","standing_desk":"","mrt":"","open_time":""},{"id":"b57cb33d-ebe3-44a4-939f-1ea503fce9cc","name":"往前咖啡","city":"chiayi","wifi":5,"seat":4,"quiet":3,"tasty":4,"cheap":3,"music":5,"url":"https://m.facebook.com/FORWARD.COFFEE.TW/?locale2=zh_TW","address":"600嘉義市東區興中街203號","latitude":"23.48394830","longitude":"120.44979700","limited_time":"no","socket":"maybe","standing_desk":"no","mrt":"","open_time":"每月初公布休假日"},{"id":"b81672e2-9877-4262-8554-108a4535fcfb","name":"聖塔咖啡","city":"chiayi","wifi":4,"seat":4,"quiet":4,"tasty":5,"cheap":4,"music":3,"url":"http://www.stcoffee.tw","address":"嘉義市東區興中街10號","latitude":"23.47525320","longitude":"120.45175390","limited_time":"no","socket":"no","standing_desk":"yes","mrt":"","open_time":"11:00–21:00"},{"id":"bb74f82b-f054-4dce-a8db-add26e1c28de","name":"岱coffee","city":"chiayi","wifi":0,"seat":0,"quiet":0,"tasty":0,"cheap":0,"music":0,"url":"https://www.facebook.com/%E5%B2%B1coffee-235250100569757/","address":"600嘉義市東區民國路179號","latitude":"23.48020150","longitude":"120.46005120","limited_time":"","socket":"","standing_desk":"","mrt":"","open_time":""},{"id":"bed52108-4d2a-4432-b888-2b75808ae745","name":"花磚咖啡。淺嚐館","city":"chiayi","wifi":0,"seat":3,"quiet":4,"tasty":4,"cheap":5,"music":4,"url":"","address":"嘉義市東區公明路59號之1","latitude":"23.48057420","longitude":"120.45894250","limited_time":"","socket":"","standing_desk":"","mrt":"","open_time":""},{"id":"c4c93aae-b594-4c97-a26f-f36a0883f700","name":"山茶花與鹿","city":"chiayi","wifi":4,"seat":3,"quiet":3,"tasty":3,"cheap":3,"music":3,"url":"","address":"嘉義市東區成仁街226號","latitude":"23.48249240","longitude":"120.45130990","limited_time":"","socket":"","standing_desk":"","mrt":"","open_time":""},{"id":"c9d1d4e3-8ab8-4c7d-a6c8-6cd80ff20ca4","name":"賣私咖啡","city":"chiayi","wifi":3,"seat":4,"quiet":4,"tasty":5,"cheap":5,"music":3,"url":"https://www.facebook.com/mys.coffeeroast/?fref=ts","address":"嘉義市東區吳鳳南路15號","latitude":"23.47356930","longitude":"120.45406860","limited_time":"no","socket":"no","standing_desk":"no","mrt":"","open_time":"週一至週六，14：00～21：00"},{"id":"cf83bc86-02e1-4b70-842b-3253d30cd513","name":"33+V. Cafe","city":"chiayi","wifi":5,"seat":2,"quiet":3,"tasty":5,"cheap":4,"music":5,"url":"","address":"嘉義市東區東義路160-2號","latitude":"23.49523800","longitude":"120.46938490","limited_time":"","socket":"","standing_desk":"","mrt":"","open_time":""},{"id":"d21acc3a-80ac-4bb4-8e52-da8f4d757af7","name":"翌莎精品咖啡 ISA COFFEE & CO.","city":"chiayi","wifi":5,"seat":5,"quiet":5,"tasty":5,"cheap":5,"music":5,"url":"https://www.facebook.com/ISACoffeeCompany/","address":"嘉義縣朴子市朴子七路16號","latitude":"23.45687440","longitude":"120.28484530","limited_time":"maybe","socket":"no","standing_desk":"no","mrt":"","open_time":""},{"id":"e189af6d-e803-45f3-91e4-3696d596a5d0","name":"路易莎(博愛店)","city":"chiayi","wifi":3,"seat":5,"quiet":4,"tasty":4,"cheap":4,"music":4,"url":"https://www.facebook.com/louisa.chiayi.fraternite/","address":"嘉義市博愛路二段864號","latitude":"23.46448800","longitude":"120.42421400","limited_time":"no","socket":"yes","standing_desk":"no","mrt":"","open_time":""},{"id":"e54a9c55-d57e-4975-900e-07e686c576b7","name":"Evie's Cafe 伊米咖啡","city":"chiayi","wifi":5,"seat":4.5,"quiet":5,"tasty":5,"cheap":4,"music":4.5,"url":"https://m.facebook.com/eviescafe88/","address":"嘉義市東區共和路418號(北門車站旁)","latitude":"23.48733640","longitude":"120.45479450","limited_time":"no","socket":"maybe","standing_desk":"yes","mrt":"","open_time":"連假另有其他營業時間"},{"id":"ef4fb4af-523f-44ad-a749-b66aec9c9c1c","name":"美好咖啡","city":"chiayi","wifi":5,"seat":5,"quiet":3,"tasty":4,"cheap":3,"music":4,"url":"https://www.facebook.com/mihocoffee/","address":"嘉義市東區啟明路146號","latitude":"23.47845410","longitude":"120.46239120","limited_time":"no","socket":"yes","standing_desk":"no","mrt":"","open_time":""},{"id":"efb232dc-a788-45d4-aa9a-7e05e59185f7","name":"三角&貓咖啡","city":"chiayi","wifi":0,"seat":0,"quiet":0,"tasty":0,"cheap":0,"music":0,"url":"三角&貓咖啡","address":"嘉義市新生路374號","latitude":"23.48785990","longitude":"120.46011640","limited_time":"maybe","socket":"maybe","standing_desk":"no","mrt":"","open_time":""},{"id":"f06ec8d1-e6ec-4227-9959-0eece09d158b","name":"呈咖啡","city":"chiayi","wifi":5,"seat":5,"quiet":5,"tasty":5,"cheap":5,"music":5,"url":"https://www.facebook.com/chencoffee2012","address":"600嘉義市東區忠孝路611號","latitude":"23.50282020","longitude":"120.44820820","limited_time":"no","socket":"maybe","standing_desk":"no","mrt":"","open_time":""},{"id":"f3175c1d-e750-4902-a7c0-f5da9b7ae7e0","name":"花磚咖啡","city":"chiayi","wifi":0,"seat":0,"quiet":0,"tasty":0,"cheap":0,"music":0,"url":"https://www.facebook.com/%E8%8A%B1%E7%A3%9A%E5%92%96%E5%95%A1-103705373320238/","address":"嘉義市東區大雅路二段648號","latitude":"23.47734580","longitude":"120.46696660","limited_time":"","socket":"","standing_desk":"","mrt":"","open_time":""},{"id":"f379f0aa-c725-47c9-bb98-4e0938f7e22a","name":"Coffee Room 咖啡倫","city":"chiayi","wifi":5,"seat":5,"quiet":5,"tasty":5,"cheap":5,"music":4,"url":"https://www.facebook.com/coffeeroomtw/","address":"嘉義市西區仁愛路21號1F","latitude":"23.46661930","longitude":"120.44124360","limited_time":"no","socket":"maybe","standing_desk":"no","mrt":"","open_time":"09:30am-08:00pm"},{"id":"f6723281-481f-4ac3-99df-42fcae7d1a1f","name":"咖啡漫步","city":"chiayi","wifi":4,"seat":3,"quiet":3,"tasty":4,"cheap":3,"music":5,"url":"https://www.facebook.com/Come-home-%E5%92%96%E5%95%A1%E6%BC%AB%E6%AD%A5-398144630232257/","address":"嘉義市東區興業東路138號","latitude":"23.46943310","longitude":"120.45738830","limited_time":"no","socket":"maybe","standing_desk":"no","mrt":"","open_time":"週二-週四12:00-20:00 週五-週日12:00-21:30 每週一及每月最後一週一二店休"}]