[{"id":"0236e2db-6597-41a9-aaf5-f53fe7539611","name":"Eye Cafe","city":"hualien","wifi":0,"seat":5,"quiet":2,"tasty":5,"cheap":5,"music":3,"url":"https://www.facebook.com/eye.cafe2015/?fref=ts","address":"花蓮市中華路70號","latitude":"23.97610990","longitude":"121.60720770","limited_time":"","socket":"no","standing_desk":"no","mrt":"","open_time":"Am12:00~Pm9:00"},{"id":"05ac2c81-b167-43ba-a890-52cbb246ad01","name":"Cabra Coffee","city":"hualien","wifi":0,"seat":5,"quiet":3,"tasty":4,"cheap":0,"music":4,"url":"","address":"970花蓮縣花蓮市中山路416-6號 970","latitude":"23.98544490","longitude":"121.60280910","limited_time":"no","socket":"maybe","standing_desk":"yes","mrt":"","open_time":""},{"id":"0f42727c-c285-4c37-a3d1-b9a165c7f2c0","name":"無設限咖啡","city":"hualien","wifi":0,"seat":0,"quiet":0,"tasty":0,"cheap":0,"music":0,"url":"","address":"花蓮市林政街44號","latitude":"23.97860220","longitude":"121.59621370","limited_time":"","socket":"","standing_desk":"","mrt":"","open_time":""},{"id":"10cbb92a-29aa-46e5-9bb1-4f429f91559d","name":"回春工作室","city":"hualien","wifi":5,"seat":5,"quiet":5,"tasty":5,"cheap":3,"music":5,"url":"https://www.facebook.com/回春工作室-850842031609095/","address":"花蓮市光復街91-1號","latitude":"23.97927020","longitude":"121.60553400","limited_time":"maybe","socket":"","standing_desk":"no","mrt":"","open_time":""},{"id":"1a7b507f-d8df-482f-b599-4e4f7de21716","name":"花蓮秘密海咖啡","city":"hualien","wifi":5,"seat":5,"quiet":4,"tasty":5,"cheap":4,"music":5,"url":"https://www.facebook.com/secretseacoffee/?fref=ts","address":"花蓮縣花蓮市海濱街66號","latitude":"23.97312560","longitude":"121.61496740","limited_time":"","socket":"","standing_desk":"","mrt":"","open_time":""},{"id":"1eb93783-85a9-4184-aa74-3b0baf54939d","name":"珈琲花","city":"hualien","wifi":4,"seat":3,"quiet":4,"tasty":4,"cheap":3,"music":5,"url":"https://www.facebook.com/caffefiore2014/","address":"花蓮市忠孝街79號","latitude":"23.97497620","longitude":"121.60556760","limited_time":"no","socket":"","standing_desk":"no","mrt":"","open_time":"13:30-21:00 公休日:每周三"},{"id":"397c217c-bb35-4325-b8a9-cc342b92d0e9","name":"木子家咖啡烘焙坊","city":"hualien","wifi":0,"seat":0,"quiet":0,"tasty":0,"cheap":0,"music":0,"url":"","address":"花蓮縣花蓮市民權九街1巷5號","latitude":"23.98834810","longitude":"121.62771750","limited_time":"","socket":"","standing_desk":"","mrt":"","open_time":""},{"id":"4ad51905-bee5-4b8f-aea3-1ae74b3bac82","name":"La le","city":"hualien","wifi":5,"seat":5,"quiet":5,"tasty":5,"cheap":5,"music":5,"url":"","address":"花蓮縣花蓮市中美十一街9號","latitude":"23.99549250","longitude":"121.62286930","limited_time":"no","socket":"maybe","standing_desk":"no","mrt":"","open_time":""},{"id":"4f322786-44e7-4630-9aa3-324a11d2e98f","name":"OliTree","city":"hualien","wifi":0,"seat":5,"quiet":5,"tasty":0,"cheap":0,"music":5,"url":"https://m.facebook.com/loveolitree/?locale2=zh_TW","address":"花蓮市節約街19號","latitude":"23.97827500","longitude":"121.60666260","limited_time":"no","socket":"maybe","standing_desk":"no","mrt":"","open_time":"13:30~22:00"},{"id":"54424e5b-8cda-4874-9dc1-e88d33e9090f","name":"光覺咖啡(太魯閣店) lighten cafe taroko","city":"hualien","wifi":0,"seat":4,"quiet":4,"tasty":5,"cheap":4.5,"music":5,"url":"https://www.facebook.com/Tarokocafe/","address":"花蓮縣秀林鄉崇德村159號","latitude":"24.15145620","longitude":"121.64872790","limited_time":"no","socket":"yes","standing_desk":"yes","mrt":"","open_time":""},{"id":"565f9e9b-7790-4b59-869d-9f82a44e2dcd","name":"伊諾咖啡館","city":"hualien","wifi":5,"seat":5,"quiet":4,"tasty":3.5,"cheap":4.5,"music":3.5,"url":"https://www.facebook.com/%E4%BC%8A%E8%AB%BE%E5%92%96%E5%95%A1%E9%A4%A8-112011755504621/","address":"花蓮市光復街130號","latitude":"23.98061650","longitude":"121.60471870","limited_time":"no","socket":"maybe","standing_desk":"no","mrt":"","open_time":"8:00am ~ 6:00pm"},{"id":"57546594-eaee-4938-8e29-33f61c48127c","name":"安娜咖啡","city":"hualien","wifi":5,"seat":5,"quiet":5,"tasty":5,"cheap":5,"music":5,"url":"https://www.facebook.com/cafeanna/","address":"花蓮市國聯5路137號","latitude":"23.99310510","longitude":"121.60486440","limited_time":"no","socket":"maybe","standing_desk":"no","mrt":"","open_time":"12:00pm ~ 11:00pm 週四公休"},{"id":"59033f51-068d-4c67-990a-c3194c2a328e","name":"夏比安民宿咖啡","city":"hualien","wifi":4,"seat":5,"quiet":5,"tasty":5,"cheap":5,"music":5,"url":"","address":"花蓮縣光復鄉民治街15巷28號","latitude":"23.64383060","longitude":"121.42101830","limited_time":"no","socket":"maybe","standing_desk":"no","mrt":"","open_time":"平日老闆下班後營業"},{"id":"66303ef3-0ee8-47d7-bb97-7ad0d17aa4ee","name":"五月樹咖啡","city":"hualien","wifi":5,"seat":5,"quiet":5,"tasty":5,"cheap":5,"music":5,"url":"","address":"花蓮縣花蓮市上海街220號","latitude":"23.97522330","longitude":"121.60599010","limited_time":"","socket":"","standing_desk":"","mrt":"","open_time":""},{"id":"705773f3-d38b-4d98-8624-bfa0f800adc7","name":"Lale咖啡","city":"hualien","wifi":0,"seat":4,"quiet":4,"tasty":5,"cheap":5,"music":5,"url":"https://www.facebook.com/LaLe-812459395528120/?fref=ts","address":"花蓮市中美11街9號","latitude":"23.99533440","longitude":"121.62286810","limited_time":"no","socket":"","standing_desk":"","mrt":"","open_time":""},{"id":"7b351894-7351-4f50-b643-9fa8097caf71","name":"阿莫咖啡 A-more Coffee","city":"hualien","wifi":5,"seat":5,"quiet":4.5,"tasty":5,"cheap":4.5,"music":4.5,"url":"https://www.facebook.com/amore168/","address":"花蓮市國民一街46號","latitude":"23.98759700","longitude":"121.60196400","limited_time":"no","socket":"maybe","standing_desk":"yes","mrt":"","open_time":"10:00AM - 8:00PM 週三公休"},{"id":"7ea3887d-ade8-4adc-8b7a-0c1e1b4a90e1","name":"9803","city":"hualien","wifi":5,"seat":4,"quiet":4,"tasty":5,"cheap":5,"music":5,"url":"https://www.facebook.com/9803cafe/","address":"花蓮縣壽豐鄉志學村榮光街22號","latitude":"23.90685000","longitude":"121.53449610","limited_time":"no","socket":"maybe","standing_desk":"no","mrt":"","open_time":"12:00 - 00:00，寒暑假休息"},{"id":"816bfc49-e3e1-476a-b562-3b224f2ce426","name":"正當冰","city":"hualien","wifi":5,"seat":4,"quiet":3,"tasty":5,"cheap":4,"music":4,"url":"https://www.facebook.com/JusticeIceCreamFanClub/","address":"花蓮市中福路147號 ","latitude":"23.97214640","longitude":"121.60178880","limited_time":"maybe","socket":"maybe","standing_desk":"no","mrt":"","open_time":""},{"id":"8250a1ff-a716-4dcf-8c7d-7d6135e3129b","name":"卡姐咖啡","city":"hualien","wifi":5,"seat":5,"quiet":5,"tasty":5,"cheap":3,"music":4,"url":"https://www.facebook.com/carinacafe/","address":"970花蓮縣花蓮市中興路143號","latitude":"23.99575900","longitude":"121.62580310","limited_time":"no","socket":"no","standing_desk":"no","mrt":"","open_time":""},{"id":"84edc540-0242-4dad-8f37-5d6fcb4a1f00","name":"惦惦 lab:tiamtiam","city":"hualien","wifi":0,"seat":0,"quiet":0,"tasty":0,"cheap":0,"music":0,"url":"","address":"花蓮縣吉安鄉中興路345號","latitude":"23.97395490","longitude":"121.56486840","limited_time":"","socket":"","standing_desk":"","mrt":"","open_time":""},{"id":"852b4fa3-8427-4b04-80e3-b598237916a4","name":"众咖啡","city":"hualien","wifi":5,"seat":5,"quiet":5,"tasty":5,"cheap":4,"music":4,"url":"https://www.facebook.com/peopleofcoffee","address":"花蓮市中山路624號","latitude":"23.99337100","longitude":"121.59689800","limited_time":"no","socket":"yes","standing_desk":"yes","mrt":"","open_time":"9~20"},{"id":"8a4cae29-2410-48fd-b4d2-769d84c25e34","name":"咖啡月","city":"hualien","wifi":0,"seat":3,"quiet":3,"tasty":3,"cheap":3,"music":2,"url":"","address":"花蓮縣花蓮市復興街65-2號","latitude":"23.98129530","longitude":"121.60685540","limited_time":"","socket":"","standing_desk":"","mrt":"","open_time":""},{"id":"a6cbb007-50f4-4a3c-911b-bb6269f85dde","name":"真澤咖啡","city":"hualien","wifi":0,"seat":0,"quiet":0,"tasty":0,"cheap":0,"music":0,"url":"","address":"970花蓮縣花蓮市中華路325-9號","latitude":"23.97486320","longitude":"121.59831020","limited_time":"","socket":"","standing_desk":"","mrt":"","open_time":""},{"id":"a6df7233-5a3b-4ee7-9feb-50fe64e73f6f","name":"花蓮咖啡-色香貓精品咖啡","city":"hualien","wifi":0,"seat":0,"quiet":0,"tasty":0,"cheap":0,"music":0,"url":"https://www.facebook.com/SHE.XIANG.MAO.COFFEE/?fref=ts","address":"花蓮縣花蓮市建國路75巷16弄19號號","latitude":"23.98192950","longitude":"121.60243110","limited_time":"","socket":"","standing_desk":"","mrt":"","open_time":""},{"id":"b11f47b5-2c49-4de1-8504-ae9d5a032b94","name":"Paper Airplane Cafe","city":"hualien","wifi":0,"seat":5,"quiet":5,"tasty":5,"cheap":4,"music":4,"url":"","address":"花蓮市三民街35-1號 ","latitude":"23.98083930","longitude":"121.60830420","limited_time":"no","socket":"maybe","standing_desk":"no","mrt":"","open_time":""},{"id":"b6aab84f-a2de-4aa5-9fa6-e188dbe36e5b","name":"Kohi宅","city":"hualien","wifi":4.5,"seat":4,"quiet":5,"tasty":5,"cheap":3.5,"music":4.5,"url":"","address":"花蓮縣花蓮市成功街298號","latitude":"23.97450840","longitude":"121.60785350","limited_time":"no","socket":"no","standing_desk":"no","mrt":"","open_time":"14:00~22:00"},{"id":"b74299e5-2387-4d5d-81c1-9fa2e90cdf7b","name":"giocare義式.手沖咖啡","city":"hualien","wifi":2,"seat":4,"quiet":3.5,"tasty":5,"cheap":4,"music":4,"url":"https://www.facebook.com/giocare.cafe/","address":"花蓮縣花蓮市樹人街7號","latitude":"23.97628550","longitude":"121.61301910","limited_time":"no","socket":"","standing_desk":"no","mrt":"","open_time":""},{"id":"bc937057-a552-48b8-a0da-d1d3b0bfb62c","name":"choco choco 手工巧克力","city":"hualien","wifi":5,"seat":4,"quiet":4,"tasty":4,"cheap":4,"music":5,"url":"https://www.facebook.com/hualienchoco/","address":"花蓮市忠孝街70號","latitude":"23.97514600","longitude":"121.60571140","limited_time":"maybe","socket":"maybe","standing_desk":"no","mrt":"","open_time":""},{"id":"c451e1c0-2f8c-4cbe-a038-5e89f98c2781","name":"吉野精品咖啡烘焙室","city":"hualien","wifi":0,"seat":0,"quiet":0,"tasty":0,"cheap":0,"music":0,"url":"https://www.coffeeman.com.tw/","address":"970花蓮縣花蓮市成功街206號","latitude":"23.97301980","longitude":"121.60559400","limited_time":"","socket":"","standing_desk":"","mrt":"","open_time":""},{"id":"c7554ef5-2eff-4c4c-a002-a3cf9dd6ebbb","name":"羅伯咖啡國聯店","city":"hualien","wifi":5,"seat":5,"quiet":5,"tasty":3,"cheap":3,"music":3,"url":"http://www.rob-cafe.com.tw","address":"花蓮市國聯五路69號","latitude":"23.99075370","longitude":"121.60535630","limited_time":"no","socket":"maybe","standing_desk":"no","mrt":"","open_time":""},{"id":"cb5cf5a7-f45e-49b6-a4fa-14c5bbd00b05","name":"週六郊區","city":"hualien","wifi":0,"seat":5,"quiet":5,"tasty":5,"cheap":5,"music":5,"url":"週六郊區","address":"花蓮市民權7街22號","latitude":"23.98830020","longitude":"121.62253760","limited_time":"no","socket":"yes","standing_desk":"no","mrt":"","open_time":""},{"id":"cda7ad4b-3f1a-4a7e-8417-bfdb071f6e9d","name":"杯點咖啡 Bad Day Coffee","city":"hualien","wifi":5,"seat":5,"quiet":5,"tasty":5,"cheap":4,"music":5,"url":"https://www.facebook.com/baddaycoffee/","address":"花蓮市富祥街58號","latitude":"23.99291520","longitude":"121.59324150","limited_time":"no","socket":"yes","standing_desk":"no","mrt":"","open_time":""},{"id":"d4c5194c-9a6b-4e68-9d3c-17475a798b26","name":"半寓咖啡giocare 1店","city":"hualien","wifi":4,"seat":5,"quiet":5,"tasty":5,"cheap":4,"music":5,"url":"https://www.facebook.com/apartment.giocare/","address":"花蓮市成功街316號","latitude":"23.97465010","longitude":"121.60813270","limited_time":"","socket":"maybe","standing_desk":"no","mrt":"","open_time":"14：00～20：00"},{"id":"d8834684-2728-46e4-830d-b3b15bf1c323","name":"泥巴咖啡","city":"hualien","wifi":5,"seat":4,"quiet":5,"tasty":3,"cheap":3,"music":4,"url":"","address":"花蓮縣花蓮市中正路561號","latitude":"23.97752970","longitude":"121.60760560","limited_time":"no","socket":"maybe","standing_desk":"no","mrt":"","open_time":"13:00–21:00 週二公休"},{"id":"d8d852c7-73cd-4d8a-a674-87d85712a55f","name":"伯揚咖啡吉安總店","city":"hualien","wifi":4,"seat":5,"quiet":5,"tasty":5,"cheap":5,"music":0,"url":"https://www.facebook.com/BoYangCafe/","address":"吉安鄉永興7街72號","latitude":"23.95457820","longitude":"121.56795580","limited_time":"no","socket":"no","standing_desk":"no","mrt":"","open_time":"12:30 - 20:30"},{"id":"dcd0a7e1-a10a-4e0c-8511-e13064ec6cc7","name":"黑鯨咖啡","city":"hualien","wifi":5,"seat":5,"quiet":5,"tasty":5,"cheap":5,"music":5,"url":"https://www.facebook.com/%E9%BB%91%E9%AF%A8%E5%92%96%E5%95%A1%E9%A4%A8-Black-Whale-Cafe-225521334305344/","address":"花蓮市林森路255之1號","latitude":"23.97895950","longitude":"121.60152690","limited_time":"no","socket":"yes","standing_desk":"yes","mrt":"","open_time":"平日9:00~19:00,假日12:00~22:00"},{"id":"dd4dca91-7f4a-4910-a2f9-2d14ec1b2a77","name":"波米咖啡","city":"hualien","wifi":5,"seat":4,"quiet":4,"tasty":5,"cheap":4,"music":5,"url":"https://www.facebook.com/Pommecafe/","address":"花蓮市民國路 45 號","latitude":"23.97705160","longitude":"121.60278190","limited_time":"","socket":"no","standing_desk":"no","mrt":"","open_time":"周一公休 10:00AM - 2:30PM, 5:00PM - 9:00PM"},{"id":"e1af95d8-9d07-483f-86df-56ca0bd1156b","name":"Koukouvagia 咕咕發芽咖啡驛棧","city":"hualien","wifi":5,"seat":5,"quiet":4,"tasty":5,"cheap":5,"music":5,"url":"https://www.facebook.com/koukouvagiacafe/","address":"花蓮縣玉里鎮大同路58號","latitude":"23.32674060","longitude":"121.31427020","limited_time":"","socket":"maybe","standing_desk":"yes","mrt":"","open_time":""},{"id":"e433a385-ce45-4778-a23f-2280febb0c8c","name":"月荷塘鄉村廚房","city":"hualien","wifi":5,"seat":5,"quiet":4,"tasty":3,"cheap":4,"music":4,"url":"https://www.facebook.com/lsmoon39/","address":"花蓮縣富里鄉983花蓮縣富里鄉羅山村東湖39號","latitude":"23.20164250","longitude":"121.27590360","limited_time":"no","socket":"maybe","standing_desk":"yes","mrt":"","open_time":""},{"id":"e6a61a0f-63a6-4476-8473-b1428968b512","name":"浮室 soave plan","city":"hualien","wifi":5,"seat":5,"quiet":5,"tasty":5,"cheap":5,"music":5,"url":"https://www.facebook.com/soaveplan/","address":"花蓮縣花蓮市成功街280號","latitude":"23.97424770","longitude":"121.60733620","limited_time":"no","socket":"maybe","standing_desk":"no","mrt":"","open_time":""},{"id":"ec611d48-7dcb-41d8-a919-619005a8a94e","name":"斗。宅商社 Cafe & Bar","city":"hualien","wifi":0,"seat":0,"quiet":0,"tasty":0,"cheap":0,"music":0,"url":"https://www.facebook.com/Shibainu159.7","address":"花蓮市福建街460號 (鐵道文化園區二館內)","latitude":"23.97443230","longitude":"121.60984350","limited_time":"no","socket":"yes","standing_desk":"no","mrt":"","open_time":""},{"id":"eeaaf76a-f16f-4ca9-ac4b-93579cbcacae","name":"金湯達人咖啡館","city":"hualien","wifi":2,"seat":4,"quiet":4,"tasty":5,"cheap":2,"music":5,"url":"https://www.facebook.com/kingtangcafe","address":"花蓮市中山路431號","latitude":"23.98258580","longitude":"121.60492030","limited_time":"no","socket":"maybe","standing_desk":"no","mrt":"","open_time":"每日8:00AM - 7:00PM"},{"id":"fb3cbf38-b7ad-43d0-9453-2451d3a4c7fa","name":"花蓮恩典咖啡","city":"hualien","wifi":0,"seat":0,"quiet":0,"tasty":0,"cheap":0,"music":0,"url":"https://www.facebook.com/%E8%8A%B1%E8%93%AE%E6%81%A9%E5%85%B8%E5%92%96%E5%95%A1-748440858570985/?fref=ts","address":"花蓮縣花蓮市民運里中美一街74號","latitude":"23.99474490","longitude":"121.63077700","limited_time":"","socket":"","standing_desk":"","mrt":"","open_time":""},{"id":"fc702163-13f9-4bdf-81cd-dd50979106cf","name":"Cafe Copita","city":"hualien","wifi":0,"seat":5,"quiet":5,"tasty":5,"cheap":4,"music":4,"url":"","address":"花蓮市博愛街105號","latitude":"23.97464140","longitude":"121.60838540","limited_time":"","socket":"","standing_desk":"","mrt":"","open_time":""}]