[{"id":"003c1c71-b6c9-4257-8722-54307a2281be","name":"Fuelwood Coffee 燃木咖啡研究所","city":"kaohsiung","wifi":4,"seat":5,"quiet":4,"tasty":5,"cheap":5,"music":5,"url":"https://www.facebook.com/fuelwoodcafe/","address":"高雄市前鎮區復興三路311-14號","latitude":"22.58304500","longitude":"120.33590010","limited_time":"no","socket":"maybe","standing_desk":"yes","mrt":"「草衙站2號出口」出來後左轉，直行約600公尺","open_time":""},{"id":"00544d87-9d8f-4910-88e6-79aa69c5b447","name":"咖啡林咖啡 ","city":"kaohsiung","wifi":4.5,"seat":4,"quiet":3.5,"tasty":5,"cheap":4,"music":4.5,"url":"https://www.facebook.com/coffeelingcafe/","address":"高雄市三民區鼎祥街12號","latitude":"22.66538400","longitude":"120.31573100","limited_time":"maybe","socket":"yes","standing_desk":"no","mrt":"","open_time":"12:00-24:00"},{"id":"014ca85b-0a9d-4882-8a51-2e8e1a67315c","name":"多那之岡山分店","city":"kaohsiung","wifi":2.5,"seat":1.5,"quiet":1.5,"tasty":2.5,"cheap":3,"music":2,"url":"","address":"高雄市岡山區前鋒路6號","latitude":"22.79448060","longitude":"120.28943310","limited_time":"","socket":"","standing_desk":"","mrt":"","open_time":""},{"id":"016c172f-34fa-4b21-b912-2c05f81ee209","name":"高雄 TaMa 咖啡館","city":"kaohsiung","wifi":5,"seat":5,"quiet":4.5,"tasty":5,"cheap":5,"music":5,"url":"https://www.facebook.com/TaMa.Cafe/?fref=ts","address":"高雄市苓雅區永康街73號","latitude":"22.61759290","longitude":"120.30796130","limited_time":"no","socket":"maybe","standing_desk":"yes","mrt":"三多商圈","open_time":"詳細上臉書粉絲專頁最清楚"},{"id":"02c2bf8c-3a1f-45c6-b248-827bf124653f","name":"清．咖啡印製所","city":"kaohsiung","wifi":0,"seat":0,"quiet":0,"tasty":0,"cheap":0,"music":0,"url":"","address":"高雄市三民區皓東路296號","latitude":"22.65203610","longitude":"120.33680060","limited_time":"","socket":"","standing_desk":"","mrt":"","open_time":""},{"id":"02c4ca19-22a4-4baa-8b39-a3b144967596","name":"Zone Café 弄咖啡","city":"kaohsiung","wifi":0,"seat":4.5,"quiet":4,"tasty":3.5,"cheap":3.5,"music":5,"url":"https://www.facebook.com/zonecafe.kaohsiung/","address":"高雄市三民區北平一街158號","latitude":"22.65019000","longitude":"120.30460000","limited_time":"","socket":"","standing_desk":"","mrt":"後驛站","open_time":""},{"id":"03353e4b-fa15-4c4a-b930-1f15c9900907","name":"Cuiqu Coffee(奎克咖啡)","city":"kaohsiung","wifi":4,"seat":4.5,"quiet":3,"tasty":4,"cheap":3,"music":4,"url":"https://www.facebook.com/cuiqucoffee/","address":"高雄市鼓山區博愛二路236號","latitude":"22.66075200","longitude":"120.30339600","limited_time":"no","socket":"yes","standing_desk":"no","mrt":"凹子底","open_time":"08:30-21:30"},{"id":"0339466b-af7a-4e73-af90-4e46b1d9e1cc","name":"季洋咖啡隨行吧福山店","city":"kaohsiung","wifi":4,"seat":5,"quiet":5,"tasty":3,"cheap":5,"music":3,"url":"","address":"高雄市左營區重愛路158號","latitude":"22.68437510","longitude":"120.31709900","limited_time":"no","socket":"yes","standing_desk":"yes","mrt":"","open_time":""},{"id":"04548030-9211-465b-a87a-f32429d7c45b","name":"My cofi","city":"kaohsiung","wifi":5,"seat":5,"quiet":5,"tasty":5,"cheap":4,"music":4,"url":"https://www.facebook.com/My-cofi-116728305117302/","address":"高雄市苓雅區廈門街19號","latitude":"22.62567660","longitude":"120.31419190","limited_time":"yes","socket":"maybe","standing_desk":"no","mrt":"信義國小站4號出口步10分/公車站\"麗尊酒店\"步3分, \"民權一路\"步5分/CityBike\"文化中心\"站步6分","open_time":""},{"id":"0490448b-539a-4a23-878f-f5bd4f0caaa2","name":"咖啡敘事曲","city":"kaohsiung","wifi":5,"seat":4,"quiet":4,"tasty":5,"cheap":3,"music":5,"url":"https://www.facebook.com/balladecafe/","address":"高雄市苓雅區永定街85號","latitude":"22.61886200","longitude":"120.31159500","limited_time":"","socket":"","standing_desk":"no","mrt":"","open_time":"08:00 - 18:00"},{"id":"05129b1d-349e-4052-832f-b94b14b87530","name":"羅斯朵.晴天現烘精品咖啡研究室","city":"kaohsiung","wifi":5,"seat":5,"quiet":5,"tasty":5,"cheap":5,"music":5,"url":"https://www.facebook.com/sunnyday.cafe.roaster3/","address":"五福三路98-1號","latitude":"22.62156400","longitude":"120.29574550","limited_time":"no","socket":"yes","standing_desk":"","mrt":"","open_time":""},{"id":"072b7a84-0542-401a-b350-71595f073eae","name":"O2 Caffe 歐兔咖啡","city":"kaohsiung","wifi":5,"seat":5,"quiet":4,"tasty":2,"cheap":5,"music":4,"url":"","address":"高雄市楠梓區土庫二路183號","latitude":"22.73846420","longitude":"120.32611370","limited_time":"no","socket":"maybe","standing_desk":"no","mrt":"","open_time":""},{"id":"075fd07c-3cdf-4c9b-9f29-9fa3927c3a9d","name":"噗 咖啡 Pu Cafe","city":"kaohsiung","wifi":4.5,"seat":5,"quiet":4,"tasty":5,"cheap":4,"music":4,"url":"https://www.facebook.com/pucafe5515023/","address":"高雄市鹽埕區新樂街152號","latitude":"22.62478460","longitude":"120.28390790","limited_time":"maybe","socket":"maybe","standing_desk":"yes","mrt":"鹽埕埔站2號出口步1分","open_time":""},{"id":"0836ee53-ed69-4f9e-9c06-d6ef0c3dcb84","name":" KamoGamo貓窩 ","city":"kaohsiung","wifi":5,"seat":3,"quiet":5,"tasty":4,"cheap":3,"music":4,"url":"","address":"800台灣高雄市新興區文橫二路121巷22號","latitude":"22.62112100","longitude":"120.30376600","limited_time":"no","socket":"maybe","standing_desk":"no","mrt":"","open_time":""},{"id":"08b77441-6004-4018-a814-5dd8f1130759","name":" Taylor's Caf'e 泰勒咖啡坊","city":"kaohsiung","wifi":0,"seat":3,"quiet":5,"tasty":3.5,"cheap":3,"music":3.5,"url":"https://www.facebook.com/tdtc.cafe/","address":"高雄市三民區臥龍路54巷49號1樓","latitude":"22.63808480","longitude":"120.33181660","limited_time":"","socket":"","standing_desk":"no","mrt":"","open_time":""},{"id":"09822d7f-3bf0-447d-8f7b-089bd7df77ef","name":"Pure Black Coffee","city":"kaohsiung","wifi":0,"seat":0,"quiet":0,"tasty":0,"cheap":0,"music":0,"url":"","address":"高雄市左營區至聖路14號","latitude":"22.65971290","longitude":"120.31105610","limited_time":"","socket":"","standing_desk":"","mrt":"","open_time":""},{"id":"098d1f76-0118-4df8-8251-d638d1a16aee","name":"Louisa Coffee 路易．莎咖啡(高雄裕誠店)","city":"kaohsiung","wifi":5,"seat":4,"quiet":4,"tasty":5,"cheap":4,"music":4,"url":"https://www.facebook.com/%E8%B7%AF%E6%98%93%E8%8E%8E%E5%92%96%E5%95%A1-Louisa-Coffee-%E9%AB%98%E9%9B%84%E8%A3%95%E8%AA%A0%E5%BA%97-1819695671592819/","address":"高雄市左營區裕誠路366號","latitude":"22.66547200","longitude":"120.30736600","limited_time":"no","socket":"no","standing_desk":"no","mrt":"巨蛋","open_time":""},{"id":"0b118140-0a3f-45da-8178-732317197e89","name":"一等一咖啡","city":"kaohsiung","wifi":5,"seat":4.5,"quiet":4,"tasty":5,"cheap":4.5,"music":5,"url":"https://www.facebook.com/Top1CafeTea","address":"高雄市鹽埕區新興街28-1號","latitude":"22.62357180","longitude":"120.28018770","limited_time":"maybe","socket":"yes","standing_desk":"yes","mrt":"","open_time":"10-10"},{"id":"0b80d7aa-7816-48a8-bf4f-45dc2c981007","name":"向陽樹咖啡-峇里島驛站","city":"kaohsiung","wifi":0,"seat":0,"quiet":0,"tasty":0,"cheap":0,"music":0,"url":"https://www.facebook.com/shinytree.tw/","address":"高雄市梓官區大舍南路92號","latitude":"22.74463590","longitude":"120.26243690","limited_time":"","socket":"","standing_desk":"","mrt":"","open_time":""},{"id":"0b99334b-b2a7-49dc-b79f-2c08fd69224c","name":"艾奇諾珈琲工坊","city":"kaohsiung","wifi":4,"seat":5,"quiet":4.5,"tasty":5,"cheap":4,"music":3.5,"url":"https://www.facebook.com/CaffeArtigiano1982/","address":"高雄市鹽埕區建國四路41號","latitude":"22.62232300","longitude":"120.27841700","limited_time":"maybe","socket":"maybe","standing_desk":"no","mrt":"輕軌駁二蓬萊站步4分, 捷運西子灣站2號出口步7分, 鹽埕埔站1號出口步9分/公車站\"輕軌駁二蓬箂站(高雄港)\"步3分/CityBike\"海巡隊站\"站步3分, \"鐵道文化園區站\"站步5分","open_time":""},{"id":"0cb05285-0f05-4e9c-849b-6f9f2ef4a5c0","name":"季洋莊園咖啡隨行吧成功店","city":"kaohsiung","wifi":0,"seat":0,"quiet":0,"tasty":0,"cheap":0,"music":0,"url":"","address":"高雄市前金區成功一路431號","latitude":"22.62729470","longitude":"120.29248610","limited_time":"","socket":"","standing_desk":"","mrt":"","open_time":""},{"id":"0d81d7b8-b483-487d-963a-1027af7d2d5b","name":"都提咖啡","city":"kaohsiung","wifi":5,"seat":4,"quiet":3,"tasty":5,"cheap":4,"music":2,"url":"https://www.facebook.com/Duttycoffee/","address":"高雄市三民區吉林街86號","latitude":"22.64240300","longitude":"120.30632200","limited_time":"no","socket":"maybe","standing_desk":"yes","mrt":"後驛站2號出口步12分, 台鐵高雄站後站出口步7分/公車站''大連街口''步3分, \"三民國中\"步5分/CityBike''三民游泳池''站步3分, ''博愛國小''站步5分, \"後火車站\"站步6分","open_time":""},{"id":"0ef14210-e614-4a9b-bf10-782756de0ea9","name":"Café Strada 步道咖啡","city":"kaohsiung","wifi":5,"seat":4,"quiet":4,"tasty":4,"cheap":4,"music":5,"url":"https://www.facebook.com/Caf%C3%A9-Strada-%E6%AD%A5%E9%81%93%E5%92%96%E5%95%A1-131409216946863/?fref=ts","address":"高雄市新興區中正二路67號","latitude":"22.63012370","longitude":"120.31741360","limited_time":"no","socket":"yes","standing_desk":"no","mrt":"文化中心站2號出口步1分","open_time":""},{"id":"0f59887a-0316-4fdc-89a2-e8193e223603","name":"Petite Cafe 波醍精品咖啡館 大立百貨店","city":"kaohsiung","wifi":0,"seat":0,"quiet":0,"tasty":0,"cheap":0,"music":0,"url":"www.petitecafe.com.tw","address":"80148高雄市前金區五福三路59號B館大立百貨","latitude":"22.62171770","longitude":"120.29748010","limited_time":"maybe","socket":"no","standing_desk":"no","mrt":"中央公園站","open_time":""},{"id":"0f84e75e-05cb-4c57-b277-315d2b59f7e3","name":"草圖自家烘焙咖啡館","city":"kaohsiung","wifi":3,"seat":3,"quiet":4,"tasty":5,"cheap":4,"music":4,"url":"https://www.facebook.com/sketchcafe.tw/","address":"高雄市前金區中正四路111號","latitude":"22.62962900","longitude":"120.29771100","limited_time":"maybe","socket":"no","standing_desk":"yes","mrt":"舊市議會站三號出口","open_time":"二~五: 10-18, 六日: 11-18, 一公休"},{"id":"104fb87b-6fe2-4a02-b8be-662a670a325b","name":"三餘書店 TaKaoBooks","city":"kaohsiung","wifi":5,"seat":5,"quiet":5,"tasty":5,"cheap":5,"music":5,"url":"https://www.facebook.com/pg/takaobooks214/about/?ref=page_internal","address":"高雄市新興區中正二路214號","latitude":"22.63059180","longitude":"120.31550730","limited_time":"no","socket":"yes","standing_desk":"no","mrt":"文化中心","open_time":"13:30-22:00"},{"id":"10b47950-d480-48ae-827e-8f96541439df","name":"摩迅高雄楠梓店","city":"kaohsiung","wifi":5,"seat":5,"quiet":4,"tasty":5,"cheap":4,"music":5,"url":"https://www.facebook.com/MoPaoJack/","address":"高雄市楠梓區裕昌街312號1樓","latitude":"22.71713270","longitude":"120.28776470","limited_time":"no","socket":"","standing_desk":"yes","mrt":"","open_time":""},{"id":"10e39ef3-f6a8-426f-8647-12b2658d6a4c","name":"費奧納咖啡","city":"kaohsiung","wifi":4,"seat":5,"quiet":4,"tasty":3,"cheap":3,"music":4,"url":"https://www.facebook.com/pg/Cofe.Fiona/about/?ref=page_internal","address":"前鎮區光華三路229號","latitude":"22.60551400","longitude":"120.31543810","limited_time":"no","socket":"maybe","standing_desk":"no","mrt":"","open_time":"10:00-21:00"},{"id":"120aa98f-0a2e-423c-b2af-27c229d17c41","name":"CHOOSY GOURMET 啡嚐挑剔","city":"kaohsiung","wifi":4.5,"seat":5,"quiet":4,"tasty":5,"cheap":4,"music":4,"url":"https://www.facebook.com/choosy.gourmet/","address":"高雄市仁武區後港巷151之10號","latitude":"22.68165600","longitude":"120.32225600","limited_time":"no","socket":"yes","standing_desk":"no","mrt":"","open_time":"週二至週六 11:00-23:00 周日 11:00-18:00"},{"id":"120e668a-673a-473d-9c73-51a9503c7515","name":"咕蒂咕蒂中山店","city":"kaohsiung","wifi":4,"seat":4,"quiet":3,"tasty":4,"cheap":4,"music":3,"url":"","address":"高雄市新興區中山一路27號","latitude":"0.00000000","longitude":"0.00000000","limited_time":"","socket":"maybe","standing_desk":"","mrt":"","open_time":""},{"id":"1233abc7-5fac-4862-9a82-de85bdacef12","name":"亞舍咖啡 Arthur Cafe","city":"kaohsiung","wifi":5,"seat":5,"quiet":5,"tasty":5,"cheap":4.5,"music":4.5,"url":"","address":"高雄市左營區文府路416號之3","latitude":"22.69081080","longitude":"120.31451550","limited_time":"","socket":"no","standing_desk":"","mrt":"","open_time":""},{"id":"12826970-e547-4c73-8e64-0d38a2ec7fec","name":"KSL Coffee","city":"kaohsiung","wifi":4,"seat":5,"quiet":3,"tasty":4,"cheap":3,"music":5,"url":"https://www.facebook.com/Kslcoffee/","address":"高雄市鳳山區青年路二段167號","latitude":"22.63444600","longitude":"120.34990100","limited_time":"no","socket":"maybe","standing_desk":"","mrt":"","open_time":"星期二-星期五13:00-21:00，星期六、日10:30-21:00，星期一公休"},{"id":"130f27bc-bf98-4912-a2be-fb6f644b551e","name":"卡啡那 CAFFAINA 明誠店","city":"kaohsiung","wifi":4,"seat":3,"quiet":2.5,"tasty":4,"cheap":1.5,"music":3,"url":"https://www.facebook.com/Caffaina-Coffee-Gallery-%E5%8D%A1%E5%95%A1%E9%82%A3%E6%98%8E%E8%AA%A0%E5%A3%B9%E8%99%9F%E5%BA%97-453732771383399/","address":"高雄市左營區明誠二路243號","latitude":"22.66080500","longitude":"120.31006300","limited_time":"no","socket":"yes","standing_desk":"","mrt":"凹子底站3號出口步14分/公車站\"河堤公園(明誠二路)\"步1分, \"明誠路口(自由二路)\"步3分/CityBike\"明誠光興站\"站步1分","open_time":""},{"id":"1454fb0d-839e-4fc2-9d19-957aa7c8ce7c","name":" Monday Black Espresso Bar X 咖啡漫談","city":"kaohsiung","wifi":5,"seat":5,"quiet":4,"tasty":5,"cheap":5,"music":4,"url":"https://www.facebook.com/sakicafe.3.0","address":"高雄市前鎮區台鋁十一巷十四號一樓","latitude":"99.99999999","longitude":"22.61287450","limited_time":"no","socket":"maybe","standing_desk":"yes","mrt":"獅甲","open_time":"每月不定期公休，詳見官網"},{"id":"172d9f40-9a17-49f9-b192-9d66b23ae577","name":"The Original One -T O O","city":"kaohsiung","wifi":4,"seat":5,"quiet":4,"tasty":3.5,"cheap":5,"music":0,"url":"https://www.facebook.com/TOO138/?ref=page_internal","address":"高雄市前鎮區瑞隆路138號","latitude":"22.60598300","longitude":"120.33642000","limited_time":"no","socket":"","standing_desk":"no","mrt":"","open_time":"09:00-19:00"},{"id":"185d744c-dad1-459b-9d1f-594456e70677","name":"黛西堂咖啡豆舖","city":"kaohsiung","wifi":5,"seat":5,"quiet":5,"tasty":5,"cheap":5,"music":5,"url":"https://goo.gl/ErJw9M","address":"高雄市鳳山區新富路182號","latitude":"22.61253970","longitude":"120.33758210","limited_time":"no","socket":"no","standing_desk":"no","mrt":"","open_time":""},{"id":"188fb9f6-ec2e-4028-8cb3-6a273a2f88ed","name":"Coffee Wake Up 咖啡覺醒（中山店）","city":"kaohsiung","wifi":5,"seat":4,"quiet":2.5,"tasty":5,"cheap":4,"music":5,"url":"https://zh-tw.facebook.com/coffeewakeuptaiwan/","address":"801高雄市前金區中山二路547號","latitude":"22.62139500","longitude":"120.30139800","limited_time":"no","socket":"yes","standing_desk":"no","mrt":"中央公園站","open_time":""},{"id":"19a0bc76-2013-4be2-9b8d-b62a9339fe74","name":"AWAKE COFFEE","city":"kaohsiung","wifi":4,"seat":4,"quiet":3,"tasty":4,"cheap":4,"music":4,"url":"https://www.facebook.com/coffee.Awake/","address":"高雄市前鎮區民豐街24號","latitude":"22.60539900","longitude":"120.31007900","limited_time":"no","socket":"yes","standing_desk":"yes","mrt":"獅甲站","open_time":""},{"id":"1abc4c2c-f7d6-45b8-853d-02857d0b81e8","name":"Kingmauii Coffee 金茂宜咖啡 文濱店","city":"kaohsiung","wifi":4,"seat":5,"quiet":4,"tasty":4,"cheap":5,"music":4,"url":"","address":"83048高雄市鳳山區文濱路186號1樓","latitude":"22.64421800","longitude":"120.35006900","limited_time":"","socket":"","standing_desk":"","mrt":"","open_time":""},{"id":"1b3164dc-1362-4c44-81da-2c6ed05e3682","name":"14g 光華店","city":"kaohsiung","wifi":4,"seat":5,"quiet":4,"tasty":5,"cheap":5,"music":5,"url":"","address":"802高雄市苓雅區光華一路315號","latitude":"22.62637890","longitude":"120.31445820","limited_time":"no","socket":"yes","standing_desk":"no","mrt":"","open_time":""},{"id":"1cc1269d-fbca-488a-855e-2778a811fa40","name":"學院便利電","city":"kaohsiung","wifi":2,"seat":5,"quiet":2,"tasty":3,"cheap":3,"music":2,"url":"https://www.facebook.com/SCPGJ/","address":"高雄市楠梓區高雄大學路700號","latitude":"22.73286670","longitude":"120.28720730","limited_time":"","socket":"no","standing_desk":"yes","mrt":"","open_time":""},{"id":"1d0536d4-b36c-431b-8f98-ae356806d43c","name":"季洋莊園咖啡隨行吧民族店","city":"kaohsiung","wifi":3,"seat":5,"quiet":2,"tasty":4,"cheap":5,"music":4,"url":"https://www.facebook.com/pages/%E5%AD%A3%E6%B4%8B%E8%8E%8A%E5%9C%92%E5%92%96%E5%95%A1%E9%9A%A8%E8%A1%8C%E5%90%A7%E6%B0%91%E6%97%8F%E5%BA%97/192027707635318?ref=stream","address":"高雄市新興區民族二路65-1號","latitude":"22.63139710","longitude":"120.31299300","limited_time":"","socket":"","standing_desk":"","mrt":"文化中心/信義國小","open_time":""},{"id":"1e5229c9-1169-404a-a3e0-1a0e643ec15f","name":"聽見花開咖啡館 ","city":"kaohsiung","wifi":4,"seat":5,"quiet":5,"tasty":3,"cheap":3,"music":4,"url":"","address":"高雄市楠梓區土庫路283號","latitude":"22.74037450","longitude":"120.32950420","limited_time":"","socket":"","standing_desk":"","mrt":"","open_time":""},{"id":"1f59f0b3-e320-47cd-864c-be8a36c9ae72","name":"東二巷咖啡","city":"kaohsiung","wifi":5,"seat":5,"quiet":5,"tasty":5,"cheap":5,"music":3,"url":"https://www.facebook.com/arashi1986/","address":"台南市後壁區長安里中寮35-5號","latitude":"23.33173600","longitude":"120.35872700","limited_time":"no","socket":"maybe","standing_desk":"yes","mrt":"南崗山站","open_time":""},{"id":"1f7ddfa3-3352-4d1c-892a-0a7762ba94f6","name":"好林珈琲","city":"kaohsiung","wifi":0,"seat":0,"quiet":0,"tasty":0,"cheap":0,"music":0,"url":"","address":"高雄市旗山區民權二街13號","latitude":"0.00000000","longitude":"0.00000000","limited_time":"","socket":"","standing_desk":"","mrt":"","open_time":""},{"id":"218e1e17-568c-4d7a-be10-02eec3044c52","name":"核桃栗栗珈琲屋","city":"kaohsiung","wifi":5,"seat":5,"quiet":4,"tasty":5,"cheap":5,"music":5,"url":"https://facebook.com/kurumicafe","address":"81359高雄市左營區辛亥路43號","latitude":"22.66185480","longitude":"120.30932760","limited_time":"no","socket":"maybe","standing_desk":"yes","mrt":"","open_time":"日語教學時段店面有開未營業"},{"id":"22dd5086-733a-48b6-b218-33f4f50fdf2a","name":"Michel Coffee Beans","city":"kaohsiung","wifi":0,"seat":0,"quiet":0,"tasty":0,"cheap":0,"music":0,"url":"","address":"807高雄市三民區民族一路617號","latitude":"22.66881360","longitude":"120.31688910","limited_time":"","socket":"","standing_desk":"","mrt":"","open_time":""},{"id":"241c2c2f-5aec-47aa-9b71-88be22e4d096","name":"Bikecoffee - 拜克咖啡","city":"kaohsiung","wifi":5,"seat":5,"quiet":5,"tasty":5,"cheap":5,"music":5,"url":"https://www.facebook.com/Bikecoffee-%E6%8B%9C%E5%85%8B%E5%92%96%E5%95%A1-142406032633950/","address":"高雄市三民區林森一路345巷13號","latitude":"22.63878490","longitude":"120.30464620","limited_time":"no","socket":"yes","standing_desk":"yes","mrt":"高雄火車站(前站","open_time":"外帶窗口同營業時間"},{"id":"24f7acee-2308-4750-b140-f53e518cb111","name":"握咖啡 OH！cafe","city":"kaohsiung","wifi":4,"seat":3,"quiet":3,"tasty":4,"cheap":4,"music":3,"url":"","address":"高雄市鼓山區濱海二路5號","latitude":"22.62001200","longitude":"120.27033400","limited_time":"","socket":"","standing_desk":"","mrt":"","open_time":""},{"id":"272ef094-bbd0-4347-8a9e-21aabaaa570a","name":"旅行養分","city":"kaohsiung","wifi":5,"seat":4,"quiet":4,"tasty":3,"cheap":3,"music":3,"url":"https://www.facebook.com/travelnutrients","address":"鹽埕區新興街291號2樓","latitude":"22.63189700","longitude":"120.28447500","limited_time":"","socket":"maybe","standing_desk":"","mrt":"","open_time":""},{"id":"275aa2ae-4fa3-4a51-bacf-9a444ccd8519","name":"虛室咖啡 Fictional Room Coffee","city":"kaohsiung","wifi":5,"seat":4,"quiet":4,"tasty":5,"cheap":5,"music":4,"url":"https://www.facebook.com/fictionalroom/","address":"高雄市鼓山區鼓波街62號","latitude":"22.62368000","longitude":"120.27261000","limited_time":"no","socket":"maybe","standing_desk":"no","mrt":"","open_time":""},{"id":"28a50971-1cd2-4d35-bfc2-d91f8b0dbd2b","name":"慢生活咖啡","city":"kaohsiung","wifi":5,"seat":5,"quiet":5,"tasty":5,"cheap":5,"music":4.5,"url":"https://www.facebook.com/Slow-Life-Cafe-%E6%85%A2%E7%94%9F%E6%B4%BB%E5%92%96%E5%95%A1-787391827994869/","address":"高雄市鳳山區五甲二路538號","latitude":"22.59654710","longitude":"120.33356100","limited_time":"","socket":"","standing_desk":"","mrt":"","open_time":""},{"id":"29ab59f5-75ef-49a3-9140-f8f86b4be455","name":"貓頭鷹咖啡館","city":"kaohsiung","wifi":4.5,"seat":4.5,"quiet":5,"tasty":5,"cheap":4.5,"music":4.5,"url":"https://www.facebook.com/pg/%E8%B2%93%E9%A0%AD%E9%B7%B9%E5%92%96%E5%95%A1%E9%A4%A8-203670999688804/about/?ref=page_internal","address":"新興區忠孝一路458號","latitude":"22.63477300","longitude":"120.30640440","limited_time":"no","socket":"yes","standing_desk":"","mrt":"","open_time":""},{"id":"29dbca87-8d4e-40f2-a5ed-908b4107a0e1","name":"羅斯朵.晴天現烘咖啡-站前店","city":"kaohsiung","wifi":5,"seat":5,"quiet":5,"tasty":5,"cheap":5,"music":5,"url":"https://www.facebook.com/roaster.sunny/","address":"高雄市新興區中山一路262號","latitude":"22.63493900","longitude":"120.30251100","limited_time":"no","socket":"maybe","standing_desk":"yes","mrt":"高雄前火車站、美麗島","open_time":""},{"id":"2a929d36-3759-48e9-8729-e2255ac0307b","name":"她她咖比","city":"kaohsiung","wifi":0,"seat":5,"quiet":3,"tasty":4,"cheap":5,"music":2,"url":"https://www.facebook.com/top2gabe160625/","address":"高雄市三民區正忠路148號","latitude":"22.64305650","longitude":"120.33056340","limited_time":"","socket":"","standing_desk":"","mrt":"","open_time":""},{"id":"2aeb6efa-626f-4466-9a9c-ff540108e512","name":"來福咖啡Life Coffee Studio","city":"kaohsiung","wifi":3,"seat":4,"quiet":5,"tasty":5,"cheap":5,"music":5,"url":"https://www.facebook.com/life.coffee.studio/","address":"高雄市苓雅區永定街46號","latitude":"22.61801000","longitude":"120.31210900","limited_time":"no","socket":"","standing_desk":"","mrt":"","open_time":""},{"id":"2af93901-e1b1-4374-9812-218cc1308f48","name":"路易莎咖啡 河堤店","city":"kaohsiung","wifi":5,"seat":3.5,"quiet":1.5,"tasty":4,"cheap":4,"music":3,"url":"","address":"高雄市三民區明仁路51號","latitude":"22.66134580","longitude":"120.31430070","limited_time":"no","socket":"maybe","standing_desk":"no","mrt":"","open_time":""},{"id":"2b24b977-c49e-4bc5-9527-8a1a3d7c61c9","name":"路易莎咖啡小港店","city":"kaohsiung","wifi":4.5,"seat":5,"quiet":3,"tasty":4,"cheap":4,"music":4,"url":"","address":"高雄市小港區漢民路616號","latitude":"22.56675500","longitude":"120.36013500","limited_time":"no","socket":"no","standing_desk":"yes","mrt":"小港站","open_time":"08～22"},{"id":"2b9cd451-e8d7-4af5-8708-0e38890ff8b8","name":"Lino coffee roastery","city":"kaohsiung","wifi":4,"seat":5,"quiet":4,"tasty":5,"cheap":4,"music":4,"url":"https://www.facebook.com/LINOCAFECOMPANY/","address":"高雄市鼓山區河西一路1591-11號","latitude":"22.65074840","longitude":"120.29144870","limited_time":"","socket":"","standing_desk":"","mrt":"","open_time":""},{"id":"2cab54e8-dd70-4066-9ab9-d8873874427a","name":"歐客佬Oklao咖啡農場(高雄瑞豐店)","city":"kaohsiung","wifi":3,"seat":4,"quiet":2,"tasty":5,"cheap":5,"music":1,"url":"http://www.oklaocoffee.com/","address":"高雄市左營區明倫路85號","latitude":"22.66702190","longitude":"120.29785710","limited_time":"no","socket":"no","standing_desk":"no","mrt":"巨蛋站(R14)","open_time":""},{"id":"2d57601a-8847-4d68-b7da-f9b5e8d1572d","name":"想享咖啡茶屋","city":"kaohsiung","wifi":0,"seat":0,"quiet":0,"tasty":0,"cheap":0,"music":0,"url":"","address":"高雄市三民區鼎中路639號","latitude":"22.67218890","longitude":"120.32104500","limited_time":"","socket":"","standing_desk":"","mrt":"","open_time":""},{"id":"2ddeef12-655d-4b5d-a6bb-7c4bb3f5f233","name":"多那之(中正)","city":"kaohsiung","wifi":0,"seat":1,"quiet":1,"tasty":3,"cheap":0,"music":2,"url":"","address":"高雄市苓雅區中正一路288號","latitude":"22.62977830","longitude":"120.32765320","limited_time":"no","socket":"no","standing_desk":"no","mrt":"五塊厝","open_time":"00:00~24:00"},{"id":"2f4f29fb-92ae-4669-bac7-7b2cdbf98d06","name":"好意外咖啡","city":"kaohsiung","wifi":5,"seat":5,"quiet":4,"tasty":5,"cheap":3,"music":5,"url":"https://www.facebook.com/SerendipityCoffeeRoasters/?fref=ts","address":"高雄市左營區文上路38號","latitude":"22.67196560","longitude":"120.30128420","limited_time":"no","socket":"maybe","standing_desk":"no","mrt":"巨蛋站","open_time":""},{"id":"303820ac-b9a7-4e66-b409-ccaf628fe65c","name":"善廸花廚","city":"kaohsiung","wifi":5,"seat":5,"quiet":3,"tasty":4,"cheap":3,"music":4,"url":"https://www.facebook.com/SHANDIROSEMEAL/","address":"高雄市鼓山區青海路278號","latitude":"22.65143730","longitude":"120.28700710","limited_time":"no","socket":"yes","standing_desk":"yes","mrt":"","open_time":""},{"id":"30a23d21-cf1d-47df-87c0-9238c76df333","name":"赤菓咖啡（行動咖啡車）","city":"kaohsiung","wifi":1,"seat":1,"quiet":1,"tasty":5,"cheap":5,"music":4.5,"url":"https://www.facebook.com/Akakashi.cafe/","address":"高雄市鹽埕區新化街與光榮街公園內","latitude":"22.61949700","longitude":"120.28389500","limited_time":"no","socket":"no","standing_desk":"no","mrt":"鹽埕埔站","open_time":"星期一公休，通常在新化公園內"},{"id":"31b6897a-2362-4836-94f9-8e2d51acbc0d","name":"伴珈家","city":"kaohsiung","wifi":5,"seat":5,"quiet":4,"tasty":5,"cheap":3,"music":4,"url":"https://www.facebook.com/tomokoka102/","address":"鼓山區美術東七街102號","latitude":"22.66210120","longitude":"120.28964350","limited_time":"","socket":"maybe","standing_desk":"","mrt":"","open_time":""},{"id":"324e4a80-c59e-4c76-a0c7-5e82c594845a","name":"米奈咖啡 Meet 9 Cafe","city":"kaohsiung","wifi":0,"seat":0,"quiet":0,"tasty":0,"cheap":0,"music":0,"url":"","address":"高雄市鹽埕區府北路9號","latitude":"22.62784750","longitude":"120.28582280","limited_time":"","socket":"","standing_desk":"","mrt":"","open_time":""},{"id":"32ba3147-01b5-40aa-a394-12b5f8c3c431","name":"卡啡那 CAFFAINA 文化探索館（文化中心）","city":"kaohsiung","wifi":5,"seat":5,"quiet":3,"tasty":5,"cheap":4,"music":5,"url":"https://www.caffaina.com","address":"802高雄市苓雅區五福一路67號文化中心西苑","latitude":"22.62577780","longitude":"120.31806960","limited_time":"no","socket":"yes","standing_desk":"no","mrt":"","open_time":""},{"id":"34a40dd1-47a2-4819-be09-859c94799971","name":"BOOKING","city":"kaohsiung","wifi":4.5,"seat":4.5,"quiet":3,"tasty":3.5,"cheap":3.5,"music":4.5,"url":"https://www.facebook.com/bookingbookstore/","address":"高雄市鹽埕區瀨南街177號","latitude":"22.62667170","longitude":"120.28332970","limited_time":"maybe","socket":"yes","standing_desk":"no","mrt":"","open_time":""},{"id":"3514f56e-b6b7-4f78-a9c3-820abb744b92","name":"季洋莊園咖啡隨行吧（河堤店）","city":"kaohsiung","wifi":5,"seat":5,"quiet":5,"tasty":4,"cheap":4,"music":5,"url":"","address":"高雄市三民區河堤路586號","latitude":"22.66661460","longitude":"120.31486560","limited_time":"no","socket":"yes","standing_desk":"yes","mrt":"","open_time":""},{"id":"3690e61b-6975-48a3-9c00-0b9f7df513e4","name":"aroma cafe live 香氣現場","city":"kaohsiung","wifi":5,"seat":4,"quiet":4,"tasty":5,"cheap":4,"music":4.5,"url":"https://www.facebook.com/aromacafe96","address":"高雄市前金區長生街25號","latitude":"22.62222500","longitude":"120.29603700","limited_time":"no","socket":"maybe","standing_desk":"no","mrt":"中央公園","open_time":""},{"id":"3864a1e9-d9ac-4d1b-92ef-0e390eabae5a","name":"咖啡鳥咖啡館","city":"kaohsiung","wifi":5,"seat":5,"quiet":4,"tasty":4,"cheap":4,"music":5,"url":"https://www.facebook.com/caffe.bird.coffee/","address":"高雄市苓雅區青年一路24號","latitude":"22.62424200","longitude":"120.31404100","limited_time":"no","socket":"yes","standing_desk":"no","mrt":"信義國小站4號出口步13分/公車站\"民權一路\"步5分, \"麗尊酒店\"步6分/CityBike\"文化中心\"站步5分","open_time":""},{"id":"38bcec21-879a-4441-b662-2e694825a2b5","name":"14克咖啡","city":"kaohsiung","wifi":5,"seat":5,"quiet":5,"tasty":5,"cheap":5,"music":5,"url":"https://www.facebook.com/14gCoffee/","address":"高雄市新興區文橫二路121巷28號","latitude":"22.62101220","longitude":"120.30361700","limited_time":"no","socket":"maybe","standing_desk":"no","mrt":"中央公園","open_time":"1100-1900"},{"id":"3998ef38-1a2d-4259-8933-9e5b11ae08f8","name":"路人咖啡","city":"kaohsiung","wifi":5,"seat":5,"quiet":5,"tasty":5,"cheap":5,"music":5,"url":"https://www.facebook.com/ruhcafe/","address":"高雄市苓雅區四維三路217號","latitude":"22.61749600","longitude":"120.30515500","limited_time":"maybe","socket":"maybe","standing_desk":"yes","mrt":"捷運三多商圈站(R8)","open_time":""},{"id":"3b7be78f-1c6c-46bb-b46d-7cdb64aab953","name":"小涼福","city":"kaohsiung","wifi":3,"seat":3,"quiet":2.5,"tasty":2.5,"cheap":3,"music":2.5,"url":"","address":"高雄市三民區熱河一街431號","latitude":"22.64391000","longitude":"120.30405900","limited_time":"","socket":"maybe","standing_desk":"yes","mrt":"","open_time":""},{"id":"3c5a3572-318b-4a67-bf92-cb615c124a0f","name":"豆宅咖啡","city":"kaohsiung","wifi":5,"seat":5,"quiet":4,"tasty":4,"cheap":5,"music":3,"url":"https://www.facebook.com/BeanOtakusCoffe/","address":"高雄市左營區福山里榮德街19號","latitude":"22.68113650","longitude":"120.32004520","limited_time":"no","socket":"no","standing_desk":"no","mrt":"No","open_time":"周一公休"},{"id":"3ce5c993-2c71-4f23-ad4c-dfe6f55ab08d","name":"My cofi 哈瑪星","city":"kaohsiung","wifi":5,"seat":5,"quiet":3.5,"tasty":5,"cheap":3,"music":5,"url":"","address":"高雄市鼓山區鼓元街57號1樓 高雄市","latitude":"22.62143000","longitude":"120.27209800","limited_time":"","socket":"","standing_desk":"","mrt":"","open_time":""},{"id":"3d89bf91-d05c-4228-95d6-ec4ece0b6a07","name":"左咖啡x夜間部","city":"kaohsiung","wifi":4,"seat":5,"quiet":5,"tasty":4,"cheap":5,"music":5,"url":"https://www.facebook.com/chocoffee157","address":"高雄市鹽埕區大勇路157號","latitude":"22.62710910","longitude":"120.28555390","limited_time":"no","socket":"yes","standing_desk":"yes","mrt":"","open_time":"非疫情時有營業到晚上"},{"id":"3de1f9c2-1b4f-4225-bee6-2a5bf950a878","name":"MAY 16 CAFE","city":"kaohsiung","wifi":5,"seat":5,"quiet":5,"tasty":5,"cheap":4,"music":5,"url":"https://www.facebook.com/may16cafe.2013/","address":"高雄市苓雅區青年二路198號","latitude":"22.61792980","longitude":"120.29544390","limited_time":"no","socket":"","standing_desk":"","mrt":"","open_time":""},{"id":"3e4f734f-611c-4bd6-a925-dbc048ae5cd8","name":"百瓦哥咖啡正興店","city":"kaohsiung","wifi":5,"seat":5,"quiet":5,"tasty":5,"cheap":5,"music":5,"url":"https://www.facebook.com/BaiwagoPlusZhengxing/","address":"高雄市三民區正興路1818 cl4","latitude":"22.64814650","longitude":"120.31973730","limited_time":"no","socket":"maybe","standing_desk":"yes","mrt":"","open_time":""},{"id":"3f2a6133-1707-4405-9bb5-a87b59029e68","name":"AWAY COFFEE","city":"kaohsiung","wifi":0,"seat":4,"quiet":5,"tasty":4,"cheap":3,"music":5,"url":"https://www.facebook.com/awaycoffeeshop/","address":"高雄市三民區懷安街66號","latitude":"22.64089320","longitude":"120.31879200","limited_time":"","socket":"","standing_desk":"","mrt":"","open_time":""},{"id":"3f39e9d6-ced8-466b-9bad-a0d4a64b357f","name":"捌邸樓 8deroad","city":"kaohsiung","wifi":0,"seat":0,"quiet":0,"tasty":0,"cheap":0,"music":0,"url":"http://bit.ly/8deroadfb","address":"高雄市新興區八德二路46-1號","latitude":"22.63623110","longitude":"120.29937400","limited_time":"maybe","socket":"yes","standing_desk":"yes","mrt":"高雄火車站","open_time":"實際營業時間請參考FB"},{"id":"3ffa340d-ff9f-4cca-9c01-cbf8efc9ac25","name":"樂邦客","city":"kaohsiung","wifi":5,"seat":4,"quiet":3.5,"tasty":4,"cheap":4,"music":5,"url":"https://www.facebook.com/THEBONCO2017/","address":"高雄市新興區錦田路11號","latitude":"22.62831100","longitude":"120.30997000","limited_time":"no","socket":"maybe","standing_desk":"no","mrt":"信義國小","open_time":"06:30 - 21:00"},{"id":"4003d7cb-5555-4f19-b74c-e2d0161aae70","name":"百瓦哥咖啡（民生店）","city":"kaohsiung","wifi":4.5,"seat":4.5,"quiet":4,"tasty":5,"cheap":5,"music":4,"url":"https://www.facebook.com/百瓦哥咖啡-Baiwago-Plus-Cafe-高雄民生店-376194262744519/","address":"高雄市新興區民生一路15號","latitude":"22.62821450","longitude":"120.31335710","limited_time":"no","socket":"maybe","standing_desk":"no","mrt":"","open_time":"7:00～19:00"},{"id":"418419f6-afe0-4c95-96db-8eb4892b8af3","name":"新銳咖啡(高雄鼎中店)","city":"kaohsiung","wifi":0,"seat":0,"quiet":0,"tasty":0,"cheap":0,"music":0,"url":"","address":"高雄市三民區鼎中路172號","latitude":"22.66229840","longitude":"120.31936610","limited_time":"","socket":"","standing_desk":"no","mrt":"無","open_time":""},{"id":"428467d4-f65b-466b-bb69-0fe04f62f582","name":"草侍咖啡烘焙工坊","city":"kaohsiung","wifi":0,"seat":4.5,"quiet":5,"tasty":5,"cheap":5,"music":4.5,"url":"","address":"高雄市楠梓區藍昌路417巷15號","latitude":"22.72971800","longitude":"120.29149010","limited_time":"no","socket":"yes","standing_desk":"yes","mrt":"","open_time":""},{"id":"4369f97a-9341-40ca-9c9b-7f140161e78b","name":"書店喫茶一二三亭 (ヒフミテイ)","city":"kaohsiung","wifi":4.5,"seat":5,"quiet":4,"tasty":4,"cheap":4,"music":5,"url":"https://facebook.com/cafehifumi/","address":"高雄市鼓山區鼓元街4號","latitude":"22.62052770","longitude":"120.27401140","limited_time":"no","socket":"no","standing_desk":"no","mrt":"西子灣站1 2號出口步3分 輕軌哈瑪星站步3分/公車站\"捷運西子灣站(出口1)\"\"捷運西子灣站(出口2)\"\"新濱碼頭\"步3分/CityBike\"西子灣站\"站步4分","open_time":""},{"id":"4576a08c-49c7-4c95-a48f-9c34094aff8a","name":"日沐咖啡","city":"kaohsiung","wifi":4,"seat":4,"quiet":3,"tasty":4,"cheap":3,"music":4,"url":"https://www.facebook.com/rimoocafe/","address":"高雄市苓雅區凱旋三路619號","latitude":"22.61611390","longitude":"120.32679790","limited_time":"no","socket":"yes","standing_desk":"yes","mrt":"公車站\"武昌路口(凱旋三路)\"步1分, \"二聖一路\"步7分/CityBike\"英明公園站\"站步4分","open_time":""},{"id":"462ec5af-4b03-49e0-9620-354fb7815637","name":"芝咖啡","city":"kaohsiung","wifi":0,"seat":0,"quiet":0,"tasty":0,"cheap":0,"music":0,"url":"","address":"高雄市左營區明誠二路265號","latitude":"22.66087140","longitude":"120.30944290","limited_time":"","socket":"","standing_desk":"","mrt":"","open_time":""},{"id":"47bc0531-e48f-43da-963c-45aa5249a2b5","name":"真心豆行","city":"kaohsiung","wifi":3.5,"seat":4,"quiet":3,"tasty":5,"cheap":4,"music":4,"url":"https://www.facebook.com/ZhenXinDouHung/","address":"高雄市新興區洛陽街68號","latitude":"22.63446840","longitude":"120.30930280","limited_time":"no","socket":"","standing_desk":"no","mrt":"","open_time":"9:00-18:00"},{"id":"4b127718-549d-4881-9c7c-31eb42b9836a","name":"161烘焙咖啡屋(民族路)","city":"kaohsiung","wifi":0,"seat":5,"quiet":5,"tasty":5,"cheap":5,"music":5,"url":"","address":"高雄市三民區民族一路637號","latitude":"22.66923150","longitude":"120.31700550","limited_time":"","socket":"maybe","standing_desk":"no","mrt":"","open_time":""},{"id":"4d9f9d0d-9bc2-49be-8ae2-46f7eebe1230","name":"always a+","city":"kaohsiung","wifi":5,"seat":4,"quiet":4,"tasty":5,"cheap":4,"music":4,"url":"https://www.facebook.com/Always-A-%E5%92%96%E5%95%A1%E9%A4%A8-195980383748847/","address":"高雄市前金區新田路217號","latitude":"22.62106800","longitude":"120.30039600","limited_time":"no","socket":"maybe","standing_desk":"no","mrt":"中央公園","open_time":"08:00 - 18:00"},{"id":"4ee5fff7-8b89-4357-85a6-47c8e8308425","name":"鐵塔咖啡 Tower Cafe","city":"kaohsiung","wifi":5,"seat":4,"quiet":5,"tasty":5,"cheap":3.5,"music":5,"url":"https://www.facebook.com/jtowercafe/","address":"高雄市三民區同盟三路198號","latitude":"22.63828810","longitude":"120.28528640","limited_time":"no","socket":"","standing_desk":"","mrt":"","open_time":"平日: 06:30-14:30\n假日: 0800-1600"},{"id":"4f14ce8b-e3c9-42e9-a4eb-c79110f15290","name":"LA MAISON BERRY 貝瑞家 鼎華店","city":"kaohsiung","wifi":0,"seat":0,"quiet":0,"tasty":0,"cheap":0,"music":0,"url":"https://www.lamaisonberry.com/","address":"三民區鼎華路165號","latitude":"22.65191720","longitude":"120.31608340","limited_time":"maybe","socket":"","standing_desk":"","mrt":"","open_time":""},{"id":"52c671d1-07e4-44a7-b09f-be639a6c3a95","name":"Lab 駁二","city":"kaohsiung","wifi":4,"seat":4,"quiet":3,"tasty":3.5,"cheap":3.5,"music":4.5,"url":"https://www.facebook.com/labpiertwo/","address":"高雄市鹽埕區大義街2-1號 大義倉庫C7-5","latitude":"22.62170800","longitude":"120.28602700","limited_time":"","socket":"maybe","standing_desk":"no","mrt":"","open_time":""},{"id":"53baed98-d406-49ed-b903-84ef3bfc3711","name":"漬 Stain","city":"kaohsiung","wifi":5,"seat":5,"quiet":5,"tasty":4,"cheap":3,"music":5,"url":"https://www.facebook.com/Stain-%E6%BC%AC-499180870133728/","address":"高雄市鼓山區美術南五街48號","latitude":"22.65240460","longitude":"120.28472400","limited_time":"no","socket":"yes","standing_desk":"yes","mrt":"","open_time":"10:00-19:00"},{"id":"54a8f71d-f59e-4626-9af5-7f35eb42da14","name":"Ciao日安咖啡(大華店)","city":"kaohsiung","wifi":4,"seat":4,"quiet":4,"tasty":5,"cheap":4,"music":4,"url":"","address":"高雄市鳥松區球場路42巷7號 (店面門口在後門, 面臨大華路)","latitude":"22.65561230","longitude":"120.33720300","limited_time":"no","socket":"maybe","standing_desk":"yes","mrt":"無","open_time":""},{"id":"5506976b-7114-42d1-9ba0-1ef190e84e9a","name":"二元品嚐咖啡","city":"kaohsiung","wifi":2.5,"seat":4,"quiet":3,"tasty":4,"cheap":3,"music":4,"url":"https://www.facebook.com/pages/%E4%BA%8C%E5%85%83%E5%93%81%E5%9A%90%E5%92%96%E5%95%A1/155376311182312?fref=ts","address":"高雄市前金區民生二路201-1號","latitude":"22.62372330","longitude":"120.29176720","limited_time":"","socket":"","standing_desk":"no","mrt":"市議會站2號出口步10分/公車站\"愛之船國賓站\"步3分, \"前金國小(成功一路)\"步5分, \"高雄女中(真愛碼頭)\"步6分, \"臺灣銀行\"步7分/CityBike\"國賓飯店\"站步3分","open_time":"休假日前一日亦~2400"},{"id":"5648f3fe-a59c-419d-944b-2498ca732ffc","name":"36味咖啡館","city":"kaohsiung","wifi":4,"seat":5,"quiet":5,"tasty":5,"cheap":4,"music":4,"url":"","address":"高雄市三民區正興路74號","latitude":"22.64580500","longitude":"120.32130400","limited_time":"no","socket":"maybe","standing_desk":"yes","mrt":"","open_time":""},{"id":"56c09498-755c-4146-b033-d5dca69778f1","name":"卡啡那高雄文濱店","city":"kaohsiung","wifi":5,"seat":4,"quiet":2,"tasty":4,"cheap":3,"music":3,"url":"https://www.facebook.com/CaffainaCoffeeGallery","address":"高雄市鳳山區文濱路131號","latitude":"22.64464850","longitude":"120.34977220","limited_time":"no","socket":"maybe","standing_desk":"no","mrt":"","open_time":""},{"id":"57b2fdc7-8161-45de-8610-8157ba0a8a84","name":"Helen's son coffee","city":"kaohsiung","wifi":0,"seat":0,"quiet":0,"tasty":0,"cheap":0,"music":0,"url":"https://www.facebook.com/helensson.coffee/","address":"高雄市鼓山區高雄市鼓山區哨船街87號","latitude":"22.62435560","longitude":"120.26947850","limited_time":"maybe","socket":"yes","standing_desk":"yes","mrt":"","open_time":""},{"id":"58581eea-b150-4aaf-a059-a7da7b41ff46","name":"愚度咖啡 udu café","city":"kaohsiung","wifi":0,"seat":0,"quiet":0,"tasty":0,"cheap":0,"music":0,"url":"","address":"高雄市苓雅區憲治路2號","latitude":"22.63359090","longitude":"120.32705290","limited_time":"","socket":"","standing_desk":"","mrt":"","open_time":""},{"id":"59083b6c-ad1c-4da5-8af2-78321e4c1e15","name":"喜八咖啡店shiba caf'e","city":"kaohsiung","wifi":4,"seat":4,"quiet":4,"tasty":4,"cheap":4,"music":5,"url":"https://www.facebook.com/shibaRND/","address":"高雄市新興區南台路43巷21號","latitude":"22.63007200","longitude":"120.30001500","limited_time":"no","socket":"maybe","standing_desk":"yes","mrt":"美麗島","open_time":"2019歇業"},{"id":"59625bbb-f1a5-4d34-ba3d-02b7e949fbed","name":"Café De Lecture","city":"kaohsiung","wifi":1,"seat":5,"quiet":5,"tasty":1,"cheap":1,"music":5,"url":"https://www.facebook.com/MLDtailu/","address":"高雄市前鎮區忠勤路8號2F","latitude":"22.60433770","longitude":"120.30367770","limited_time":"maybe","socket":"maybe","standing_desk":"no","mrt":"獅甲/輕軌C7","open_time":"10:00-22:00"},{"id":"59ee9cfc-e1c5-4c9b-b524-c9b95e3d71a5","name":"季洋咖啡隨行吧楠梓店","city":"kaohsiung","wifi":0,"seat":0,"quiet":0,"tasty":0,"cheap":0,"music":0,"url":"","address":"高雄市楠梓區藍昌路351號","latitude":"22.72325100","longitude":"120.29095800","limited_time":"","socket":"","standing_desk":"","mrt":"","open_time":""},{"id":"5a919c7e-7cdd-46df-ad98-2d53df7e8667","name":"多那之(五甲店)","city":"kaohsiung","wifi":0,"seat":4,"quiet":3,"tasty":4,"cheap":5,"music":4,"url":"","address":"高雄市鳳山區五甲三路1號","latitude":"22.59308800","longitude":"120.32821470","limited_time":"no","socket":"maybe","standing_desk":"no","mrt":"","open_time":""},{"id":"5c5878c2-a6cf-44cf-8c20-f068174e7958","name":"安森叔叔自家烘焙","city":"kaohsiung","wifi":5,"seat":5,"quiet":1,"tasty":5,"cheap":5,"music":2,"url":"","address":"高雄市岡山區仁壽路62之5號","latitude":"22.79217840","longitude":"120.28928340","limited_time":"","socket":"","standing_desk":"","mrt":"","open_time":""},{"id":"5c8066fa-93e6-4a54-bca2-cb43ad50cd64","name":"Möbius 莫比巫師","city":"kaohsiung","wifi":5,"seat":5,"quiet":4,"tasty":5,"cheap":5,"music":5,"url":"https://www.facebook.com/pg/MoBius.Waffle.Cafe/posts/?ref=page_internal","address":"830高雄市鳳山區海洋一路60巷7號","latitude":"22.60947690","longitude":"120.34361190","limited_time":"no","socket":"yes","standing_desk":"yes","mrt":"","open_time":"店休日依每月粉專或IG公告為主"},{"id":"5dadcc02-dcc0-4715-9348-4d50de4bfbbc","name":"品甜咖啡","city":"kaohsiung","wifi":0,"seat":0,"quiet":0,"tasty":0,"cheap":0,"music":0,"url":"https://www.facebook.com/TASTESWEETCOFFEE/","address":"高雄市三民區大昌二路533巷10弄9號","latitude":"22.65142170","longitude":"120.32947910","limited_time":"","socket":"","standing_desk":"","mrt":"","open_time":""},{"id":"5f1019aa-3ab6-4339-9814-dc3bd5c7f89f","name":"元啡驢派","city":"kaohsiung","wifi":3.5,"seat":4,"quiet":4,"tasty":5,"cheap":3.5,"music":4,"url":"https://www.facebook.com/donkeypie/","address":"高雄市鹽埕區建國四路276號","latitude":"22.63105010","longitude":"120.28346650","limited_time":"maybe","socket":"maybe","standing_desk":"yes","mrt":"鹽埕埔站2號出口步12分/公車站\"鹽埕分局\"\"北斗街口\"步1分, \"七賢三路口\"步3分/CityBike\"WO旅店站\"\"家樂福愛河站\"站步8分, \"鼓山一路站\"站步9分, \"歷史博物館\"站步10分","open_time":""},{"id":"5f458e6c-c481-4f78-a211-310b1d795a49","name":"612號月光海洋咖啡館","city":"kaohsiung","wifi":4,"seat":4.5,"quiet":4,"tasty":4,"cheap":2.5,"music":4,"url":"https://www.facebook.com/612cafe/","address":"高雄市三民區明賢街67號","latitude":"22.66178210","longitude":"120.31214770","limited_time":"no","socket":"yes","standing_desk":"no","mrt":"公車站\"河堤路口(明誠二路)\"\"明哲路口\"步4分, \"民族路(明誠路口)\"步7分/CityBike\"明堤公園\"站步2分, \"明誠光興\"站步4分","open_time":""},{"id":"5fdf4d92-0f09-4cf8-a611-5970647536a2","name":"Tryer Cafe 嗜咖啡","city":"kaohsiung","wifi":5,"seat":5,"quiet":4,"tasty":5,"cheap":5,"music":5,"url":"https://www.facebook.com/TRYerCafe/","address":"高雄市苓雅區林南街19號","latitude":"22.62565270","longitude":"120.31576740","limited_time":"no","socket":"yes","standing_desk":"yes","mrt":"文化中心站2號出口","open_time":"供餐至九點"},{"id":"616fd985-14d8-4c57-ba00-63c54f87b15a","name":"TADYcoffee 泰迪咖啡","city":"kaohsiung","wifi":0,"seat":0,"quiet":0,"tasty":0,"cheap":0,"music":0,"url":"https://www.facebook.com/tadycoffeeshop/","address":"高雄市三民區旅順街8號","latitude":"22.64131840","longitude":"120.31356670","limited_time":"no","socket":"yes","standing_desk":"yes","mrt":"","open_time":""},{"id":"61ddf40b-af83-45ff-b810-ee94e80a24a8","name":"Formula Coffee Roaster","city":"kaohsiung","wifi":0,"seat":5,"quiet":4,"tasty":5,"cheap":5,"music":4,"url":"fcrcoffeeroaster.com","address":"高雄市三民區重慶街117號","latitude":"22.64489500","longitude":"120.30201600","limited_time":"no","socket":"maybe","standing_desk":"no","mrt":"","open_time":""},{"id":"6380ace7-514d-4f11-8f8d-fbed6eb3da1e","name":"義來義去 Eagle Cafe","city":"kaohsiung","wifi":5,"seat":5,"quiet":4,"tasty":4,"cheap":3,"music":4,"url":"https://www.facebook.com/eaglehk19/","address":"高雄市鼓山區南屏路599號","latitude":"22.65965060","longitude":"120.30006810","limited_time":"no","socket":"yes","standing_desk":"no","mrt":"","open_time":""},{"id":"63d5db51-b1fc-4055-a593-0fd11d0d5a67","name":"咖啡隱 Cofein Café 漢神自強店","city":"kaohsiung","wifi":0,"seat":0,"quiet":0,"tasty":0,"cheap":0,"music":0,"url":"","address":"802高雄市苓雅區自強三路275號","latitude":"22.62075340","longitude":"120.29694730","limited_time":"","socket":"","standing_desk":"","mrt":"","open_time":""},{"id":"64fc3577-e8cc-434d-a08d-f62ea589956f","name":"逃咖啡","city":"kaohsiung","wifi":0,"seat":0,"quiet":0,"tasty":0,"cheap":0,"music":0,"url":"https://www.facebook.com/chintecoffee/","address":"高雄市三民區義德路3號","latitude":"22.64246330","longitude":"120.33546570","limited_time":"","socket":"","standing_desk":"","mrt":"","open_time":""},{"id":"66b83aae-0fa6-45e0-9d6c-6e006c84037e","name":"Parlare cafe","city":"kaohsiung","wifi":4,"seat":4,"quiet":3,"tasty":5,"cheap":3,"music":3,"url":"https://www.facebook.com/Parlare.coffee/","address":"鳳山區文化西路7號","latitude":"22.63472910","longitude":"120.34963110","limited_time":"","socket":"maybe","standing_desk":"no","mrt":"","open_time":""},{"id":"6763177e-44b5-418d-a960-6f9474dfc845","name":"海珈琲 海とコーヒー","city":"kaohsiung","wifi":5,"seat":4,"quiet":5,"tasty":5,"cheap":5,"music":5,"url":"https://instagram.com/umi.to.kohi?igshid=1bjnl6yxm8jip","address":"804高雄市鼓山區鼓山一路26號","latitude":"22.62093460","longitude":"120.27495210","limited_time":"maybe","socket":"yes","standing_desk":"no","mrt":"","open_time":""},{"id":"67fe136d-9e96-4612-99b5-6400fd04a709","name":"馤 咖啡。食作","city":"kaohsiung","wifi":4,"seat":5,"quiet":5,"tasty":4,"cheap":4,"music":5,"url":"https://www.facebook.com/hay.cafeteria/","address":"高雄市左營區文府路159巷18號","latitude":"22.68828700","longitude":"120.31049800","limited_time":"no","socket":"maybe","standing_desk":"no","mrt":"高鐵左營站(R16)","open_time":""},{"id":"68c18813-64de-477a-8868-935b02347c30","name":"Do good coffee & dessert","city":"kaohsiung","wifi":5,"seat":4,"quiet":4,"tasty":5,"cheap":5,"music":5,"url":"https://www.facebook.com/dogood1161/","address":"803高雄市鹽埕區必信街116-1號","latitude":"22.62171460","longitude":"120.28024750","limited_time":"no","socket":"yes","standing_desk":"yes","mrt":"西子灣／鹽埕埔","open_time":"10:00~18:00"},{"id":"69804668-b9b9-4323-b3f6-7ed01fb2514a","name":"小農坊","city":"kaohsiung","wifi":0,"seat":0,"quiet":5,"tasty":5,"cheap":0,"music":5,"url":"","address":"高雄市前金區自強三路237號（235巷內）","latitude":"22.61974860","longitude":"120.29730410","limited_time":"","socket":"","standing_desk":"","mrt":"","open_time":""},{"id":"6981e6d1-aa6f-4013-a9f1-066543ca5a68","name":"Fans cafe","city":"kaohsiung","wifi":5,"seat":4,"quiet":3,"tasty":3,"cheap":5,"music":4,"url":"https://www.facebook.com/fanscafekh/","address":"土庫一路158號","latitude":"22.73634400","longitude":"120.32977800","limited_time":"","socket":"maybe","standing_desk":"no","mrt":"","open_time":""},{"id":"6a631dc9-713c-43aa-beb8-7b6c6d071ad7","name":"意滿漁","city":"kaohsiung","wifi":4,"seat":4,"quiet":0,"tasty":5,"cheap":4,"music":4,"url":"https://www.facebook.com/%E6%84%8F%E6%BB%BF%E6%BC%81-1736990176523613/","address":"826高雄市梓官區赤崁南路130巷30號","latitude":"22.73412410","longitude":"120.24764140","limited_time":"maybe","socket":"no","standing_desk":"yes","mrt":"","open_time":"1100-2200"},{"id":"6b081749-b8a3-4c91-93fc-4694adce3158","name":"amical café 日光巴黎咖啡廳","city":"kaohsiung","wifi":0,"seat":0,"quiet":0,"tasty":0,"cheap":0,"music":0,"url":"","address":"高雄市三民區自由一路105號","latitude":"22.64375200","longitude":"120.30856800","limited_time":"","socket":"","standing_desk":"","mrt":"","open_time":""},{"id":"6bcf48e5-5e6b-4258-8060-a869e23126d0","name":"菁咖啡","city":"kaohsiung","wifi":5,"seat":4,"quiet":4,"tasty":5,"cheap":5,"music":4,"url":"https://www.facebook.com/CQICoffeeDrink/","address":"高雄市燕巢區橫山路86號","latitude":"22.76511290","longitude":"120.37453200","limited_time":"maybe","socket":"yes","standing_desk":"yes","mrt":"","open_time":""},{"id":"6f8251d0-9439-4fa2-a1b2-165be678df0d","name":"移動咖啡 (進駐於高雄個共作空間)","city":"kaohsiung","wifi":5,"seat":5,"quiet":5,"tasty":5,"cheap":4,"music":5,"url":"https://www.facebook.com/mobile.coffe/\n","address":"高雄市三民區熱河二街六巷16號","latitude":"22.64476000","longitude":"120.30252300","limited_time":"no","socket":"yes","standing_desk":"yes","mrt":"","open_time":"二-五16:00-20:00\n六日 14:00-21:00"},{"id":"702378c1-e872-405b-941f-e489f5eec902","name":"咖啡中學","city":"kaohsiung","wifi":5,"seat":4,"quiet":4,"tasty":5,"cheap":4,"music":4,"url":"https://www.facebook.com/lic392yang/","address":"鼓山區青海路392號","latitude":"22.65159030","longitude":"120.28512980","limited_time":"","socket":"yes","standing_desk":"","mrt":"","open_time":""},{"id":"7201a5b0-feb8-4c22-9b3d-03dda298c886","name":"Buii sheep's","city":"kaohsiung","wifi":4,"seat":3,"quiet":3,"tasty":5,"cheap":4,"music":3,"url":"","address":"高雄市左營區明華一路13號","latitude":"22.66228050","longitude":"120.31040430","limited_time":"","socket":"","standing_desk":"","mrt":"","open_time":""},{"id":"73836884-34ae-41be-bc4b-87a29bfa459f","name":"歐咖逼","city":"kaohsiung","wifi":0,"seat":4,"quiet":5,"tasty":5,"cheap":5,"music":4,"url":"","address":"高雄市楠梓區惠民路158號","latitude":"22.72374490","longitude":"120.29554320","limited_time":"no","socket":"maybe","standing_desk":"no","mrt":"","open_time":""},{"id":"7479d2e5-23c0-4722-9cb0-c1828053a616","name":"GEORGE HOUSE (高雄文山店)","city":"kaohsiung","wifi":5,"seat":5,"quiet":5,"tasty":5,"cheap":3,"music":4,"url":"http://www.georgehousefinecoffee.com/ws.htm","address":"高雄市鳳山區文平街33號","latitude":"22.64254900","longitude":"120.35078650","limited_time":"no","socket":"no","standing_desk":"no","mrt":"","open_time":""},{"id":"760c55aa-e33f-4bf5-89c0-378baf5bcd17","name":"本東咖啡","city":"kaohsiung","wifi":4,"seat":4,"quiet":5,"tasty":4,"cheap":5,"music":4,"url":"https://www.facebook.com/pages/%E6%9C%AC%E6%9D%B1%E5%92%96%E5%95%A1/217428735008414?rf=539327169465754","address":"高雄市新興區民有街86號","latitude":"22.62267210","longitude":"120.30595010","limited_time":"","socket":"maybe","standing_desk":"no","mrt":"中央公園站2號出口步10分/公車站\"新興高中(新堀江)\"\"青年一路\"步3分, \"新興高中\"步4分, \"高雄高商(復興二路)\"步5分, \"新田路口(中山二路)\"步8分/CityBike\"高雄高商\"站步7分","open_time":""},{"id":"760f32e2-29aa-4acb-a8de-d114c11edd77","name":"咖啡隱 Cofein Café 青年旗艦店","city":"kaohsiung","wifi":0,"seat":0,"quiet":0,"tasty":0,"cheap":0,"music":0,"url":"","address":"830高雄市鳳山區青年路二段317-2號","latitude":"22.64053220","longitude":"120.35092910","limited_time":"","socket":"","standing_desk":"","mrt":"","open_time":""},{"id":"76d0960c-90d2-4b58-839b-4ac3a1c2566f","name":"公寓咖啡","city":"kaohsiung","wifi":3,"seat":3,"quiet":3,"tasty":4,"cheap":4,"music":4,"url":"https://www.facebook.com/%E5%85%AC%E5%AF%93%E5%92%96%E5%95%A1-198711466969602/","address":"高雄市前金區仁義街227號","latitude":"22.62040560","longitude":"120.30096270","limited_time":"","socket":"maybe","standing_desk":"no","mrt":"中央公園站2號出口步6分/公車站\"新田路口(中山二路)\"步4分, \"新田路口(中華四路)\"步4分","open_time":""},{"id":"779b04f4-db37-4bad-88c0-be141afc76bd","name":"Light 3 Cafe","city":"kaohsiung","wifi":5,"seat":5,"quiet":5,"tasty":4.5,"cheap":4.5,"music":5,"url":"","address":"高雄市三民區有光路3巷1號","latitude":"22.63679940","longitude":"120.33459160","limited_time":"","socket":"","standing_desk":"","mrt":"","open_time":""},{"id":"78e09503-5cf6-4028-a299-b719ecd5f8ea","name":"一麥珈琲","city":"kaohsiung","wifi":0,"seat":0,"quiet":0,"tasty":0,"cheap":0,"music":0,"url":"https://m.facebook.com/Yimile0906570470/?locale2=zh_TW","address":"高雄市左營區自由二路382號","latitude":"22.66668030","longitude":"120.30923750","limited_time":"no","socket":"maybe","standing_desk":"no","mrt":"","open_time":""},{"id":"791b7edd-5112-4872-83ff-ed7955477b11","name":"小小瑜咖啡","city":"kaohsiung","wifi":0,"seat":0,"quiet":0,"tasty":0,"cheap":0,"music":0,"url":"","address":"811高雄市楠梓區加宏路158號","latitude":"22.71732840","longitude":"120.29472910","limited_time":"","socket":"","standing_desk":"","mrt":"","open_time":""},{"id":"7952eed3-3343-4675-9e5a-6b6e31e136d4","name":"洛斯特咖啡","city":"kaohsiung","wifi":0,"seat":4,"quiet":5,"tasty":5,"cheap":4,"music":5,"url":"https://www.facebook.com/roastcafe/","address":"新興區七賢二路90號","latitude":"22.63433500","longitude":"120.29879110","limited_time":"","socket":"","standing_desk":"","mrt":"","open_time":""},{"id":"7b2e35c8-cf56-4df8-9ae9-6277f161b64b","name":"威爾希斯","city":"kaohsiung","wifi":1,"seat":2,"quiet":2,"tasty":1,"cheap":5,"music":1,"url":"","address":"高雄市鼓山區蓮海路70號","latitude":"22.62701790","longitude":"120.26741020","limited_time":"","socket":"","standing_desk":"","mrt":"西子灣","open_time":""},{"id":"7d4af445-04be-47e1-a9d4-602af6976b8c","name":"Liévre Cafe","city":"kaohsiung","wifi":5,"seat":5,"quiet":5,"tasty":5,"cheap":5,"music":4,"url":"https://www.facebook.com/lievrercafe/","address":"807高雄市三民區皓東路171-6號","latitude":"22.64945870","longitude":"120.33384070","limited_time":"","socket":"yes","standing_desk":"yes","mrt":"","open_time":""},{"id":"7dffb3be-6665-43d1-bb8b-7329c83f28f7","name":"Good Day Coffee ","city":"kaohsiung","wifi":4.5,"seat":4,"quiet":3.5,"tasty":4.5,"cheap":4,"music":3.5,"url":"https://www.facebook.com/a5354319","address":"高雄市前鎮區昆明街80號","latitude":"22.61203700","longitude":"120.30704600","limited_time":"no","socket":"maybe","standing_desk":"","mrt":"三多商圈站3號出口步4分/公車站\"林森三路口\"步3分, ''三多商圈站''步4分/CityBike\"新光中山\"站步5分","open_time":""},{"id":"7f03af79-4d22-4c2c-9cfe-ca74f9d4adb3","name":"CaffeBene 咖啡伴_文化門市","city":"kaohsiung","wifi":0,"seat":0,"quiet":0,"tasty":0,"cheap":0,"music":0,"url":"https://www.facebook.com/caffebene.culture/","address":"高雄市苓雅區廣州一街131號","latitude":"22.62343710","longitude":"120.31726950","limited_time":"no","socket":"yes","standing_desk":"no","mrt":"","open_time":""},{"id":"7f48725b-a78e-4437-bce9-dfb95967b573","name":"庭園樹咖啡","city":"kaohsiung","wifi":0,"seat":4,"quiet":3,"tasty":4,"cheap":5,"music":2,"url":"","address":"高雄市楠梓區德民路46-25號","latitude":"22.72841600","longitude":"120.31258000","limited_time":"no","socket":"","standing_desk":"no","mrt":"","open_time":""},{"id":"7fffa54d-9a15-404b-b8c1-b78f87f51378","name":"Café d'Amour 暮慕咖啡","city":"kaohsiung","wifi":5,"seat":5,"quiet":4,"tasty":4,"cheap":3,"music":5,"url":"https://www.facebook.com/cafedamour/","address":"高雄市前金區成功一路295號","latitude":"22.62264130","longitude":"120.29422880","limited_time":"no","socket":"yes","standing_desk":"no","mrt":"中央公園站(R9)","open_time":""},{"id":"813c7dbb-6b7b-44e0-a84e-928bdcdaf48b","name":"Try試研所","city":"kaohsiung","wifi":0,"seat":5,"quiet":4,"tasty":4,"cheap":5,"music":5,"url":"https://www.facebook.com/TRYforyou2019/","address":"高雄市三民區同盟二路217號","latitude":"22.64988580","longitude":"120.29503910","limited_time":"no","socket":"maybe","standing_desk":"yes","mrt":"後驛捷運站","open_time":""},{"id":"818bd320-63ed-41ff-9e1a-efecfce06564","name":"柴吉他。咖啡","city":"kaohsiung","wifi":5,"seat":5,"quiet":4.5,"tasty":5,"cheap":5,"music":4,"url":"https://www.facebook.com/pg/Lee198675/about/?ref=page_internal","address":"高雄市鳳山區文學街83號","latitude":"22.63504090","longitude":"120.34595940","limited_time":"no","socket":"yes","standing_desk":"no","mrt":"鳳山西站","open_time":""},{"id":"82c14833-28e9-4cb0-9ae1-118c39befabd","name":"Planet · 10 咖啡館","city":"kaohsiung","wifi":5,"seat":5,"quiet":5,"tasty":4,"cheap":5,"music":5,"url":"https://www.facebook.com/Planet10cafe/","address":"高雄市苓雅區永定街148號","latitude":"22.62147600","longitude":"120.31076300","limited_time":"no","socket":"maybe","standing_desk":"no","mrt":"捷運中央公園站(R9)/三多商圈站(R8)步行20分鐘","open_time":"周一公休"},{"id":"844670ec-4eaf-46a8-8297-259b9ddedaf7","name":"OD Coffee","city":"kaohsiung","wifi":1,"seat":5,"quiet":5,"tasty":5,"cheap":5,"music":2,"url":"https://www.facebook.com/OD.Coffee/?hc_ref=PAGES_TIMELINE","address":"高雄市三民區懷安街137號","latitude":"22.64074060","longitude":"120.31692470","limited_time":"no","socket":"no","standing_desk":"yes","mrt":"","open_time":""},{"id":"85211c60-c208-47fc-9bde-c6f6ed5b3c54","name":"大城小事","city":"kaohsiung","wifi":5,"seat":5,"quiet":5,"tasty":4,"cheap":4,"music":5,"url":"https://www.facebook.com/bigtownsmallthings/","address":"高雄市鹽埕區河西路147號三角窗 (七賢橋旁)","latitude":"22.62986620","longitude":"120.28372490","limited_time":"","socket":"","standing_desk":"","mrt":"鹽埕埔站2號出口步9分","open_time":"11:30 - 22:00 周二休(每個月的第一個禮拜一特休)\n"},{"id":"85c49a41-b59d-4e7d-b36c-9e26dbf03bd0","name":"Bon Voyage 棒！遠行咖啡","city":"kaohsiung","wifi":0,"seat":0,"quiet":0,"tasty":0,"cheap":0,"music":0,"url":"","address":"高雄市鳳山區鳳明街11號","latitude":"22.62639100","longitude":"120.36162000","limited_time":"","socket":"","standing_desk":"","mrt":"","open_time":""},{"id":"875e957a-e674-4ad1-b73a-e8f2d4279cdd","name":"烘豆坊（文化店）","city":"kaohsiung","wifi":3,"seat":4,"quiet":4,"tasty":5,"cheap":4,"music":3,"url":"","address":"高雄市苓雅區青年一路2-5號","latitude":"22.62488850","longitude":"120.31649770","limited_time":"no","socket":"maybe","standing_desk":"yes","mrt":"","open_time":""},{"id":"87686b66-8b9b-4604-aef1-fb3f16755069","name":"Louisa Coffee路易莎咖啡(高雄昌盛店)","city":"kaohsiung","wifi":5,"seat":4.5,"quiet":5,"tasty":5,"cheap":5,"music":5,"url":"https://www.facebook.com/louisacoffee.292/","address":"高雄市鼓山區昌盛路292號","latitude":"22.66424420","longitude":"120.29914700","limited_time":"maybe","socket":"maybe","standing_desk":"","mrt":"","open_time":""},{"id":"8804e7ee-1ecf-4696-ad3e-b176f9c7e839","name":"繫前緣","city":"kaohsiung","wifi":0,"seat":5,"quiet":3,"tasty":5,"cheap":5,"music":2,"url":"","address":"高雄市左營區孔營路78號","latitude":"22.68954180","longitude":"120.29585130","limited_time":"","socket":"","standing_desk":"","mrt":"","open_time":""},{"id":"888c767a-48d9-49cd-9eea-a00d216e5b26","name":"Gavagai Café(各比伊咖啡)","city":"kaohsiung","wifi":5,"seat":5,"quiet":5,"tasty":5,"cheap":4,"music":5,"url":"https://zh-tw.facebook.com/GavagaiCafe/","address":"高雄市三民區敦煌路80巷11號","latitude":"22.65892850","longitude":"120.31346940","limited_time":"no","socket":"","standing_desk":"no","mrt":"公車站\"河堤路口(明誠二路)\"\"明哲路口\"\"大樂民族店\"步3分, \"大統新世紀(民族一路)\"步4分/CityBike\"明誠光興\"站步5分","open_time":""},{"id":"889ba94c-b37c-4354-bd9d-7cdf6b3ab27d","name":"仁和雅咖啡","city":"kaohsiung","wifi":0,"seat":0,"quiet":0,"tasty":0,"cheap":0,"music":0,"url":"","address":"高雄市旗山區仁和街112號","latitude":"22.89049160","longitude":"120.48005290","limited_time":"","socket":"","standing_desk":"","mrt":"","open_time":""},{"id":"8b8708dc-f888-4e1d-b035-bb311a110a1b","name":"In-Lane內向咖啡","city":"kaohsiung","wifi":4,"seat":4,"quiet":4,"tasty":5,"cheap":4,"music":5,"url":"https://www.facebook.com/inlanecafe/","address":"高雄市前金區市中一路268號","latitude":"22.63183950","longitude":"120.28907190","limited_time":"no","socket":"yes","standing_desk":"no","mrt":"市議會","open_time":"10:30 - 19:00"},{"id":"8c110750-20ce-492f-872d-08fac0e71862","name":"Reve黑浮咖啡（楠梓店）","city":"kaohsiung","wifi":0,"seat":4,"quiet":3,"tasty":3,"cheap":3,"music":4,"url":"","address":"高雄市楠梓區益群路63號","latitude":"22.72470830","longitude":"120.29686610","limited_time":"yes","socket":"","standing_desk":"no","mrt":"","open_time":""},{"id":"8ce9d31a-bff7-4210-a9dd-f42acbc16724","name":"NAMU 拿沐","city":"kaohsiung","wifi":0,"seat":0,"quiet":0,"tasty":0,"cheap":0,"music":0,"url":"","address":"高雄市中正四路235號","latitude":"22.62790830","longitude":"120.29259650","limited_time":"","socket":"","standing_desk":"","mrt":"","open_time":""},{"id":"8d0376f0-e7a3-4406-b9e2-94b8efdf1af2","name":"灰咖啡","city":"kaohsiung","wifi":5,"seat":5,"quiet":5,"tasty":5,"cheap":5,"music":5,"url":"https://www.facebook.com/hwaycoffee.taiwan/","address":"新興區林森一路146巷2號","latitude":"22.62919600","longitude":"120.30482000","limited_time":"no","socket":"yes","standing_desk":"yes","mrt":"美麗島站6號出口步4分/公車站''捷運美麗島站''步5分/CityBike\"郵政總局\"站步4分","open_time":"23:30後只供應茶類和酒類"},{"id":"8dc86e73-3840-4038-9e8c-d0fd233ba649","name":"私心咖啡Favorite Café","city":"kaohsiung","wifi":5,"seat":3.5,"quiet":5,"tasty":5,"cheap":4.5,"music":4.5,"url":"https://www.facebook.com/cafefavorite/","address":"高雄市左營區翠華路584號(果貿社區)","latitude":"22.67082000","longitude":"120.28986200","limited_time":"no","socket":"no","standing_desk":"no","mrt":"NO","open_time":"10:00-19:00 (週三公休)"},{"id":"8e9b74a8-55ef-4830-8e45-63a6ca5bc888","name":"脆阿尼咖啡","city":"kaohsiung","wifi":5,"seat":5,"quiet":4.5,"tasty":5,"cheap":4,"music":3.5,"url":"","address":"高雄市鼓山區濱海一路79號","latitude":"22.61962200","longitude":"120.27118500","limited_time":"","socket":"","standing_desk":"","mrt":"西子灣捷運站","open_time":""},{"id":"91396b55-d32b-4f40-b20d-d6a7a9a09a52","name":"Grace cafe","city":"kaohsiung","wifi":5,"seat":3,"quiet":5,"tasty":5,"cheap":4,"music":5,"url":"https://www.facebook.com/gracecafe0507/","address":"高雄市三民區明吉路8號","latitude":"22.66171140","longitude":"120.31343040","limited_time":"maybe","socket":"no","standing_desk":"no","mrt":"","open_time":"12:00-20:00"},{"id":"916e8025-0a3c-4bb5-bb88-334a645b5e2a","name":"五零年代咖啡","city":"kaohsiung","wifi":5,"seat":5,"quiet":5,"tasty":4.5,"cheap":4.5,"music":5,"url":"","address":"高雄市鹽埕區大智路99號","latitude":"22.62214000","longitude":"120.28556000","limited_time":"no","socket":"yes","standing_desk":"yes","mrt":"鹽埕埔站","open_time":"公休日可以參考粉專公佈"},{"id":"92121cc3-f2a6-4233-8ba4-c9248b92bf74","name":"找咖啡","city":"kaohsiung","wifi":4,"seat":5,"quiet":4,"tasty":5,"cheap":5,"music":5,"url":"https://www.facebook.com/ilikeifound/","address":"高雄市左營區文自路735號","latitude":"22.68314380","longitude":"120.31371580","limited_time":"no","socket":"yes","standing_desk":"no","mrt":"","open_time":""},{"id":"92c47f7d-7667-4280-944b-f9a4494de41a","name":"94 cafe","city":"kaohsiung","wifi":5,"seat":5,"quiet":5,"tasty":5,"cheap":5,"music":5,"url":"","address":"高雄市岡山區平和路48號","latitude":"22.79450190","longitude":"120.29503260","limited_time":"","socket":"","standing_desk":"","mrt":"","open_time":""},{"id":"944c9018-7ed8-4bf2-9ced-02ed73b570b7","name":"路易莎高雄中正店","city":"kaohsiung","wifi":4,"seat":5,"quiet":4,"tasty":4,"cheap":5,"music":4,"url":"https://www.facebook.com/LouisaCoffeeKaohsiung/","address":"中正三路68-2號","latitude":"22.63108300","longitude":"120.30859680","limited_time":"no","socket":"yes","standing_desk":"yes","mrt":"","open_time":""},{"id":"9583b53f-2c71-45f2-9b5d-eb77aed1e434","name":"阿貴私塾","city":"kaohsiung","wifi":3,"seat":5,"quiet":5,"tasty":4,"cheap":4,"music":4,"url":"https://www.facebook.com/pages/%E9%98%BF%E8%B2%B4%E7%A7%81%E5%A1%BE/111915355552548","address":"高雄市鹽埕區莒光街85號","latitude":"22.62109900","longitude":"120.28322100","limited_time":"no","socket":"maybe","standing_desk":"yes","mrt":"鹽埕埔站(O2)","open_time":""},{"id":"9b39081f-26f8-421e-90a3-e62df4eb2d9c","name":"Amis cafe","city":"kaohsiung","wifi":5,"seat":4,"quiet":4,"tasty":4.5,"cheap":4,"music":3.5,"url":"https://www.facebook.com/amiscafe99/","address":"高雄市新興區信守街99號","latitude":"22.63131500","longitude":"120.31465230","limited_time":"no","socket":"maybe","standing_desk":"no","mrt":"捷運信義國小站","open_time":""},{"id":"9b465171-0f7e-44d0-811d-c1d2c9073c36","name":"濃好咖啡","city":"kaohsiung","wifi":4,"seat":4,"quiet":3,"tasty":4,"cheap":5,"music":4,"url":"https://www.facebook.com/KnowHowCoffee/","address":"高雄市岡山區中山南路430號","latitude":"22.78965300","longitude":"120.29956020","limited_time":"no","socket":"no","standing_desk":"no","mrt":"台鐵岡山站步5分, 捷運南岡山站2號出口步13分/公車站\"大德三路口\"步1分, \"岡山轉運站(岡山火車站)\"步4分/CityBike\"岡山火車站\"站步分, \"岡山忠孝里站\"站步6分","open_time":""},{"id":"9b700783-6f08-43f0-91e3-e10556c67b8b","name":"Acc Café de Coeur 真心豆行七賢店","city":"kaohsiung","wifi":0,"seat":0,"quiet":0,"tasty":0,"cheap":0,"music":0,"url":"","address":" 801高雄市前金區七賢二路365號","latitude":"22.63071640","longitude":"120.28874270","limited_time":"","socket":"","standing_desk":"","mrt":"","open_time":""},{"id":"9ba0f950-3c2a-4976-a817-31b63ddc7bca","name":"卡啡那 CAFFAINA 美術館店","city":"kaohsiung","wifi":4.5,"seat":3,"quiet":2,"tasty":3,"cheap":3,"music":5,"url":"https://www.facebook.com/Caffaina-Coffee-Gallery-%E5%8D%A1%E5%95%A1%E9%82%A3%E6%98%8E%E8%AA%A0%E5%A3%B9%E8%99%9F%E5%BA%97-453732771383399/?fref=ts","address":"高雄市鼓山區美術東二路3號","latitude":"22.65122570","longitude":"120.28775100","limited_time":"no","socket":"yes","standing_desk":"","mrt":"公車站\"美術園區\"''願景橋''步3分/CityBike\"願景橋\"站步1分","open_time":""},{"id":"9c294788-2e76-4477-8cf3-fa99be8b45fd","name":"Illuminate coffee河映咖啡","city":"kaohsiung","wifi":5,"seat":5,"quiet":3,"tasty":3,"cheap":3,"music":5,"url":"https://www.facebook.com/Illuminate-%E6%B2%B3%E6%98%A0%E5%92%96%E5%95%A1-911688742217740","address":"高雄市三民區河堤路302號","latitude":"22.66187500","longitude":"120.31177400","limited_time":"no","socket":"maybe","standing_desk":"no","mrt":"","open_time":""},{"id":"9c96c7d8-b1d5-4b29-9081-64f3d8f99a75","name":"NOW & THEN by nybc 駁二店","city":"kaohsiung","wifi":4.5,"seat":4,"quiet":3,"tasty":5,"cheap":3,"music":5,"url":"https://www.facebook.com/nowandthenbynybc/","address":"高雄市鹽埕區大義街2號駁二藝術特區大義倉庫C9-19","latitude":"22.61807700","longitude":"120.28556730","limited_time":"no","socket":"yes","standing_desk":"no","mrt":"西子灣/鹽埕埔","open_time":"平日:10:00-21:00\n假日:10:00-22:00"},{"id":"9cad08b2-1387-434c-a23e-c5e38e3082f8","name":"Around Cafe 流浪咖啡","city":"kaohsiung","wifi":0,"seat":0,"quiet":0,"tasty":0,"cheap":0,"music":0,"url":"https://www.facebook.com/Around.cafe","address":"802高雄市苓雅區福建街66號","latitude":"22.62013000","longitude":"120.31627800","limited_time":"no","socket":"","standing_desk":"no","mrt":"","open_time":""},{"id":"9de68bf3-1fe5-45fc-86c0-bb1c936fe9da","name":"MiS Cafe 謎思咖啡","city":"kaohsiung","wifi":5,"seat":5,"quiet":5,"tasty":5,"cheap":4,"music":5,"url":"https://www.facebook.com/MISCOFFEE/","address":"高雄市前金區市中一路167號","latitude":"22.62540100","longitude":"120.29127800","limited_time":"no","socket":"yes","standing_desk":"no","mrt":"市議會捷運站","open_time":"08:00 - 18:00"},{"id":"9ebd6f40-8765-4df2-b50f-e62bd1b3f96a","name":"品好乳酪","city":"kaohsiung","wifi":5,"seat":5,"quiet":5,"tasty":5,"cheap":3,"music":5,"url":"https://www.pincheesecake.com/","address":"高雄市鼓山區昌盛路379號","latitude":"22.66377050","longitude":"120.29736830","limited_time":"no","socket":"maybe","standing_desk":"yes","mrt":"","open_time":""},{"id":"9f648e4a-ee2c-4386-af07-4c7666221b46","name":"6吋盤早午餐-前鎮瑞興店","city":"kaohsiung","wifi":0,"seat":0,"quiet":0,"tasty":0,"cheap":0,"music":0,"url":"","address":"806高雄市前鎮區瑞興街105-1號","latitude":"22.61103460","longitude":"120.33019510","limited_time":"no","socket":"no","standing_desk":"no","mrt":"","open_time":""},{"id":"a06d7466-0245-45dc-9669-4ccd936607da","name":"第四紀咖啡","city":"kaohsiung","wifi":4,"seat":5,"quiet":5,"tasty":5,"cheap":5,"music":5,"url":"https://www.facebook.com/%E7%AC%AC%E5%9B%9B%E7%B4%80%E5%92%96%E5%95%A1-173037693143767/","address":"高雄市左營區博愛二路204號","latitude":"22.66009800","longitude":"120.30333400","limited_time":"","socket":"","standing_desk":"yes","mrt":"","open_time":""},{"id":"a17d0e50-d9ae-485c-be9f-fe4346911215","name":"咖啡強Coffejohn","city":"kaohsiung","wifi":3,"seat":4,"quiet":4,"tasty":5,"cheap":5,"music":5,"url":"https://www.facebook.com/CoffeeJohn0915056758/","address":"高雄市鼓山區延平街64-3號","latitude":"22.62310640","longitude":"120.27328470","limited_time":"no","socket":"maybe","standing_desk":"yes","mrt":"西子灣站","open_time":"中間休息4小時16～20"},{"id":"a2b5d5eb-a07a-43a7-a991-4ed6fd283d36","name":"Jamling cafe高雄店","city":"kaohsiung","wifi":4,"seat":4,"quiet":3,"tasty":4,"cheap":4,"music":4,"url":"https://www.facebook.com/jamlingcafekaohsiung/","address":"高雄市鼓山區美術東五路56號","latitude":"22.65896760","longitude":"120.29450970","limited_time":"yes","socket":"","standing_desk":"","mrt":"","open_time":"12:00 - 21:00"},{"id":"a3688df2-a4bf-4e47-a57e-1f1bbb5eaa5e","name":"Kbsca高雄精品咖啡","city":"kaohsiung","wifi":0,"seat":0,"quiet":0,"tasty":0,"cheap":0,"music":0,"url":"","address":"高雄市塩埕區府北路27之2號","latitude":"22.62831610","longitude":"120.28570170","limited_time":"","socket":"","standing_desk":"","mrt":"","open_time":""},{"id":"a3dc7bfd-ccc2-4754-9108-37bd74738a22","name":"亨利咖啡(西子灣)","city":"kaohsiung","wifi":5,"seat":5,"quiet":5,"tasty":5,"cheap":4,"music":5,"url":"https://www.facebook.com/%E8%A5%BF%E5%AD%90%E7%81%A3%E4%BA%A8%E5%88%A9%E5%92%96%E5%95%A1-663165500473447/","address":"高雄市鼓山區哨船街75-18號","latitude":"22.62256590","longitude":"120.26926850","limited_time":"","socket":"maybe","standing_desk":"no","mrt":"西子灣站1號出口步9分/公車站''哨船街''旁","open_time":""},{"id":"a3e0c948-8ecb-4c22-94f6-282714423617","name":"留一點空間咖啡","city":"kaohsiung","wifi":0,"seat":0,"quiet":0,"tasty":0,"cheap":0,"music":0,"url":"","address":"高雄市鳳山區文鳳路63號","latitude":"22.64256570","longitude":"120.34822310","limited_time":"","socket":"","standing_desk":"","mrt":"","open_time":""},{"id":"a43590b0-f339-4ad3-b0b0-f20632896359","name":"燃木咖啡研究所Fuelwood Coffee Lab","city":"kaohsiung","wifi":0,"seat":0,"quiet":0,"tasty":0,"cheap":0,"music":0,"url":"","address":"802高雄市苓雅區建國一路90-1號16F-2","latitude":"22.63190510","longitude":"120.33250600","limited_time":"","socket":"","standing_desk":"","mrt":"","open_time":""},{"id":"a46950c6-6b9e-47a0-948b-8128e91886ea","name":"BuCafe 不咖啡","city":"kaohsiung","wifi":5,"seat":5,"quiet":5,"tasty":5,"cheap":5,"music":5,"url":"https://www.facebook.com/bubucafe/","address":"高雄市鼓山區美術南二路2號","latitude":"22.64954660","longitude":"120.28500770","limited_time":"no","socket":"no","standing_desk":"no","mrt":"公車站''願景橋''步3分/CityBike\"願景橋\"站步5分","open_time":""},{"id":"a5231be4-ad73-4e71-ba18-649b1e0d4b8d","name":"Menippe 媚力泊咖啡林森店","city":"kaohsiung","wifi":4,"seat":4,"quiet":3,"tasty":3,"cheap":4,"music":4,"url":"https://www.facebook.com/Cafe.de.parfum.tw/","address":"高雄市新興區林森一路195號","latitude":"22.63215650","longitude":"120.30448730","limited_time":"no","socket":"maybe","standing_desk":"no","mrt":"","open_time":"7:30 - 22:00"},{"id":"a7053386-0872-4055-aa4d-9c40f8761bb3","name":"Coffee。修","city":"kaohsiung","wifi":4,"seat":4,"quiet":3,"tasty":4,"cheap":5,"music":3,"url":"https://www.facebook.com/coffeehsiu/","address":"高雄市旗山區中山路60-7號","latitude":"22.88641900","longitude":"120.48235810","limited_time":"no","socket":"yes","standing_desk":"yes","mrt":"","open_time":"11:00 - 21:00"},{"id":"a7ccf39c-f4cd-4bbf-a33a-7d272bad560c","name":"51咖啡","city":"kaohsiung","wifi":0,"seat":5,"quiet":4,"tasty":3.5,"cheap":4.5,"music":4,"url":"https://www.facebook.com/51cafe%E4%BA%94%E4%B8%80%E5%92%96%E5%95%A1-1406305012920644/","address":"高雄市左營區重信路577號","latitude":"22.68541110","longitude":"120.30884100","limited_time":"","socket":"no","standing_desk":"no","mrt":"高鐵/捷運左營站(R16)/台鐵新左營站","open_time":""},{"id":"a85c99c3-83fb-42a4-9ba0-17a6c80a7adc","name":"波貝拉咖啡Bobelle Coffee Brunch","city":"kaohsiung","wifi":3.5,"seat":4,"quiet":3.5,"tasty":2.5,"cheap":4,"music":3.5,"url":"https://www.facebook.com/bobelletw","address":"高雄市左營區崇德路272號","latitude":"22.67586170","longitude":"120.30386880","limited_time":"no","socket":"maybe","standing_desk":"no","mrt":"","open_time":"8:30-22:00"},{"id":"a88dc084-8c35-4e1a-b0d9-60ad15345596","name":"Drake193 Coffee Roaster","city":"kaohsiung","wifi":0,"seat":0,"quiet":0,"tasty":0,"cheap":0,"music":0,"url":"https://www.facebook.com/drake193/","address":"高雄市鼓山區葆禎路58巷40號","latitude":"22.66289280","longitude":"120.28330770","limited_time":"","socket":"","standing_desk":"","mrt":"","open_time":""},{"id":"a97f718a-7130-4228-9969-f0a92c0a1ff9","name":"一盞咖啡","city":"kaohsiung","wifi":4.5,"seat":5,"quiet":5,"tasty":5,"cheap":5,"music":5,"url":"https://www.facebook.com/tsitpha/","address":"高雄市苓雅區復興二路49巷9號","latitude":"22.62037300","longitude":"120.30986200","limited_time":"no","socket":"yes","standing_desk":"","mrt":"三多商圈站6號出口步15分/公車站\"市政大樓(復興二路)\"步1分, \"市政大樓(四維三路)\"\"苓雅國中(林森二路)\"\"國民市場\"步4分/CityBike\"市府四維站\"站步5分","open_time":""},{"id":"aaf83449-bddb-46dc-b1c8-02bb7536b4a4","name":"金礦咖啡(四維店)","city":"kaohsiung","wifi":4,"seat":4,"quiet":3,"tasty":4,"cheap":4,"music":5,"url":"http://www.crownfancy.com/index.php","address":"高雄市苓雅區四維四路63號 ","latitude":"22.61537200","longitude":"120.29900400","limited_time":"no","socket":"maybe","standing_desk":"yes","mrt":"","open_time":"07:30~24:00"},{"id":"abc29ada-3815-4cd2-9233-7087bdb37ff7","name":"格言咖啡 Maximum Coffee","city":"kaohsiung","wifi":5,"seat":5,"quiet":5,"tasty":5,"cheap":5,"music":5,"url":"","address":"高雄市鼓山區美術東五路50號","latitude":"22.65898690","longitude":"120.29468740","limited_time":"","socket":"","standing_desk":"","mrt":"","open_time":""},{"id":"ae1a4867-1b48-4187-ab2a-27c061c31564","name":"Kingmauii 金茂宜咖啡 美術店","city":"kaohsiung","wifi":0,"seat":0,"quiet":0,"tasty":0,"cheap":0,"music":0,"url":"","address":"804高雄市鼓山區美術東五路75號","latitude":"22.65877230","longitude":"120.29322780","limited_time":"","socket":"","standing_desk":"","mrt":"","open_time":""},{"id":"aeeea9d6-11e4-4934-af4b-b16168a74511","name":"Wolong Coffee Studio臥龍咖啡工作室","city":"kaohsiung","wifi":0,"seat":5,"quiet":5,"tasty":5,"cheap":5,"music":4,"url":"","address":"高雄市三民區慶雲街117號","latitude":"22.64347830","longitude":"120.31514750","limited_time":"","socket":"","standing_desk":"","mrt":"","open_time":""},{"id":"afb1f8b1-1f32-44ab-a8c8-7c60c8a3f6f7","name":"Eske Place Coffee House","city":"kaohsiung","wifi":5,"seat":5,"quiet":5,"tasty":5,"cheap":3,"music":3,"url":"https://www.facebook.com/eskeplace/","address":"高雄市楠梓加工區中一街5號","latitude":"22.71912340","longitude":"120.30344420","limited_time":"","socket":"","standing_desk":"","mrt":"","open_time":""},{"id":"b1573cf1-4b8d-4e1b-aabe-8de343ea4095","name":"Louisa Coffee 路易．莎咖啡(高雄河堤店)","city":"kaohsiung","wifi":4,"seat":3,"quiet":3,"tasty":4,"cheap":4,"music":4,"url":"https://www.facebook.com/LouisaCoffee3rdWave0810/","address":"807高雄市三民區明仁路51號","latitude":"22.66143430","longitude":"120.31432840","limited_time":"no","socket":"no","standing_desk":"no","mrt":"","open_time":""},{"id":"b288b963-f318-4551-bb9b-6d473dcb0308","name":"奧爾司咖啡","city":"kaohsiung","wifi":5,"seat":5,"quiet":4.5,"tasty":5,"cheap":5,"music":5,"url":"https://www.facebook.com/OursCafe62/","address":"高雄市新興區中東街62號","latitude":"22.63285600","longitude":"120.31657900","limited_time":"no","socket":"yes","standing_desk":"no","mrt":"","open_time":""},{"id":"b30e0f80-6b31-4300-8a35-489ff5f5bc27","name":"Atti咖啡研究工坊","city":"kaohsiung","wifi":5,"seat":4,"quiet":5,"tasty":5,"cheap":4,"music":5,"url":"https://m.facebook.com/atticoffee","address":"高雄市三民區興隆街58號","latitude":"22.64712610","longitude":"120.31847480","limited_time":"no","socket":"maybe","standing_desk":"yes","mrt":"","open_time":""},{"id":"b3ef0e12-92f0-4d37-b8e1-4c089566c015","name":"TiARA Cafe","city":"kaohsiung","wifi":0,"seat":0,"quiet":0,"tasty":0,"cheap":0,"music":0,"url":"","address":"高雄市鳥松區大昌路563號","latitude":"22.65768810","longitude":"120.33503910","limited_time":"","socket":"maybe","standing_desk":"","mrt":"","open_time":""},{"id":"b47fb6bd-6065-4d96-85c2-94166f69e06d","name":"Hay un café 沁馣","city":"kaohsiung","wifi":0,"seat":0,"quiet":0,"tasty":0,"cheap":0,"music":0,"url":"","address":"高雄市鼓山區慶豐街131號","latitude":"22.66727430","longitude":"120.29428610","limited_time":"","socket":"","standing_desk":"","mrt":"","open_time":""},{"id":"b4aafc21-57fc-4b17-a646-08969c6cfff6","name":"BasiD6Cafe","city":"kaohsiung","wifi":5,"seat":5,"quiet":5,"tasty":5,"cheap":5,"music":3,"url":"https://www.facebook.com/basid6cafe/","address":"高雄市中華一路2250號","latitude":"22.65260200","longitude":"120.29163400","limited_time":"","socket":"yes","standing_desk":"yes","mrt":"","open_time":""},{"id":"b4fb304d-2dae-41d6-8f3c-e2f4043c0b1f","name":"自然醒cafe","city":"kaohsiung","wifi":4,"seat":5,"quiet":4,"tasty":5,"cheap":4,"music":4,"url":"https://www.facebook.com/Cafewakeup/","address":"高雄市苓雅區中山二路463號","latitude":"22.61832900","longitude":"120.30257000","limited_time":"no","socket":"no","standing_desk":"yes","mrt":"三多商圈站7號出口步6分/公車站\"苓雅路口(中山二路)\"步1分, \"苓雅路口(中華四路)\"步4分, \"苓雅國中\"步5分, /CityBike\"生日公園\"站步4分, \"三多\"站步7分","open_time":""},{"id":"b57f79a1-b3b1-4e17-bceb-aa71f48a55e0","name":"Donutes 多那之(瑞隆店)","city":"kaohsiung","wifi":4,"seat":4,"quiet":3,"tasty":4,"cheap":5,"music":4,"url":"http://www.donutes.com.tw/","address":"高雄市前鎮區瑞隆路232號","latitude":"22.60576110","longitude":"120.33369930","limited_time":"no","socket":"no","standing_desk":"yes","mrt":"","open_time":"00:00~24:00"},{"id":"b671533d-52c7-412a-848a-be9c877652b3","name":"和馬咖啡","city":"kaohsiung","wifi":4,"seat":4,"quiet":3.5,"tasty":4.5,"cheap":4,"music":4,"url":"https://www.facebook.com/cafe.homer/","address":"高雄市鳳山區體育路41號","latitude":"22.62339730","longitude":"120.35622810","limited_time":"","socket":"","standing_desk":"","mrt":"","open_time":"10:00-17:00 週四休"},{"id":"b7ebf381-0521-40bc-9123-1ae665edf250","name":"王品咖啡","city":"kaohsiung","wifi":0,"seat":0,"quiet":0,"tasty":0,"cheap":0,"music":0,"url":"","address":"高雄市楠梓區廣昌街182巷33弄6號","latitude":"22.70979400","longitude":"120.28538300","limited_time":"","socket":"","standing_desk":"","mrt":"","open_time":""},{"id":"b83815b4-a88b-42b1-ba57-baf2457a1e16","name":"雅裴詩咖啡","city":"kaohsiung","wifi":2,"seat":4,"quiet":4.5,"tasty":4.5,"cheap":3.5,"music":4.5,"url":"https://www.facebook.com/apeuls/","address":"高雄市新興區中山一路115號B1(美麗島站內)","latitude":"22.63151700","longitude":"120.30132940","limited_time":"no","socket":"maybe","standing_desk":"no","mrt":"美麗島站","open_time":""},{"id":"b92d967e-bbec-4d4e-8451-f121acd15f1b","name":"Agent caf's ","city":"kaohsiung","wifi":0,"seat":5,"quiet":3,"tasty":5,"cheap":5,"music":0,"url":"https://www.facebook.com/Agent-cafe-144558948919014/","address":"高雄巿梓官區漁港二路22號附近","latitude":"22.72573530","longitude":"120.25626190","limited_time":"yes","socket":"no","standing_desk":"no","mrt":"","open_time":"1300-1900"},{"id":"bb169798-1a73-454d-b6bf-1219d38842a3","name":"25巷3號Caffe 自家咖啡烘焙館","city":"kaohsiung","wifi":5,"seat":5,"quiet":5,"tasty":5,"cheap":5,"music":5,"url":"https://www.facebook.com/253caffe","address":"高雄市大寮區自強街25巷3號","latitude":"22.63539100","longitude":"120.39226400","limited_time":"","socket":"","standing_desk":"","mrt":"","open_time":""},{"id":"bb666ac6-cf0b-4082-9a16-3c051ca75066","name":"MARS睦工場風格餐廳","city":"kaohsiung","wifi":5,"seat":4,"quiet":3,"tasty":4,"cheap":3,"music":5,"url":"https://www.facebook.com/MarsCube","address":"高雄市鹽埕區大勇路80號","latitude":"22.62394080","longitude":"120.28408910","limited_time":"no","socket":"maybe","standing_desk":"","mrt":"鹽埕埔","open_time":"10:00-22:00"},{"id":"bce9efcf-a4bd-4d06-8860-854453ca036d","name":"Arosa Café","city":"kaohsiung","wifi":0,"seat":0,"quiet":0,"tasty":0,"cheap":0,"music":0,"url":"","address":"80052高雄市新興區仁愛一街74號","latitude":"22.62963110","longitude":"120.30733640","limited_time":"","socket":"","standing_desk":"","mrt":"","open_time":""},{"id":"bd35262a-a8ef-4674-8b0f-b2484c4a29dc","name":"街頭咖啡.瑞隆店","city":"kaohsiung","wifi":3,"seat":3,"quiet":1,"tasty":4,"cheap":5,"music":3,"url":"https://www.facebook.com/Streetcafe61/","address":"高雄市前鎮區瑞隆路530號","latitude":"22.60532780","longitude":"120.32752460","limited_time":"no","socket":"no","standing_desk":"no","mrt":"","open_time":"07:00-21:00"},{"id":"be4b8ae0-3325-4bae-b4fb-6b3cde2e5a49","name":"帶我去旅行.靜咖啡（英明店）","city":"kaohsiung","wifi":5,"seat":4,"quiet":3,"tasty":4,"cheap":5,"music":3,"url":"https://www.facebook.com/pages/category/Coffee-Shop/%E5%B8%B6%E6%88%91%E5%8E%BB%E6%97%85%E8%A1%8C%E9%9D%9C%E5%92%96%E5%95%A1%E8%8B%B1%E6%98%8E%E5%BA%97-2113603452302540/","address":"高雄市苓雅區英明路186號","latitude":"22.61645520","longitude":"120.32498820","limited_time":"","socket":"maybe","standing_desk":"no","mrt":"","open_time":""},{"id":"be95b66a-4719-4e61-9b24-64e54e7c9839","name":"合理餘香 咖啡豆舖","city":"kaohsiung","wifi":0,"seat":0,"quiet":0,"tasty":0,"cheap":0,"music":0,"url":"https://www.facebook.com/reasonablegoodcoffee/","address":"高雄市三民區大昌一路218號","latitude":"22.65645780","longitude":"120.32273000","limited_time":"no","socket":"yes","standing_desk":"yes","mrt":"","open_time":""},{"id":"bebfd636-7ac7-452e-b556-c3494ee77713","name":"這條路咖啡 Thisway Coffee","city":"kaohsiung","wifi":0,"seat":0,"quiet":0,"tasty":0,"cheap":0,"music":0,"url":"","address":"高雄市新興區玉竹一街17巷13號","latitude":"22.62482170","longitude":"120.30193850","limited_time":"","socket":"","standing_desk":"","mrt":"","open_time":""},{"id":"becdbdbc-ae2d-4f34-9969-362368555698","name":"德爾文咖啡","city":"kaohsiung","wifi":0,"seat":0,"quiet":0,"tasty":0,"cheap":0,"music":0,"url":"","address":"高雄市三民區大豐二路67號","latitude":"22.64652400","longitude":"120.32719100","limited_time":"","socket":"","standing_desk":"","mrt":"","open_time":""},{"id":"bef555ed-da37-419e-a048-47e438c87ab8","name":"Mi's Mate","city":"kaohsiung","wifi":4,"seat":4,"quiet":3.5,"tasty":4,"cheap":4,"music":3.5,"url":"https://www.facebook.com/MISMATECOFFEE/","address":"802台灣高雄市苓雅區新光路24巷21號","latitude":"22.61269260","longitude":"120.30322500","limited_time":"maybe","socket":"yes","standing_desk":"no","mrt":"","open_time":""},{"id":"bf234a28-dc4b-432f-9986-f572bdcfa23f","name":"芙諾河","city":"kaohsiung","wifi":1,"seat":5,"quiet":5,"tasty":5,"cheap":3,"music":4,"url":"https://www.facebook.com/coffeeflower/","address":"高雄市高雄市苓雅區福德一路50-4號","latitude":"22.63435700","longitude":"120.33496500","limited_time":"","socket":"no","standing_desk":"no","mrt":"","open_time":""},{"id":"bf635a1d-1421-48c8-a551-41f9c70d223b","name":"描Cafe X 屋 Brunch","city":"kaohsiung","wifi":4,"seat":4,"quiet":3,"tasty":4,"cheap":3,"music":3,"url":"https://www.facebook.com/%E6%8F%8FCafe-X-%E5%B1%8BBrunch-351238351720863/","address":"高雄市新興區文橫一路68號","latitude":"22.62643530","longitude":"120.30284390","limited_time":"maybe","socket":"","standing_desk":"","mrt":"","open_time":""},{"id":"bf9f9106-73ed-4414-8bd4-986b902a63e2","name":"珈品豆行KaFei","city":"kaohsiung","wifi":5,"seat":5,"quiet":5,"tasty":5,"cheap":5,"music":5,"url":"https://m.facebook.com/cripcafe/","address":"高雄市鳳山區新富路480巷8號","latitude":"22.61327720","longitude":"120.34713090","limited_time":"no","socket":"maybe","standing_desk":"yes","mrt":"鳳山西站","open_time":"上午9:30-晚上20:00"},{"id":"c00206d5-bd5b-43c4-9e3b-e8e3d04964bf","name":"161烘焙咖啡屋(明華路)","city":"kaohsiung","wifi":0,"seat":0,"quiet":0,"tasty":0,"cheap":0,"music":0,"url":"","address":"高雄市左營區明華一路5號","latitude":"22.66220960","longitude":"120.31057840","limited_time":"","socket":"","standing_desk":"","mrt":"","open_time":""},{"id":"c16d9cf3-57ae-400b-87b6-2905b04876ff","name":"青田","city":"kaohsiung","wifi":4,"seat":2,"quiet":4,"tasty":4,"cheap":4,"music":5,"url":"https://www.facebook.com/SugarAnndc/","address":"新田路29號","latitude":"22.62347800","longitude":"120.30757700","limited_time":"","socket":"maybe","standing_desk":"no","mrt":"","open_time":""},{"id":"c1dc6432-2049-46e0-85d7-ea6248bc862d","name":"咖啡林咖啡 河堤店","city":"kaohsiung","wifi":5,"seat":5,"quiet":5,"tasty":5,"cheap":5,"music":5,"url":"https://www.facebook.com/coffeelingcafe/","address":"高雄市三民區鼎祥街12號","latitude":"22.66507750","longitude":"120.31577930","limited_time":"maybe","socket":"yes","standing_desk":"no","mrt":"","open_time":""},{"id":"c37b4ac3-b98f-4922-a169-e2b0dccdd41f","name":"Betterman Pizza x Coffee ","city":"kaohsiung","wifi":5,"seat":5,"quiet":2,"tasty":5,"cheap":3,"music":5,"url":"https://www.facebook.com/betterman265/","address":"高雄市新興區高雄市新興區民生一路265號","latitude":"22.62717500","longitude":"120.30724300","limited_time":"","socket":"","standing_desk":"","mrt":"","open_time":""},{"id":"c4e3176f-bd57-41ed-bda1-00e4b25d44fb","name":"LA MAISON BERRY 貝瑞家 巨蛋店","city":"kaohsiung","wifi":0,"seat":0,"quiet":0,"tasty":0,"cheap":0,"music":0,"url":"https://www.lamaisonberry.com/","address":"左營區新莊仔路614號","latitude":"22.66926800","longitude":"120.30648800","limited_time":"maybe","socket":"","standing_desk":"","mrt":"R14巨蛋","open_time":""},{"id":"c52350b1-d25d-4f15-901e-53df79799564","name":"瑟拉威","city":"kaohsiung","wifi":5,"seat":5,"quiet":3.5,"tasty":4.5,"cheap":5,"music":4.5,"url":"https://www.facebook.com/cestlavie2232633/","address":"高雄市民族二路66號","latitude":"22.63251800","longitude":"120.31373800","limited_time":"","socket":"maybe","standing_desk":"no","mrt":"信義國小五號出口，走路約5分","open_time":""},{"id":"c52c92e5-cec4-42e9-aa8d-7231916fba38","name":"愛倫手感烘焙、咖啡-大社旗艦店","city":"kaohsiung","wifi":1,"seat":3,"quiet":3,"tasty":5,"cheap":5,"music":5,"url":"https://www.facebook.com/allen.cake/","address":"高雄市大社區中山路223之1、2號","latitude":"22.73191370","longitude":"120.34776820","limited_time":"no","socket":"no","standing_desk":"yes","mrt":"","open_time":"上午08：00至下午23：00"},{"id":"c7b2aa7a-ad0f-4cd9-8069-186fb7ff26d2","name":"HWC 黑沃咖啡（高雄高醫店）","city":"kaohsiung","wifi":5,"seat":5,"quiet":4,"tasty":5,"cheap":5,"music":4,"url":"https://www.hwcroasters.com","address":"80782 高雄市三民區正忠路228-1號","latitude":"22.64606680","longitude":"120.33032280","limited_time":"no","socket":"maybe","standing_desk":"no","mrt":"","open_time":""},{"id":"c9246d43-3b83-4abe-a255-12887dc1550f","name":"金錨咖啡","city":"kaohsiung","wifi":0,"seat":0,"quiet":0,"tasty":0,"cheap":0,"music":0,"url":"","address":"高雄市新興區尚義街113號","latitude":"22.63100200","longitude":"120.31522100","limited_time":"","socket":"","standing_desk":"","mrt":"","open_time":""},{"id":"c933b393-0cc4-4e93-bad7-36d61a0d783f","name":"Room 71 Cafe","city":"kaohsiung","wifi":5,"seat":5,"quiet":5,"tasty":5,"cheap":5,"music":5,"url":"https://m.facebook.com/room71cafe/","address":"高雄市新興區六合一路71號","latitude":"22.63252080","longitude":"120.30724840","limited_time":"no","socket":"yes","standing_desk":"yes","mrt":"","open_time":""},{"id":"c98c017e-38af-40e0-a471-33461761c378","name":"蓮貴藝文咖啡館","city":"kaohsiung","wifi":0,"seat":0,"quiet":0,"tasty":0,"cheap":0,"music":0,"url":"","address":"高雄市新興區河南一路119號","latitude":"22.63646900","longitude":"120.30313280","limited_time":"","socket":"","standing_desk":"","mrt":"","open_time":""},{"id":"ca21c60f-e470-4a92-ac0b-5d797fc7c4ca","name":"耀cafe","city":"kaohsiung","wifi":5,"seat":4.5,"quiet":5,"tasty":5,"cheap":4.5,"music":5,"url":"https://www.facebook.com/YaoCafeYaoCafe/","address":"高雄市楠梓區慶昌街11巷18號","latitude":"22.71104490","longitude":"120.29629920","limited_time":"no","socket":"maybe","standing_desk":"yes","mrt":"油廠國小","open_time":""},{"id":"cac47c0f-1979-4f7c-9c9c-904331bac535","name":"宮前咖啡","city":"kaohsiung","wifi":5,"seat":0,"quiet":0,"tasty":5,"cheap":5,"music":0,"url":"https://goo.gl/6H2HbG","address":"高雄市新興區球庭路79號","latitude":"22.63034600","longitude":"120.30357740","limited_time":"no","socket":"no","standing_desk":"no","mrt":"美麗島","open_time":"AM10:00~PM08:00"},{"id":"cb257154-2405-457d-bc6e-7b946f7ff04b","name":"oracle coffee神諭咖啡","city":"kaohsiung","wifi":4.5,"seat":5,"quiet":4.5,"tasty":5,"cheap":4,"music":4.5,"url":"https://www.facebook.com/Oracle7272672/","address":"高雄市新興區大同一路103號","latitude":"22.62887470","longitude":"120.30381520","limited_time":"no","socket":"maybe","standing_desk":"no","mrt":"","open_time":""},{"id":"cb39e4df-1d7d-4a63-9b8b-7dad8aedcf45","name":"FANs cafe","city":"kaohsiung","wifi":5,"seat":4,"quiet":3,"tasty":4,"cheap":5,"music":5,"url":"https://www.facebook.com/fanscafekh/","address":"高雄市楠梓區土庫一路158號","latitude":"22.73641810","longitude":"120.32972000","limited_time":"maybe","socket":"maybe","standing_desk":"no","mrt":"","open_time":""},{"id":"cb848021-63f7-401c-a385-0c1572fbcfeb","name":"馬修咖啡·廚房","city":"kaohsiung","wifi":5,"seat":3,"quiet":3,"tasty":4,"cheap":3.5,"music":4,"url":"https://m.facebook.com/matther.cafe.kitchen/?locale2=zh_TW","address":"高雄市鼓山區大順一路925號","latitude":"22.65482830","longitude":"120.29829060","limited_time":"no","socket":"maybe","standing_desk":"yes","mrt":"凹子底站(R13)","open_time":""},{"id":"cb9f780a-5f91-4acc-b12e-1d4e5c9b97a6","name":"好久不見 • 咖啡","city":"kaohsiung","wifi":5,"seat":3,"quiet":4,"tasty":4,"cheap":5,"music":5,"url":"https://www.facebook.com/pages/category/Coffee-Shop/%E5%A5%BD%E4%B9%85%E4%B8%8D%E8%A6%8B%E5%92%96%E5%95%A1-2481470691903422/","address":"高雄市苓雅區林泉街108號","latitude":"22.62254900","longitude":"120.31645700","limited_time":"no","socket":"maybe","standing_desk":"no","mrt":"","open_time":""},{"id":"cc1ff80d-b71f-4bf0-8002-4a5a8024f7bb","name":"興趣xsimtree","city":"kaohsiung","wifi":4,"seat":3.5,"quiet":1,"tasty":3,"cheap":3,"music":3.5,"url":"https://www.facebook.com/simtree.tw/","address":"高雄市新興區中正三路73號","latitude":"22.63084420","longitude":"120.30749470","limited_time":"no","socket":"maybe","standing_desk":"yes","mrt":"信義國小","open_time":""},{"id":"cca961a6-296c-444a-a850-834a2dbeb019","name":"和。好珈琲店","city":"kaohsiung","wifi":5,"seat":4,"quiet":5,"tasty":5,"cheap":4,"music":5,"url":"https://www.facebook.com/hhcafe/","address":"高雄市三民區興隆街21號","latitude":"22.64703800","longitude":"120.31909200","limited_time":"no","socket":"maybe","standing_desk":"no","mrt":"","open_time":"週二到週日09:00-18:00"},{"id":"cda888fd-7d0f-4d0b-8311-d8c3bf266000","name":"大衛咖啡文字店","city":"kaohsiung","wifi":3,"seat":5,"quiet":4,"tasty":5,"cheap":5,"music":4,"url":"https://www.facebook.com/carwashfun/","address":"高雄市左營區文自路99號","latitude":"22.67178820","longitude":"120.30631860","limited_time":"","socket":"yes","standing_desk":"","mrt":"","open_time":""},{"id":"cfe837d0-ba27-4174-ac21-64fdfdd4f5ff","name":"Lab Library","city":"kaohsiung","wifi":5,"seat":4.5,"quiet":5,"tasty":3,"cheap":3,"music":5,"url":"https://www.facebook.com/Lablibrarycafe/?fref=ts","address":"高雄市前鎮區新光路61號3樓","latitude":"22.61029840","longitude":"120.30195670","limited_time":"no","socket":"no","standing_desk":"yes","mrt":"三多商圈站2號出口步10分 輕軌高雄展覽館站步7分/公車站\"圖書總館\"前 ''新光路口(圖書總館)''步3分, ''高雄展覽館''步6分/CityBike\"圖書總館\"站前","open_time":""},{"id":"d041396e-0fe4-4c30-b801-cade4ac7e599","name":"Freedom 咖啡BAR","city":"kaohsiung","wifi":0,"seat":5,"quiet":5,"tasty":4,"cheap":4,"music":4,"url":"","address":"高雄市博愛一路192-1號","latitude":"22.64672130","longitude":"120.30348060","limited_time":"maybe","socket":"yes","standing_desk":"no","mrt":"","open_time":"11:00~24:00"},{"id":"d1e00731-cf13-4aaf-af83-8855b87f89ae","name":"馞咖啡 光華店","city":"kaohsiung","wifi":4,"seat":5,"quiet":5,"tasty":5,"cheap":4,"music":5,"url":"https://www.facebook.com/balmy.cafe/","address":"高雄市苓雅區光華一路207號","latitude":"22.62347000","longitude":"120.31556500","limited_time":"no","socket":"yes","standing_desk":"no","mrt":"信義國小站4號出口步14分 文化中心站2號出口步15分/公車站\"青年路口(光華一路)\"步1分, \"光華路口(四維二路)\"步5分, \"四維國小(民權一路)\"步6分/CityBike\"文化中心\"站步5分","open_time":""},{"id":"d214c05b-13f9-475c-aa3e-4db911d437a9","name":"泊咖啡 Theo Coffee","city":"kaohsiung","wifi":0,"seat":0,"quiet":0,"tasty":0,"cheap":0,"music":0,"url":"https://www.facebook.com/KaohsiungTheoCoffee/","address":"高雄市左營區翠峰路16號","latitude":"22.67139320","longitude":"120.28972520","limited_time":"","socket":"","standing_desk":"","mrt":"","open_time":""},{"id":"d26c7411-dc43-4fa3-8006-ea81e7c56c46","name":"合日咖啡","city":"kaohsiung","wifi":0,"seat":5,"quiet":3,"tasty":5,"cheap":4,"music":2,"url":"https://www.facebook.com/hericafe409/","address":"高雄市左營區文強路409號","latitude":"22.67695190","longitude":"120.30944190","limited_time":"no","socket":"no","standing_desk":"no","mrt":"","open_time":""},{"id":"d28fc611-6456-4922-bad5-3e7f20e8a1e0","name":"Reel_木軸咖啡館","city":"kaohsiung","wifi":5,"seat":4,"quiet":5,"tasty":5,"cheap":5,"music":5,"url":"https://www.facebook.com/Reelcoffeespace/","address":"高雄市三民區天民路11號","latitude":"22.64331300","longitude":"120.34563800","limited_time":"no","socket":"maybe","standing_desk":"no","mrt":"N/A","open_time":"09:30-20:00，週三公休"},{"id":"d44ee072-5a42-46b2-90ed-a2eca8ef8c5f","name":"電商咖啡高雄鹽埕店","city":"kaohsiung","wifi":3,"seat":4.5,"quiet":3,"tasty":3,"cheap":3,"music":3,"url":"","address":"高雄市鹽埕區大勇路98號","latitude":"22.62459120","longitude":"120.28440900","limited_time":"no","socket":"maybe","standing_desk":"no","mrt":"已歇業","open_time":"已歇業"},{"id":"d895792f-1826-4805-b8b6-3b3b04fa309d","name":"台灣壹品咖啡","city":"kaohsiung","wifi":0,"seat":0,"quiet":0,"tasty":0,"cheap":0,"music":0,"url":"https://www.facebook.com/pages/category/Coffee-Shop/%E5%8F%B0%E7%81%A3%E5%A3%B9%E5%93%81%E5%92%96%E5%95%A1-175371296700742/","address":"高雄市左營區蓮潭路40號","latitude":"22.68264180","longitude":"120.29257420","limited_time":"","socket":"","standing_desk":"","mrt":"","open_time":""},{"id":"db4c9ee4-1c17-4605-bb00-f208d9f9bfd5","name":"光井咖啡","city":"kaohsiung","wifi":5,"seat":5,"quiet":5,"tasty":5,"cheap":5,"music":5,"url":"https://www.facebook.com/%E5%85%89%E4%BA%95%E5%92%96%E5%95%A1-Wellight-Coffee-308913679242263/","address":"高雄市岡山區維仁路30巷6號","latitude":"22.79242650","longitude":"120.29303970","limited_time":"","socket":"no","standing_desk":"yes","mrt":"台鐵岡山站步9分/公車站\"岡山國小\"步4分, ''移民署''''岡山郵局''步6分/CityBike\"岡山忠孝里\"站步6分","open_time":""},{"id":"de8add79-1448-4894-b7a6-d0b4b8ee0424","name":"咖啡平方左營自由店","city":"kaohsiung","wifi":4,"seat":5,"quiet":4,"tasty":4,"cheap":5,"music":3,"url":"https://www.facebook.com/%E5%92%96%E5%95%A1%E5%B9%B3%E6%96%B9-%E5%B7%A6%E7%87%9F%E8%87%AA%E7%94%B1%E5%BA%97-595095634020891/","address":"高雄市左營區自由二路109號","latitude":"22.65914300","longitude":"120.30865300","limited_time":"maybe","socket":"no","standing_desk":"yes","mrt":"凹子底","open_time":""},{"id":"dfa64265-0428-4dd1-8d16-72af9668308c","name":"Lab 146","city":"kaohsiung","wifi":3,"seat":3.5,"quiet":3.5,"tasty":4,"cheap":3.5,"music":4,"url":"https://www.facebook.com/lab146cafe/","address":"高雄市前金區中正四路146號","latitude":"22.62990300","longitude":"120.29692810","limited_time":"","socket":"","standing_desk":"no","mrt":"","open_time":""},{"id":"e374746d-4a44-4470-92e9-2415c38f42f1","name":"樂客食品行","city":"kaohsiung","wifi":5,"seat":5,"quiet":5,"tasty":5,"cheap":5,"music":5,"url":"https://m.facebook.com/pg/Lecocoffee/posts/","address":"高雄市苓雅區建國一路139-8號","latitude":"22.63231400","longitude":"120.33018660","limited_time":"no","socket":"maybe","standing_desk":"yes","mrt":"","open_time":""},{"id":"e3c95f99-1a38-419f-8dcd-b4add0c0cb24","name":"來7號咖啡","city":"kaohsiung","wifi":0,"seat":0,"quiet":5,"tasty":4,"cheap":4,"music":0,"url":"https://www.facebook.com/no7cafe/","address":"高雄市鳳山區國光路7號","latitude":"22.61812610","longitude":"120.35372300","limited_time":"no","socket":"maybe","standing_desk":"no","mrt":"鳳山站、鳳山西站","open_time":"10:00-19:00"},{"id":"e3f76fc8-7150-4ebe-8305-4ae906591505","name":"黑黑黑咖啡","city":"kaohsiung","wifi":5,"seat":5,"quiet":2,"tasty":5,"cheap":4,"music":4,"url":"https://www.facebook.com/BLACKx3CafexGangShan/","address":"岡山區介壽西路219號","latitude":"22.79293740","longitude":"120.28594840","limited_time":"no","socket":"maybe","standing_desk":"no","mrt":"","open_time":""},{"id":"e4f947d6-5414-4332-bc6f-354112e076c8","name":"卡啡那美術館店","city":"kaohsiung","wifi":5,"seat":3,"quiet":3,"tasty":0,"cheap":3,"music":5,"url":"","address":"804高雄市鼓山區美術東二路3號","latitude":"22.65114630","longitude":"120.28760330","limited_time":"no","socket":"maybe","standing_desk":"no","mrt":"","open_time":""},{"id":"e52f2293-92fe-4773-88b2-ecf7e32455b1","name":"有。咖啡","city":"kaohsiung","wifi":5,"seat":4,"quiet":5,"tasty":5,"cheap":5,"music":5,"url":"https://www.facebook.com/rruyocafe/","address":"高雄市苓雅區中正二路56巷11號","latitude":"0.00000000","longitude":"0.00000000","limited_time":"maybe","socket":"no","standing_desk":"no","mrt":"","open_time":""},{"id":"e53ecc8c-f48e-422e-b3ed-507b53300970","name":"G Coffee ","city":"kaohsiung","wifi":5,"seat":4,"quiet":5,"tasty":5,"cheap":5,"music":5,"url":"www.facebook.com.tw/GCoffeeKHH","address":"高雄市鳳山區大東二路92號","latitude":"22.61905700","longitude":"120.35886200","limited_time":"maybe","socket":"maybe","standing_desk":"no","mrt":"","open_time":"如有另休會公告"},{"id":"e63d775d-7914-4f21-bb35-a2438b8191ec","name":"KBSCA","city":"kaohsiung","wifi":0,"seat":0,"quiet":0,"tasty":0,"cheap":0,"music":0,"url":"","address":"高雄市塩埕區府北路27之2號","latitude":"22.62815280","longitude":"120.28570440","limited_time":"","socket":"","standing_desk":"","mrt":"","open_time":""},{"id":"e752712f-113f-4b9f-91c5-a6a7565b1894","name":"爵品咖啡","city":"kaohsiung","wifi":0,"seat":5,"quiet":4,"tasty":5,"cheap":4,"music":5,"url":"https://www.facebook.com/%E7%88%B5%E5%93%81%E5%92%96%E5%95%A1-313543022017911/","address":"高雄市苓雅區武慶三路81號","latitude":"22.62136000","longitude":"120.33156900","limited_time":"","socket":"no","standing_desk":"","mrt":"","open_time":""},{"id":"e790aa4f-1d6b-41ab-b32e-3ebf5e5234d9","name":"構筑咖啡 weave cafe","city":"kaohsiung","wifi":0,"seat":5,"quiet":4,"tasty":5,"cheap":4.5,"music":4.5,"url":"http://fb.me/weavecoffee","address":"高雄市左營區民族一路909號","latitude":"22.68126400","longitude":"120.31932100","limited_time":"no","socket":"","standing_desk":"","mrt":"","open_time":""},{"id":"e7da8642-1701-44f4-85ab-d964b185ca6b","name":"五金咖啡","city":"kaohsiung","wifi":5,"seat":5,"quiet":4,"tasty":5,"cheap":5,"music":5,"url":"https://www.facebook.com/5Ghardwarecoffee/","address":"高雄巿梓官區大舍北路38號","latitude":"22.74835400","longitude":"120.26145410","limited_time":"no","socket":"no","standing_desk":"yes","mrt":"","open_time":"0700-1700"},{"id":"e8f2a433-4d29-4ccb-a1ee-30f3ff52622e","name":"KAFEi 珈品咖啡-建國店","city":"kaohsiung","wifi":5,"seat":5,"quiet":5,"tasty":4.5,"cheap":5,"music":5,"url":"https://www.facebook.com/kafei7226990/","address":"高雄市苓雅區建國一路137-5號","latitude":"22.63207410","longitude":"120.33090010","limited_time":"no","socket":"maybe","standing_desk":"no","mrt":"橘線5塊厝6號出口出來直走 ➡️看到正言路左轉 ➡️正言路直走到建國一路 ➡️看到鼎山自助餐右轉 ➡️『KAFEi珈品』就在自助餐隔壁","open_time":""},{"id":"e9cae906-cc12-4260-aa47-40c8dad15e6a","name":"拉茉咖啡 Lamore coffee","city":"kaohsiung","wifi":0,"seat":0,"quiet":0,"tasty":0,"cheap":0,"music":0,"url":"","address":"高雄市左營區蓮潭路18號","latitude":"22.68276150","longitude":"120.29196580","limited_time":"","socket":"","standing_desk":"","mrt":"","open_time":""},{"id":"ea2862bf-4591-4ba3-87ec-97a8ce945b1e","name":"泮咖啡","city":"kaohsiung","wifi":4,"seat":4,"quiet":4,"tasty":4,"cheap":4,"music":5,"url":"https://m.facebook.com/PAMMACoffee/","address":"高雄市左營區蓮潭路400號南側","latitude":"22.68923860","longitude":"120.29904170","limited_time":"no","socket":"yes","standing_desk":"yes","mrt":"","open_time":"10:00-24:00"},{"id":"ea29c35f-b420-4312-b73c-2ee240bf6101","name":"PiNNCafe 品．咖啡","city":"kaohsiung","wifi":5,"seat":4.5,"quiet":5,"tasty":5,"cheap":4,"music":4,"url":"https://www.facebook.com/PiNNCafe/","address":"高雄市左營區新庄仔路704號","latitude":"22.66887100","longitude":"120.30851950","limited_time":"yes","socket":"maybe","standing_desk":"yes","mrt":"","open_time":""},{"id":"ea3fe515-8664-4861-8333-e7d43c51aea1","name":"Bunny Walking Coffee","city":"kaohsiung","wifi":0,"seat":0,"quiet":0,"tasty":0,"cheap":0,"music":0,"url":"","address":"高雄市左營區文強路33號","latitude":"22.67301400","longitude":"120.30511900","limited_time":"","socket":"","standing_desk":"","mrt":"","open_time":""},{"id":"eb3f37d6-1fa8-4dd5-9c1f-886c38a3f23f","name":"MAD","city":"kaohsiung","wifi":5,"seat":5,"quiet":3,"tasty":4,"cheap":2,"music":5,"url":"https://www.facebook.com/MAD073555711/","address":"高雄市楠梓區土庫三路215號","latitude":"22.73929350","longitude":"120.32818610","limited_time":"no","socket":"maybe","standing_desk":"no","mrt":"","open_time":""},{"id":"ec44fd55-aa51-4f49-8a72-58391a6d2b86","name":"路人咖啡3號店","city":"kaohsiung","wifi":5,"seat":4.5,"quiet":4,"tasty":5,"cheap":5,"music":5,"url":"https://www.facebook.com/ruhcafeno.3/","address":"高雄市三民區天津路253號","latitude":"22.64559880","longitude":"120.30096230","limited_time":"maybe","socket":"yes","standing_desk":"no","mrt":"後驛站4號出口，步行約5分","open_time":""},{"id":"ee1d30f4-1692-4694-a675-8b51d7e48fdf","name":"鬲离咖啡館","city":"kaohsiung","wifi":4.5,"seat":4,"quiet":4,"tasty":1,"cheap":1,"music":4,"url":"https://www.facebook.com/GELIcoffee/","address":"高雄市左營區新上街253號","latitude":"22.66901140","longitude":"120.30599210","limited_time":"","socket":"yes","standing_desk":"yes","mrt":"","open_time":""},{"id":"eea53a69-5849-45ee-aae9-55f9ffdc7b86","name":"挪威森林咖啡館","city":"kaohsiung","wifi":4,"seat":4,"quiet":4,"tasty":4,"cheap":4,"music":4,"url":"https://www.facebook.com/%E6%8C%AA%E5%A8%81%E6%A3%AE%E6%9E%97%E5%92%96%E5%95%A1%E9%A4%A8-354151644700977/","address":"高雄市三民區九如二路512號","latitude":"22.64172800","longitude":"120.29785700","limited_time":"","socket":"maybe","standing_desk":"no","mrt":"台鐵高雄站/台鐵三塊厝站/捷運高雄車站","open_time":""},{"id":"eec936a1-9689-4904-945f-9ed6aead0ab0","name":"時刻咖啡","city":"kaohsiung","wifi":5,"seat":5,"quiet":5,"tasty":4,"cheap":3,"music":5,"url":"https://www.facebook.com/CafeDeTiming/","address":"高雄市前金區育才街4號","latitude":"22.63216900","longitude":"120.29698600","limited_time":"no","socket":"maybe","standing_desk":"no","mrt":"","open_time":""},{"id":"ef43c443-6d44-45a4-b527-c9e3177ff41a","name":"羅斯朵。晴天現烘咖啡","city":"kaohsiung","wifi":3,"seat":4,"quiet":3,"tasty":3.5,"cheap":4.5,"music":3,"url":"https://www.facebook.com/sunnyday.cafe.roaster/","address":"高雄市苓雅區廣州一街143-5號(文化中心西側門)","latitude":"22.62517240","longitude":"120.31663940","limited_time":"no","socket":"no","standing_desk":"no","mrt":"文化中心站2號出口步10分","open_time":""},{"id":"f08bf341-e387-47ff-8628-16f4ff8e7373","name":"36味咖啡館","city":"kaohsiung","wifi":5,"seat":5,"quiet":4.5,"tasty":5,"cheap":4,"music":4,"url":"https://www.facebook.com/36%E5%91%B3%E5%92%96%E5%95%A1%E9%A4%A8%E8%87%AA%E5%AE%B6%E7%85%8E%E7%84%99-137578109645701/","address":"高雄市三民區正興路74號","latitude":"22.64573510","longitude":"120.32123390","limited_time":"","socket":"yes","standing_desk":"yes","mrt":"","open_time":""},{"id":"f1ad08ff-70ba-4992-8f8c-5e70407269e4","name":"元極CAF'E","city":"kaohsiung","wifi":0,"seat":0,"quiet":0,"tasty":0,"cheap":0,"music":0,"url":"","address":"高雄市楠梓區土庫一路232號","latitude":"22.73658410","longitude":"120.32854840","limited_time":"","socket":"","standing_desk":"","mrt":"","open_time":""},{"id":"f41118b2-3a02-47b9-8626-1e1e315e3ecf","name":"Cafe種子屋","city":"kaohsiung","wifi":4,"seat":5,"quiet":5,"tasty":5,"cheap":5,"music":5,"url":"","address":"高雄市橋頭區橋頭路125號","latitude":"22.75733510","longitude":"120.31136080","limited_time":"no","socket":"maybe","standing_desk":"","mrt":"","open_time":""},{"id":"f532defc-14aa-412f-b492-2b6be403a0d1","name":"貓魚咖啡 Cat&Fish Coffee","city":"kaohsiung","wifi":5,"seat":5,"quiet":5,"tasty":5,"cheap":5,"music":5,"url":"","address":"高雄市左營區民族一路1012-1號","latitude":"22.68028800","longitude":"120.31956700","limited_time":"","socket":"","standing_desk":"","mrt":"","open_time":""},{"id":"f5595732-a004-4be3-80d5-d46729db363a","name":"O-Ba泡芙手沖咖啡","city":"kaohsiung","wifi":0,"seat":0,"quiet":0,"tasty":0,"cheap":0,"music":0,"url":"","address":"高雄市苓雅區青年一路4巷10號","latitude":"22.62507240","longitude":"120.31632070","limited_time":"","socket":"","standing_desk":"","mrt":"","open_time":""},{"id":"f57bf6e7-c0c7-45f7-b3af-3090cd49c2a1","name":"帶我去旅行","city":"kaohsiung","wifi":0,"seat":0,"quiet":0,"tasty":0,"cheap":0,"music":0,"url":"","address":"高雄市鳳山區光復路171號","latitude":"22.62891670","longitude":"120.35761100","limited_time":"","socket":"","standing_desk":"","mrt":"","open_time":""},{"id":"f5b13736-64d1-4f7d-8672-58a4bea9176d","name":"Artisan Cafe","city":"kaohsiung","wifi":5,"seat":4.5,"quiet":4.5,"tasty":4,"cheap":3,"music":4,"url":"https://www.facebook.com/pg/artisantw/about/?tab=page_info","address":"高雄市前金區仁義街223號","latitude":"22.62036500","longitude":"120.30101600","limited_time":"no","socket":"no","standing_desk":"no","mrt":"中央公園","open_time":"12:00-20:00"},{"id":"f820b167-e2fb-437e-bf08-ddc8eb7ec2dd","name":"辰咖啡館 (Tatsu Cafe)","city":"kaohsiung","wifi":0,"seat":0,"quiet":0,"tasty":0,"cheap":0,"music":0,"url":"","address":"807台灣高雄市三民區中華二路369號","latitude":"22.64764700","longitude":"120.29149800","limited_time":"","socket":"","standing_desk":"","mrt":"","open_time":""},{"id":"f83f67cc-f57d-4509-86cf-d921472babc5","name":"瑞福咖啡 Revel","city":"kaohsiung","wifi":5,"seat":4,"quiet":3,"tasty":5,"cheap":5,"music":5,"url":"https://www.facebook.com/revelcoffeestudio/","address":"高雄市林森三路83巷31號1樓","latitude":"22.61222800","longitude":"120.30719200","limited_time":"no","socket":"","standing_desk":"no","mrt":"","open_time":""},{"id":"f88bde66-f0f2-4b20-bf6d-67b5a655dd06","name":"貓武將","city":"kaohsiung","wifi":4,"seat":5,"quiet":5,"tasty":4,"cheap":5,"music":4,"url":"https://www.facebook.com/pages/%E8%B2%93%E6%AD%A6%E5%B0%87/130251404010625?fref=ts","address":"高雄市大社區大社路137號","latitude":"22.73524740","longitude":"120.35361190","limited_time":"","socket":"","standing_desk":"no","mrt":"","open_time":""},{"id":"f91f3299-101a-4d0b-bf20-abe7a64e4317","name":"瑪琪朵朵","city":"kaohsiung","wifi":4.5,"seat":4,"quiet":4,"tasty":4,"cheap":3,"music":3,"url":"https://www.facebook.com/m5372066/","address":"民權二路411號","latitude":"22.61192000","longitude":"120.31363300","limited_time":"maybe","socket":"maybe","standing_desk":"no","mrt":"","open_time":""},{"id":"f94e79ed-b47d-4d8d-ac63-695d2383644b","name":"路易莎咖啡","city":"kaohsiung","wifi":5,"seat":5,"quiet":5,"tasty":5,"cheap":5,"music":5,"url":"https://www.facebook.com/louisacoffee20161116/","address":"高雄市楠梓區德惠路22號","latitude":"22.72576270","longitude":"120.30293470","limited_time":"no","socket":"yes","standing_desk":"yes","mrt":"","open_time":""},{"id":"faa96c24-dd41-4d0a-b8ca-ae2e8ba75176","name":"馬可的店｜自家烘焙咖啡","city":"kaohsiung","wifi":5,"seat":3,"quiet":3,"tasty":5,"cheap":3,"music":5,"url":"https://www.facebook.com/MarcoCafeKaohsiung/","address":"高雄市三民區正興路165號","latitude":"22.64670900","longitude":"120.31967400","limited_time":"no","socket":"maybe","standing_desk":"yes","mrt":"","open_time":""},{"id":"fb431907-355b-480f-9416-ce1f0c003841","name":"春正商行","city":"kaohsiung","wifi":0,"seat":4.5,"quiet":3.5,"tasty":5,"cheap":4,"music":4.5,"url":"","address":"高雄市鳥松區本館路72巷11-1號","latitude":"22.65320880","longitude":"120.34094710","limited_time":"","socket":"","standing_desk":"","mrt":"","open_time":""},{"id":"fb8a1692-275e-4305-864c-a4f15cd958d6","name":"宥謙豆行","city":"kaohsiung","wifi":4,"seat":4,"quiet":5,"tasty":5,"cheap":5,"music":4,"url":"https://www.facebook.com/yocheer.coffee/","address":"高雄市小港區新昌街21之26號","latitude":"22.58442700","longitude":"120.36101820","limited_time":"no","socket":"no","standing_desk":"yes","mrt":"捷運草衙站","open_time":""},{"id":"fba3d560-e69b-47cc-82bd-4b441932bc8c","name":"滴滴咖啡 Daily Dose Coffee","city":"kaohsiung","wifi":5,"seat":5,"quiet":5,"tasty":5,"cheap":5,"music":5,"url":"www.facebook.com/ddcaffee","address":"高雄市前金區中正四路106號","latitude":"22.63035120","longitude":"120.29822780","limited_time":"no","socket":"no","standing_desk":"yes","mrt":"","open_time":""},{"id":"ff97e646-9e02-4da8-802e-566605ed3c01","name":"多那之明誠店","city":"kaohsiung","wifi":0,"seat":5,"quiet":3,"tasty":4,"cheap":3,"music":4,"url":"","address":"813台灣高雄市左營區明誠二路433號","latitude":"22.66091200","longitude":"120.30638500","limited_time":"no","socket":"no","standing_desk":"yes","mrt":"","open_time":"24小時"},{"id":"ffe1b3ce-e239-44cc-b93b-72a1f4982bac","name":"哈維卡","city":"kaohsiung","wifi":4,"seat":4.5,"quiet":4.5,"tasty":5,"cheap":5,"music":4.5,"url":"https://www.facebook.com/%E5%93%88%E7%B6%AD%E5%8D%A1%E5%92%96%E5%95%A1%E7%83%98%E7%84%99%E9%A4%A8-481151981913441/","address":"高雄市左營區文守路168巷8弄1號","latitude":"22.67098310","longitude":"120.31697340","limited_time":"no","socket":"maybe","standing_desk":"no","mrt":"","open_time":""}]