[{"id":"0c8fd155-e548-4f81-9896-7d939c7dc66a","name":"金豆咖啡","city":"keelung","wifi":5,"seat":5,"quiet":4,"tasty":5,"cheap":4,"music":5,"url":"https://www.facebook.com/%E9%87%91%E8%B1%86%E5%92%96%E5%95%A1-174715529207985/","address":"基隆市仁愛區忠三路75號","latitude":"25.12926450","longitude":"121.73902060","limited_time":"no","socket":"","standing_desk":"no","mrt":"","open_time":"每週二不固定店休，可去電洽詢"},{"id":"3662b90c-c266-402f-8326-fba227642f6b","name":"Ruth C. Coffee","city":"keelung","wifi":5,"seat":5,"quiet":5,"tasty":4,"cheap":4,"music":4,"url":"https://www.facebook.com/ruthc.coffee/?fref=ts","address":"基隆市仁愛區忠一路3巷25號","latitude":"25.12995000","longitude":"121.74099500","limited_time":"no","socket":"yes","standing_desk":"no","mrt":"","open_time":"13:00-21:00"},{"id":"40bd419c-1ca8-4e07-b24d-b8c0928b7c14","name":"SOH Espresso Cafe","city":"keelung","wifi":5,"seat":3,"quiet":3,"tasty":5,"cheap":4,"music":4,"url":"https://www.facebook.com/sohespresso/","address":"基隆市劉銘傳路6巷24號","latitude":"25.12800860","longitude":"121.74942000","limited_time":"no","socket":"maybe","standing_desk":"no","mrt":"","open_time":"實際營業時間粉絲團不定時更新"},{"id":"426566b9-74de-48c1-ae92-e0f7594f17cf","name":"三奇壹號咖啡館","city":"keelung","wifi":5,"seat":4,"quiet":4,"tasty":5,"cheap":4,"music":5,"url":"https://www.facebook.com/senkicoffee/","address":"200基隆市愛二路54巷2號","latitude":"25.12897510","longitude":"121.74250040","limited_time":"no","socket":"maybe","standing_desk":"no","mrt":"","open_time":""},{"id":"50d32b2d-d5ef-4bb7-9238-d18134508d96","name":"熊豆咖啡","city":"keelung","wifi":5,"seat":4,"quiet":5,"tasty":5,"cheap":5,"music":4,"url":"https://www.facebook.com/%E7%86%8A%E8%B1%86%E5%92%96%E5%95%A1-527945280744393/","address":"基隆市中正區中正路579-1號","latitude":"25.15204280","longitude":"121.76991390","limited_time":"maybe","socket":"maybe","standing_desk":"yes","mrt":"","open_time":""},{"id":"5a13623e-b264-476a-9e3f-4e54cbe81420","name":"夏隆咖啡","city":"keelung","wifi":5,"seat":5,"quiet":5,"tasty":5,"cheap":0,"music":5,"url":"https://www.facebook.com/%E5%A4%8F%E9%9A%86%E5%92%96%E5%95%A1%E9%A4%A8-Shalom-Coffee-948211421873402/","address":" 基隆市信義區義六路38號","latitude":"25.13141050","longitude":"121.75175460","limited_time":"no","socket":"yes","standing_desk":"","mrt":"","open_time":""},{"id":"6596d0c0-5022-4986-ad29-9d0529c5b769","name":"COZY Beans Coffee 艾爾咖啡","city":"keelung","wifi":5,"seat":5,"quiet":4,"tasty":3,"cheap":4,"music":5,"url":"https://www.facebook.com/cozybeans66/","address":"基隆市七堵區百六街107巷7號","latitude":"25.08575430","longitude":"121.69712850","limited_time":"maybe","socket":"no","standing_desk":"yes","mrt":"","open_time":"偶爾公休"},{"id":"6a020200-595e-4bff-b151-a1da7f542535","name":"Yili Coffee House 一粒珈琲","city":"keelung","wifi":0,"seat":4,"quiet":3,"tasty":5,"cheap":4,"music":2,"url":"https://www.facebook.com/YiliCoffee/","address":"基隆市中正區北寧路242之6號","latitude":"25.14702050","longitude":"121.78317600","limited_time":"no","socket":"no","standing_desk":"no","mrt":"","open_time":""},{"id":"71e1fcd1-14dd-41d6-9ee4-2eeaa85433d5","name":"FLOW CAFE","city":"keelung","wifi":5,"seat":5,"quiet":4,"tasty":4,"cheap":4,"music":5,"url":"https://www.facebook.com/flowcafetw/","address":"東信路35巷4號1樓","latitude":"25.12716800","longitude":"121.76644820","limited_time":"maybe","socket":"no","standing_desk":"yes","mrt":"","open_time":"未註明店休日"},{"id":"77ef917b-544a-44f7-9bca-cd5d6b99d2ed","name":"Vita A Simple Cafe'","city":"keelung","wifi":0,"seat":0,"quiet":0,"tasty":0,"cheap":0,"music":0,"url":"https://www.facebook.com/Vitaasimple/","address":"基隆市信義區崇法街12號","latitude":"25.12841950","longitude":"121.76460880","limited_time":"no","socket":"yes","standing_desk":"yes","mrt":"","open_time":""},{"id":"7e107546-b695-4d01-976f-360a98016ce6","name":"Homerun Roasters","city":"keelung","wifi":5,"seat":4,"quiet":3,"tasty":4.5,"cheap":4.5,"music":4.5,"url":"https://www.google.com.tw/url?sa=t&rct=j&q=&esrc=s&source=web&cd=1&cad=rja&uact=8&ved=0ahUKEwi4rM768LvSAhVGKpQKHdwbCV4QFggaMAA&url=https%3A%2F%2Fzh-tw.facebook.com%2Fhomerunroasters%2F&usg=AFQjCNGMuBRmxswiWdcjVOAdSsbbyZuD1g&sig2=Gei5oWSaVHTy8cjb3aNIaQ","address":"200基隆市仁愛區仁二路82號","latitude":"25.12779000","longitude":"121.74846700","limited_time":"no","socket":"maybe","standing_desk":"yes","mrt":"","open_time":"10:00 ~ 21:00"},{"id":"84f5b4fb-cede-443a-80e1-c7db962ec859","name":"LOKA CAFE","city":"keelung","wifi":5,"seat":4,"quiet":5,"tasty":5,"cheap":4,"music":0,"url":"https://www.facebook.com/KEELUNGLOKACAFE/?fref=ts","address":"202基隆市中正區中正路28號","latitude":"25.13293100","longitude":"121.74475970","limited_time":"no","socket":"maybe","standing_desk":"no","mrt":"","open_time":""},{"id":"950b2e4c-e1df-443e-8d29-2c002eb53f23","name":"魚咖啡","city":"keelung","wifi":5,"seat":5,"quiet":5,"tasty":5,"cheap":0,"music":5,"url":"https://www.facebook.com/2018YuCoffee/?eid=ARBOe_X1ctejlzjOpmhBLcAuCrtFjyw1_wDiRxwan4GNyMJFDt7Rk6z8bMqltVpIY8WC-aaLyvJnXMaz&fref=tag","address":"基隆市中山區中和路168巷11弄22號","latitude":"25.15054360","longitude":"121.71511100","limited_time":"no","socket":"maybe","standing_desk":"no","mrt":"","open_time":""},{"id":"97c3536c-36f5-47b1-8647-c09a20f56b9f","name":"丸角@自轉生活.咖啡 ","city":"keelung","wifi":4,"seat":4,"quiet":4,"tasty":5,"cheap":4,"music":5,"url":"https://www.facebook.com/Cafe.de.MaruCorner/","address":"基隆市孝二路28號","latitude":"25.12854790","longitude":"121.73962830","limited_time":"","socket":"maybe","standing_desk":"no","mrt":"","open_time":"12:00-22:00"},{"id":"a41a4ada-861e-4452-a515-739bde4fa54b","name":"貓町咖啡","city":"keelung","wifi":0,"seat":4,"quiet":5,"tasty":4,"cheap":5,"music":3,"url":"https://www.facebook.com/cattowncoffee/","address":"200基隆市仁愛區愛二路54巷12號","latitude":"25.12789870","longitude":"121.74165120","limited_time":"no","socket":"no","standing_desk":"no","mrt":"","open_time":""},{"id":"b754bbd8-4a67-4681-b410-8848a791a576","name":"S&D咖啡基隆忠三門市","city":"keelung","wifi":0,"seat":0,"quiet":0,"tasty":0,"cheap":0,"music":0,"url":"https://www.facebook.com/pg/SD0224253301/about/?ref=page_internal","address":"基隆市仁愛區忠三路50號","latitude":"25.12958420","longitude":"121.73908430","limited_time":"no","socket":"no","standing_desk":"yes","mrt":"","open_time":"24小時"},{"id":"bb04b1a8-6a8d-4edc-a930-cf5d2e72d7ef","name":"幸福滿咖啡館","city":"keelung","wifi":5,"seat":4,"quiet":4,"tasty":5,"cheap":5,"music":4,"url":"https://www.facebook.com/pg/HappinessCafeCafe/about/?ref=page_internal","address":"基隆市暖暖區源遠路251-1號","latitude":"25.09886530","longitude":"121.75485140","limited_time":"no","socket":"yes","standing_desk":"yes","mrt":"","open_time":"無固定休息日，會在粉絲專頁發布"},{"id":"cf758030-48f6-42cf-8bfa-f95fc4ec33b5","name":"夏隆咖啡 Shalom Cafe","city":"keelung","wifi":0,"seat":0,"quiet":0,"tasty":0,"cheap":0,"music":0,"url":"","address":"基隆市信義區義六路38號","latitude":"25.13165550","longitude":"121.75157340","limited_time":"","socket":"","standing_desk":"","mrt":"","open_time":""},{"id":"d85a413f-74e5-450f-902e-3f77e9c94210","name":"Eddie's cafe Et Tiramisu","city":"keelung","wifi":5,"seat":4.5,"quiet":4.5,"tasty":5,"cheap":4.5,"music":4.5,"url":"https://www.facebook.com/Eddiescafetiramisu/?fref=ts","address":"基隆市仁愛區華四街25號","latitude":"25.12604670","longitude":"121.73606180","limited_time":"no","socket":"maybe","standing_desk":"no","mrt":"","open_time":""},{"id":"eed11edd-6d6a-4339-8b23-e81bff75bada","name":"行者咖啡館","city":"keelung","wifi":0,"seat":0,"quiet":0,"tasty":0,"cheap":0,"music":0,"url":"","address":"基隆市仁愛區愛二路45號3樓","latitude":"25.12922730","longitude":"121.74214960","limited_time":"","socket":"","standing_desk":"","mrt":"","open_time":""}]