[{"id":"0bd1257d-7492-4eb9-a810-e01dfbd81b46","name":"MOST木思埔里店","city":"nantou","wifi":5,"seat":5,"quiet":1,"tasty":4,"cheap":5,"music":3,"url":"https://www.facebook.com/MOSTPULI/","address":"南投縣埔里鎮民有三街11號","latitude":"23.95704560","longitude":"120.97136610","limited_time":"no","socket":"yes","standing_desk":"no","mrt":"","open_time":""},{"id":"16ead8f6-c91c-4d23-b6b4-1d5e342e3479","name":"映古子咖啡","city":"nantou","wifi":5,"seat":4,"quiet":5,"tasty":5,"cheap":5,"music":5,"url":"","address":"542南投縣草屯鎮育才巷54號","latitude":"23.97357420","longitude":"120.68281350","limited_time":"no","socket":"maybe","standing_desk":"","mrt":"","open_time":""},{"id":"1cd29358-ad4e-4886-8230-ff38223bf5e3","name":"老故事 The Goose","city":"nantou","wifi":5,"seat":5,"quiet":5,"tasty":4,"cheap":4,"music":5,"url":"https://www.facebook.com/pulithegoose/","address":"南投縣埔里鎮中山路二段436號","latitude":"23.96453400","longitude":"120.96514000","limited_time":"maybe","socket":"maybe","standing_desk":"no","mrt":"","open_time":""},{"id":"30510cf4-c886-48ad-b2ae-f0e8ab84bc43","name":"河松咖啡","city":"nantou","wifi":5,"seat":5,"quiet":5,"tasty":5,"cheap":5,"music":5,"url":"https://www.facebook.com/riverpinecoffee/?fref=ts","address":"南投縣南投市祖祠路142巷17號","latitude":"23.90911840","longitude":"120.69011520","limited_time":"no","socket":"maybe","standing_desk":"no","mrt":"","open_time":"12:00~19:30"},{"id":"31c7216d-803f-4921-9490-e460a54c103c","name":"拾悅咖啡•Take Fun","city":"nantou","wifi":0,"seat":5,"quiet":5,"tasty":5,"cheap":5,"music":5,"url":"","address":"南投市營北里營北路229號","latitude":"23.95022600","longitude":"120.68603600","limited_time":"no","socket":"maybe","standing_desk":"no","mrt":"","open_time":""},{"id":"338b77a0-e5f4-418c-93f9-2bc0ea1e1245","name":"南投稅務出張所","city":"nantou","wifi":0,"seat":5,"quiet":4,"tasty":4,"cheap":3,"music":3,"url":"","address":"南投市康壽里中山街260號","latitude":"23.91109800","longitude":"120.68461500","limited_time":"","socket":"","standing_desk":"","mrt":"","open_time":""},{"id":"42126cf9-b055-43ed-861a-66c0843bb346","name":"家綻咖啡&紅茶（大山水晶）","city":"nantou","wifi":0,"seat":0,"quiet":0,"tasty":0,"cheap":0,"music":0,"url":"","address":"555南投縣魚池鄉瓊文巷39-33號","latitude":"23.90408830","longitude":"120.93521790","limited_time":"","socket":"","standing_desk":"","mrt":"","open_time":""},{"id":"6464bac2-b96a-4d5e-83af-1266a4dbd28a","name":"木莫-caf'e丶皮革丶雜貨","city":"nantou","wifi":0,"seat":4,"quiet":4,"tasty":5,"cheap":5,"music":5,"url":"https://www.facebook.com/mocafeleather/","address":"南投縣南投市三和一路22之2號","latitude":"23.90292390","longitude":"120.68889460","limited_time":"","socket":"no","standing_desk":"no","mrt":"","open_time":""},{"id":"651b29e9-0428-4d3e-910e-0d0773b51813","name":"Starbucks星巴克 草屯門市","city":"nantou","wifi":0,"seat":5,"quiet":3,"tasty":1,"cheap":2,"music":2,"url":"","address":"南投縣草屯鎮中正路857-1號","latitude":"23.98367050","longitude":"120.68561590","limited_time":"no","socket":"maybe","standing_desk":"","mrt":"","open_time":""},{"id":"69d5274d-3e5b-46ec-b7d6-8158dab4a4af","name":"92向陽高山咖啡","city":"nantou","wifi":0,"seat":0,"quiet":0,"tasty":0,"cheap":0,"music":0,"url":"","address":"544南投縣國姓鄉中正路一段206之5號","latitude":"24.00898570","longitude":"120.81825710","limited_time":"","socket":"","standing_desk":"","mrt":"","open_time":""},{"id":"6dd89433-bac7-4a8f-a9f8-7b356d975e83","name":"鐵棟創藝 T-Dung Cafe","city":"nantou","wifi":0,"seat":0,"quiet":0,"tasty":0,"cheap":0,"music":0,"url":"https://www.facebook.com/TDungCafe99/","address":"南投市 草屯鎮平林里健行路150巷21號","latitude":"23.99279700","longitude":"120.76658460","limited_time":"","socket":"maybe","standing_desk":"no","mrt":"","open_time":""},{"id":"7c718e34-5c3d-4b78-9c28-db199cd6f6fd","name":"272巷弄咖啡","city":"nantou","wifi":5,"seat":3,"quiet":3,"tasty":5,"cheap":4,"music":4,"url":"272巷弄咖啡","address":"南投縣埔里鎮中山路二段272巷9-1號","latitude":"23.96640370","longitude":"120.96840580","limited_time":"maybe","socket":"maybe","standing_desk":"no","mrt":"","open_time":""},{"id":"84f42b67-aaff-4598-882c-7423f02c297b","name":"甜客思","city":"nantou","wifi":5,"seat":4,"quiet":3,"tasty":4,"cheap":5,"music":4,"url":"https://www.facebook.com/%E7%94%9C%E5%AE%A2%E6%80%9D-Thanks-731322017002114/?fref=ts","address":"南投縣草屯鎮虎山路851號","latitude":"23.97704400","longitude":"120.68563000","limited_time":"no","socket":"yes","standing_desk":"no","mrt":"","open_time":"12:00~21:00 每周一公休"},{"id":"867da681-362b-4abb-9359-43abe047fda6","name":"e92 依舊愛咖啡","city":"nantou","wifi":0,"seat":4,"quiet":4.5,"tasty":5,"cheap":5,"music":4.5,"url":"https://m.facebook.com/e92coffee","address":"54260南投縣草屯鎮中興路222號","latitude":"23.97383110","longitude":"120.68641370","limited_time":"no","socket":"","standing_desk":"no","mrt":"","open_time":""},{"id":"8eb26039-4cdc-4148-9fe3-49ad1ba9d096","name":"麥子鄉村咖啡屋 My Coffee","city":"nantou","wifi":0,"seat":5,"quiet":4,"tasty":5,"cheap":4,"music":4,"url":"https://www.facebook.com/pages/category/Cafe/%E9%BA%A5%E5%AD%90%E9%84%89%E6%9D%91%E5%92%96%E5%95%A1%E5%B1%8B-My-Coffee-346908279117377/","address":"南投縣草屯鎮信義街25號","latitude":"23.97904300","longitude":"120.67590650","limited_time":"no","socket":"maybe","standing_desk":"no","mrt":"","open_time":""},{"id":"944319db-013a-43e5-a341-3172e22bbf85","name":"Coffee Reflections OLD 工作室","city":"nantou","wifi":0,"seat":5,"quiet":5,"tasty":5,"cheap":4.5,"music":4,"url":"","address":"545南投縣埔里鎮中山路二段60巷2號","latitude":"23.97054520","longitude":"120.97482630","limited_time":"yes","socket":"no","standing_desk":"yes","mrt":"","open_time":"預約制"},{"id":"99ed2648-2078-4d50-a8cd-32842fa5febb","name":"山豬衝吧coffee","city":"nantou","wifi":5,"seat":5,"quiet":5,"tasty":5,"cheap":5,"music":5,"url":"www.coffeeshen.com","address":"南投縣魚池鄉永川巷12-8號","latitude":"23.88267100","longitude":"120.94364400","limited_time":"no","socket":"yes","standing_desk":"yes","mrt":"","open_time":""},{"id":"ad1c2314-703c-44d0-b1be-47d4117cad38","name":"Desolatecoffee 蠻荒咖啡","city":"nantou","wifi":0,"seat":0,"quiet":0,"tasty":0,"cheap":0,"music":0,"url":"","address":"南投縣魚池鄉文化巷41號","latitude":"23.88540510","longitude":"120.92080830","limited_time":"","socket":"","standing_desk":"","mrt":"","open_time":""},{"id":"b55ed43b-9f1d-43e9-aba7-f7f06b43cfd0","name":"JULU Coffee 鉅鹿莊園","city":"nantou","wifi":3,"seat":5,"quiet":5,"tasty":5,"cheap":5,"music":5,"url":"https://www.facebook.com/julucafe/","address":"南投縣埔里鎮東榮路155號","latitude":"23.96466900","longitude":"120.96858900","limited_time":"no","socket":"maybe","standing_desk":"no","mrt":"","open_time":"臉書或是社群平台公告店休時間"},{"id":"b6bcc811-adc3-445e-83dc-87eb6ed172ec","name":"攝香咖啡館","city":"nantou","wifi":5,"seat":5,"quiet":4,"tasty":5,"cheap":5,"music":5,"url":"https://www.facebook.com/SheXiangCafe/","address":"南投縣草屯鎮文化街68巷11號","latitude":"23.98353900","longitude":"120.68452600","limited_time":"no","socket":"yes","standing_desk":"no","mrt":"","open_time":"10:00-21:30"},{"id":"b745a725-b63e-4daa-a368-aa810da3f560","name":"光影正好LStudio","city":"nantou","wifi":0,"seat":0,"quiet":0,"tasty":0,"cheap":0,"music":0,"url":"","address":"南投縣草屯鎮南埔里中正路247號","latitude":"23.97882100","longitude":"120.71845460","limited_time":"","socket":"","standing_desk":"","mrt":"","open_time":""},{"id":"c32de2d4-764d-49ae-a0eb-ade5258e6bfc","name":"督賀咖啡","city":"nantou","wifi":0,"seat":0,"quiet":0,"tasty":0,"cheap":0,"music":0,"url":"https://www.facebook.com/DOHOCAFE/?__tn__=%2Cd%2CP-R&eid=ARAatq2tvEje9h_IPK_9XbhDnjWpAYPuxLwsJmMh9YTTTRu7imTgXMyUwvwGQ9SlLFKrfG9kbE2E0i0c","address":"南投縣草屯鎮墩煌路三段168號","latitude":"23.99819740","longitude":"120.66445210","limited_time":"no","socket":"yes","standing_desk":"no","mrt":"","open_time":""},{"id":"dc2f46a9-cbbe-4455-947d-d691c186ff18","name":"Next Door Cafe 隔壁咖啡","city":"nantou","wifi":0,"seat":0,"quiet":0,"tasty":0,"cheap":0,"music":0,"url":"","address":"南投縣草屯鎮明賢街一段15號","latitude":"23.97531970","longitude":"120.68657250","limited_time":"maybe","socket":"yes","standing_desk":"no","mrt":"","open_time":""},{"id":"dfbe73bc-9dff-4dbb-b972-398d3f8b02f7","name":"不靠海工作室","city":"nantou","wifi":5,"seat":5,"quiet":5,"tasty":5,"cheap":5,"music":5,"url":"https://www.facebook.com/BSMochi/","address":"南投縣埔里鎮育樂路8號","latitude":"23.96625060","longitude":"120.96244870","limited_time":"maybe","socket":"","standing_desk":"no","mrt":"","open_time":""},{"id":"ee409c3c-9b02-4d88-b9f0-964dfe4d7fb7","name":"Butterfly Café花蝴蝶咖啡館","city":"nantou","wifi":5,"seat":5,"quiet":5,"tasty":5,"cheap":4,"music":4,"url":"https://www.facebook.com/butterflycafeco/","address":"埔里鎮民生路7號","latitude":"23.96299500","longitude":"120.96472830","limited_time":"maybe","socket":"maybe","standing_desk":"no","mrt":"","open_time":""},{"id":"efb91548-fc1a-46f8-8f37-352632784c38","name":"大利大古米","city":"nantou","wifi":0,"seat":5,"quiet":4,"tasty":5,"cheap":4,"music":4,"url":"https://www.facebook.com/talitha110/","address":"南投縣南投市集賢路58號","latitude":"23.90484100","longitude":"120.68387150","limited_time":"","socket":"","standing_desk":"","mrt":"","open_time":""},{"id":"f4553945-3e55-492e-bec3-d8ae5c7e13a9","name":"時習之商行 Readers Station","city":"nantou","wifi":0,"seat":5,"quiet":5,"tasty":5,"cheap":5,"music":5,"url":"https://www.facebook.com/readerstation/?rf=1152258658169441","address":"草屯鎮富林路二段88號","latitude":"23.96850770","longitude":"120.68493850","limited_time":"no","socket":"maybe","standing_desk":"no","mrt":"","open_time":""},{"id":"f6b1b6e1-228e-4a94-b31c-daf3bc547761","name":"60#CAFE","city":"nantou","wifi":0,"seat":0,"quiet":0,"tasty":0,"cheap":0,"music":0,"url":"https://www.facebook.com/60coffee","address":"南投縣草屯鎮敦和路自立巷60號","latitude":"23.98333410","longitude":"120.67241050","limited_time":"","socket":"","standing_desk":"","mrt":"","open_time":""},{"id":"fb6f4511-bc6c-4ec8-88c5-9eb65bca0992","name":"Feeling18.18度C巧克力工房","city":"nantou","wifi":0,"seat":0,"quiet":0,"tasty":4,"cheap":2,"music":0,"url":"http://www.feeling18c.com","address":"南投縣埔里鎮慈恩街20號","latitude":"23.95736660","longitude":"120.97485150","limited_time":"","socket":"","standing_desk":"","mrt":"","open_time":"平日10:00~19:00  假日10:00~20:00"}]