[{"id":"0795799e-e6e2-45a7-a472-20cb86c063d3","name":"吹吹風精品咖啡館","city":"penghu","wifi":5,"seat":5,"quiet":5,"tasty":5,"cheap":3,"music":4,"url":"https://www.facebook.com/Islandbreezecoffee/","address":"澎湖縣馬公市中興里民生路52號","latitude":"23.56765050","longitude":"119.56552100","limited_time":"no","socket":"yes","standing_desk":"yes","mrt":"","open_time":"9:00 - 23:00"},{"id":"24ee1f38-f52a-4824-a2c0-c665d6da97c7","name":"夏至23.5攝影文創咖啡","city":"penghu","wifi":5,"seat":4,"quiet":5,"tasty":5,"cheap":4,"music":5,"url":"https://www.facebook.com/sia.zhi.235/","address":"澎湖縣馬公市惠民路71號","latitude":"23.56487530","longitude":"119.56449550","limited_time":"maybe","socket":"maybe","standing_desk":"no","mrt":"","open_time":"11:00－22:00"},{"id":"39a8dbcc-232b-4398-9341-ca040c9a0ebd","name":"及林春Gilly primavera","city":"penghu","wifi":4.5,"seat":4.5,"quiet":4,"tasty":5,"cheap":3.5,"music":4.5,"url":"https://www.facebook.com/LinTouCoffee","address":"澎湖縣湖西鄉林投村1-3號","latitude":"23.55929980","longitude":"119.64263170","limited_time":"","socket":"","standing_desk":"","mrt":"","open_time":""},{"id":"58e25f17-7381-4e7b-af54-8615892a03b8","name":"草根果子","city":"penghu","wifi":5,"seat":5,"quiet":5,"tasty":5,"cheap":5,"music":5,"url":"https://www.facebook.com/chickendaddygoodeat/?eid=ARBqsKRSpCGxhr0mO7kpN13edB2uGhLVo-fVxiEkGJg1mOMiUd2h5dG5IkvCk9SgfQJ5Yo_JIJTEun4r","address":"澎湖縣馬公市樹德路1號","latitude":"23.56847800","longitude":"119.56944800","limited_time":"no","socket":"maybe","standing_desk":"no","mrt":"","open_time":"來店前建議先看粉絲專頁是否有發公告店休或營業時間更動"},{"id":"6fa04ec6-12be-4ce6-b0b2-e11fa5a87804","name":"肯塔咖啡","city":"penghu","wifi":0,"seat":5,"quiet":5,"tasty":5,"cheap":4.5,"music":5,"url":"https://www.facebook.com/kaffeekatate/","address":"880, Penghu County, Magong City, Zhongzheng Road, 7號, 5 巷","latitude":"23.56394350","longitude":"119.56507060","limited_time":"no","socket":"no","standing_desk":"no","mrt":"","open_time":""},{"id":"876353c3-56c6-48b0-a973-8c6b84fb3eb5","name":"880咖啡外帶吧","city":"penghu","wifi":4,"seat":3,"quiet":4,"tasty":5,"cheap":5,"music":5,"url":"https://www.facebook.com/880cafe","address":"澎湖縣馬公市樹德路21號","latitude":"23.56880670","longitude":"119.56801220","limited_time":"no","socket":"no","standing_desk":"","mrt":"","open_time":"8:00 - 18:00"},{"id":"b1ad4b13-3c2e-4f37-9dd3-380971da4025","name":"狐獴咖啡館","city":"penghu","wifi":5,"seat":5,"quiet":5,"tasty":5,"cheap":5,"music":5,"url":"https://www.facebook.com/meerkatcaffee/","address":"880澎湖縣馬公市三多路36-1號","latitude":"23.57436810","longitude":"119.57949240","limited_time":"no","socket":"maybe","standing_desk":"no","mrt":"","open_time":""},{"id":"bc0b5848-5ae3-4964-83c9-2869bea81c0e","name":"吹吹風精品咖啡館-碼頭店","city":"penghu","wifi":5,"seat":5,"quiet":3,"tasty":5,"cheap":3,"music":5,"url":"https://www.facebook.com/BartistaXBistro/?ref=bookmarks","address":"澎湖縣馬公市啟明里海安街一號2F","latitude":"23.56229100","longitude":"119.56827790","limited_time":"maybe","socket":"maybe","standing_desk":"yes","mrt":"","open_time":""},{"id":"bd0f16f4-2e11-4d07-9c8f-6bc1e625aa64","name":"莎莎咖啡","city":"penghu","wifi":0,"seat":5,"quiet":5,"tasty":5,"cheap":5,"music":5,"url":"臉書搜尋莎莎咖啡","address":"澎湖縣馬公市樹德路20號","latitude":"23.56890980","longitude":"119.56800070","limited_time":"no","socket":"no","standing_desk":"yes","mrt":"","open_time":""},{"id":"c1c53cce-20cb-4d40-89f1-6186c26c483c","name":"巴里園","city":"penghu","wifi":0,"seat":5,"quiet":3,"tasty":5,"cheap":0,"music":5,"url":"https://www.facebook.com/1957paris","address":"澎湖縣馬公市民權路61號","latitude":"23.56539490","longitude":"119.56751310","limited_time":"no","socket":"","standing_desk":"no","mrt":"","open_time":"10:00 - 18:00"},{"id":"d8f12f84-0248-415e-a89b-845d6114154c","name":"蒙地卡羅","city":"penghu","wifi":5,"seat":5,"quiet":5,"tasty":4,"cheap":3,"music":5,"url":"https://www.facebook.com/蒙地卡羅-182411098468160","address":"澎湖縣馬公市民生路17-4號","latitude":"23.56745600","longitude":"119.56771770","limited_time":"no","socket":"","standing_desk":"","mrt":"","open_time":"10:00 - 23:30"},{"id":"ddff5488-1e74-4e94-aea2-421e251e1b63","name":"澎湖伊索拉咖啡館","city":"penghu","wifi":0,"seat":4,"quiet":4,"tasty":5,"cheap":5,"music":5,"url":"https://www.facebook.com/澎湖伊索拉咖啡館-Isola-Coffee-265441930281375","address":"澎湖縣馬公市中興路2號","latitude":"23.56646770","longitude":"119.56839580","limited_time":"no","socket":"","standing_desk":"","mrt":"","open_time":"11:00 - 0:00"}]