[{"id":"009c4e03-2bd9-409c-add0-545ce8e744a4","name":"轉角98","city":"pingtung","wifi":5,"seat":4,"quiet":3,"tasty":3,"cheap":4,"music":5,"url":"https://www.facebook.com/Corner98/","address":"946屏東縣恆春鎮恆南路98號","latitude":"21.99616350","longitude":"120.74553290","limited_time":"no","socket":"no","standing_desk":"no","mrt":"","open_time":""},{"id":"0540000d-6cdb-4cd9-8d8c-f4b640cd7289","name":"Jazekes Coffee 賈茲格斯精品咖啡館","city":"pingtung","wifi":4,"seat":4,"quiet":4,"tasty":5,"cheap":4,"music":4,"url":"https://www.facebook.com/JazekesCoffee/","address":"屏東縣潮州鎮愛國路100巷33號","latitude":"22.55111330","longitude":"120.54702400","limited_time":"no","socket":"no","standing_desk":"no","mrt":"","open_time":"偶爾營業時間更改，須注意粉專訊息"},{"id":"085451d3-bc9f-4a7a-97c2-d9fc00cb6e45","name":"歐客佬精品咖啡OKLAO屏東店","city":"pingtung","wifi":0,"seat":0,"quiet":0,"tasty":0,"cheap":0,"music":0,"url":"https://www.facebook.com/pg/oklaopt087331190/posts/?ref=page_internal","address":"屏東縣屏東市永福路3號1樓","latitude":"22.67130700","longitude":"120.48689400","limited_time":"no","socket":"yes","standing_desk":"yes","mrt":"","open_time":""},{"id":"0b3abeaa-384d-4c6f-a5c0-f8864afeda51","name":"火車站前 - 金礦","city":"pingtung","wifi":5,"seat":5,"quiet":3,"tasty":4,"cheap":0,"music":0,"url":"","address":"900屏東縣屏東市中山路11號","latitude":"22.67018600","longitude":"120.48606600","limited_time":"","socket":"","standing_desk":"","mrt":"","open_time":"已結束營業"},{"id":"0df9ac13-9457-41d7-b147-723213e8d879","name":"Bonbon Cafe","city":"pingtung","wifi":5,"seat":4.5,"quiet":4,"tasty":4.5,"cheap":4.5,"music":4,"url":"https://www.facebook.com/bonboncafebakery/","address":"屏東縣屏東市建豐路253巷15號","latitude":"22.67599900","longitude":"120.50322300","limited_time":"maybe","socket":"no","standing_desk":"no","mrt":"","open_time":""},{"id":"17ac52c7-b02b-43a3-aeb3-f13829a9520a","name":"傑利咖啡烘焙","city":"pingtung","wifi":0,"seat":0,"quiet":0,"tasty":0,"cheap":0,"music":0,"url":"","address":"屏東縣屏東市豐榮街135號","latitude":"22.68020040","longitude":"120.50261950","limited_time":"","socket":"","standing_desk":"","mrt":"","open_time":""},{"id":"18ec2c4d-c57e-4046-b46d-37befd7ec5ef","name":"何緩","city":"pingtung","wifi":4.5,"seat":5,"quiet":5,"tasty":5,"cheap":4,"music":5,"url":"https://www.facebook.com/hcl641019/","address":"屏東縣屏東市公勤街138號","latitude":"22.68401180","longitude":"120.49535650","limited_time":"no","socket":"no","standing_desk":"no","mrt":"","open_time":""},{"id":"1fd67502-e133-4f0d-97ef-28dbdc7e4538","name":"多一點咖啡","city":"pingtung","wifi":0,"seat":3,"quiet":0,"tasty":0,"cheap":3,"music":0,"url":"https://www.facebook.com/more9395/","address":"屏東縣屏東市民權路93-95號","latitude":"22.67359500","longitude":"120.49223900","limited_time":"maybe","socket":"no","standing_desk":"no","mrt":"","open_time":""},{"id":"2a320940-6d6c-4792-b7eb-006424436732","name":"恆春信用組合 credit union base","city":"pingtung","wifi":0,"seat":0,"quiet":0,"tasty":0,"cheap":0,"music":0,"url":"https://www.facebook.com/Cafe1918/","address":"屏東縣恆春鎮文化路155號","latitude":"22.00146170","longitude":"120.74460520","limited_time":"","socket":"","standing_desk":"","mrt":"","open_time":""},{"id":"33fd06ca-be7f-46e3-837c-ccfd9042be72","name":"大和頓物所","city":"pingtung","wifi":4,"seat":4,"quiet":3,"tasty":4.5,"cheap":4,"music":5,"url":"https://www.facebook.com/coffeebeanstock/","address":"屏東縣竹田鄉履豐村1鄰豐明路26號","latitude":"22.58647750","longitude":"120.54076710","limited_time":"","socket":"yes","standing_desk":"no","mrt":"","open_time":""},{"id":"38f72ad1-b9e1-462d-88b1-a0463e03e8c0","name":"阿傑咖啡與茶","city":"pingtung","wifi":1,"seat":5,"quiet":3,"tasty":5,"cheap":5,"music":5,"url":"https://www.facebook.com/Acorn-cofe-%E6%A9%A1%E8%8F%93%E5%92%96%E5%95%A1-213675075696769/","address":"屏東縣長治鄉繁華村水源路111-1","latitude":"22.70201890","longitude":"120.57275140","limited_time":"no","socket":"no","standing_desk":"no","mrt":"","open_time":"下午2點至晚上6點"},{"id":"397b9b21-67b0-409d-bce6-906d1ed9b7a1","name":"讀者城市","city":"pingtung","wifi":5,"seat":5,"quiet":5,"tasty":3,"cheap":5,"music":4,"url":"http://www.city-reader.com.tw/","address":"900屏東縣屏東市民生路4-17號","latitude":"22.66376070","longitude":"120.50583010","limited_time":"no","socket":"maybe","standing_desk":"yes","mrt":"","open_time":""},{"id":"39ec33a9-2fc1-4c53-9a7c-7840b77e480c","name":"厚厚一片-東港旗艦店","city":"pingtung","wifi":0,"seat":5,"quiet":4,"tasty":4,"cheap":5,"music":4,"url":"","address":"928屏東縣東港鎮明德路90號","latitude":"22.47102750","longitude":"120.45674780","limited_time":"no","socket":"maybe","standing_desk":"no","mrt":"","open_time":""},{"id":"3ebcc382-c8e7-4662-917d-3efa90d33e9e","name":"卡彿魯岸咖啡瑞民店","city":"pingtung","wifi":5,"seat":5,"quiet":3,"tasty":4.5,"cheap":2.5,"music":3.5,"url":"https://www.kavulungan.com.tw/","address":"屏東市瑞民路8號","latitude":"22.66344800","longitude":"120.50667000","limited_time":"no","socket":"maybe","standing_desk":"yes","mrt":"","open_time":""},{"id":"421cf23b-0b21-4c30-b5ed-92178f21a097","name":"偷咖啡","city":"pingtung","wifi":5,"seat":5,"quiet":3,"tasty":4,"cheap":5,"music":3,"url":"","address":"屏東縣屏東市福建路124號","latitude":"22.67288750","longitude":"120.48957390","limited_time":"no","socket":"maybe","standing_desk":"yes","mrt":"","open_time":""},{"id":"424e489b-77d4-49f4-b20e-6aa4a45c5ec9","name":"宅貓咖啡","city":"pingtung","wifi":5,"seat":5,"quiet":5,"tasty":5,"cheap":5,"music":5,"url":"https://www.facebook.com/Coffee.house.cat/","address":"屏東縣屏東市民享路56號","latitude":"22.67282250","longitude":"120.49879290","limited_time":"maybe","socket":"maybe","standing_desk":"no","mrt":"","open_time":""},{"id":"49e55c60-3beb-4b36-a6ea-886f0905b220","name":"Eske Place Coffee House","city":"pingtung","wifi":5,"seat":3,"quiet":3,"tasty":5,"cheap":3,"music":4,"url":"https://www.facebook.com/eskeplace","address":"屏東縣屏東市民享路142號","latitude":"22.67506610","longitude":"120.49943850","limited_time":"no","socket":"no","standing_desk":"no","mrt":"","open_time":""},{"id":"4fe0da0f-fd90-4c17-83ae-2806d6daff28","name":"怡然如風驛站","city":"pingtung","wifi":5,"seat":5,"quiet":4,"tasty":4,"cheap":5,"music":3,"url":"https://www.facebook.com/ezanbikestation/","address":"屏東市瑞光路一段78號","latitude":"22.66054200","longitude":"120.51543900","limited_time":"no","socket":"no","standing_desk":"","mrt":"","open_time":"休週一"},{"id":"52f216b7-85c3-43ff-b1ff-74addb85c93d","name":"奇茂園-木鋤造樸咖啡餐廳","city":"pingtung","wifi":0,"seat":0,"quiet":0,"tasty":0,"cheap":0,"music":0,"url":"","address":"屏東縣枋寮鄉中正大路791號","latitude":"22.37732320","longitude":"120.59842090","limited_time":"","socket":"","standing_desk":"","mrt":"","open_time":""},{"id":"544f2e43-01cd-42f6-bf4b-217284dde37d","name":"Antigua 安堤瓜咖啡","city":"pingtung","wifi":5,"seat":5,"quiet":4,"tasty":5,"cheap":4,"music":4,"url":"https://www.facebook.com/2000AntiguaCafe/","address":"屏東市民享一路174號","latitude":"22.67546900","longitude":"120.49848300","limited_time":"no","socket":"no","standing_desk":"no","mrt":"","open_time":"每月最後一個週日休"},{"id":"571906d0-174b-4a54-bcd9-66f40c4afcee","name":"Akau Coffee 猻物咖啡","city":"pingtung","wifi":4,"seat":5,"quiet":4,"tasty":5,"cheap":5,"music":5,"url":"https://www.facebook.com/akaucoffee/","address":"屏東市仁德路43巷6號 職人町Ｂ棟","latitude":"22.67265500","longitude":"120.49456700","limited_time":"no","socket":"yes","standing_desk":"yes","mrt":"","open_time":""},{"id":"5cf47b9f-f88d-478d-80e9-92a546bf96e3","name":"倆珈琲工作室","city":"pingtung","wifi":0,"seat":3,"quiet":3,"tasty":5,"cheap":5,"music":4,"url":"https://www.facebook.com/YuNMeCoffeeRoom/","address":"屏東縣屏東市中央市場第三商場20號","latitude":"99.99999999","longitude":"22.00000000","limited_time":"no","socket":"no","standing_desk":"no","mrt":"","open_time":"22°40'20.5\"N 120°29'24.9\"E"},{"id":"71808b06-1e7f-4e03-98f9-25af853738e0","name":"春若咖啡","city":"pingtung","wifi":5,"seat":4,"quiet":4,"tasty":5,"cheap":4,"music":4,"url":"https://www.facebook.com/chunjocoffee/","address":"屏東市天津街六號","latitude":"22.67689400","longitude":"120.48951180","limited_time":"no","socket":"maybe","standing_desk":"no","mrt":"","open_time":"0930~2130"},{"id":"7264414f-a7e2-417b-ac7f-455e980e2972","name":"好呦食趣","city":"pingtung","wifi":5,"seat":5,"quiet":0,"tasty":0,"cheap":0,"music":0,"url":"","address":"900屏東縣屏東市青島街33-6號","latitude":"22.67806900","longitude":"120.49006500","limited_time":"no","socket":"maybe","standing_desk":"yes","mrt":"","open_time":""},{"id":"75c23fe7-8ce1-408e-b190-6dbae3ffaa35","name":"達米安咖啡","city":"pingtung","wifi":5,"seat":5,"quiet":5,"tasty":5,"cheap":5,"music":4,"url":"https://www.facebook.com/%E9%81%94%E7%B1%B3%E5%AE%89%E5%92%96%E5%95%A1-183021468411339/","address":"屏東縣潮州鎮中山路東段33號","latitude":"22.55003900","longitude":"120.54816700","limited_time":"no","socket":"","standing_desk":"","mrt":"","open_time":"09:00~21:00"},{"id":"77060a29-49d6-475e-a7a7-ddd1796e9b3e","name":"雁行咖啡 Nomads Cafe","city":"pingtung","wifi":5,"seat":4,"quiet":5,"tasty":5,"cheap":5,"music":5,"url":"https://www.facebook.com/nomadsbearhome/","address":"屏東縣屏東市仁愛路77之17號","latitude":"22.67869870","longitude":"120.49483490","limited_time":"no","socket":"yes","standing_desk":"no","mrt":"","open_time":"不定期公休"},{"id":"7b2f0e7a-e138-47f7-b10f-9a04d4bd343a","name":"湯匙放口袋 Spoon in Pocket","city":"pingtung","wifi":0,"seat":4,"quiet":3,"tasty":3,"cheap":3,"music":4,"url":"https://www.facebook.com/spooninpocket/","address":"屏東縣恆春鎮中山路192號","latitude":"22.00505500","longitude":"120.74336830","limited_time":"","socket":"","standing_desk":"","mrt":"","open_time":""},{"id":"7f3e4ed1-b44f-40bd-967b-7cc14fb331c0","name":"肥春號 Fatchun cafe","city":"pingtung","wifi":5,"seat":5,"quiet":4,"tasty":5,"cheap":5,"music":5,"url":"https://m.facebook.com/FatchunCafe/","address":"屏東縣恆春鎮糠林南路15號","latitude":"21.98649080","longitude":"120.73261150","limited_time":"no","socket":"maybe","standing_desk":"yes","mrt":"","open_time":""},{"id":"81348d86-844b-47a2-b349-d492e56eee34","name":"放空-Arts‧Coffee‧Deli","city":"pingtung","wifi":4,"seat":4,"quiet":2,"tasty":4,"cheap":4,"music":4,"url":"https://www.facebook.com/FangKung/","address":"屏東縣屏東市仁德路12號","latitude":"22.67000800","longitude":"120.49401900","limited_time":"no","socket":"yes","standing_desk":"no","mrt":"","open_time":"以FB粉絲專業為主"},{"id":"82391aeb-70f3-4ce2-8436-b97a29c4fef7","name":"金派咖啡 Coffee","city":"pingtung","wifi":0,"seat":0,"quiet":0,"tasty":0,"cheap":0,"music":0,"url":"","address":"900屏東縣屏東市忠孝路146-1號","latitude":"22.68275060","longitude":"120.48956790","limited_time":"","socket":"","standing_desk":"","mrt":"","open_time":""},{"id":"833cddcb-c503-4c21-a87f-2c3be6902bb8","name":"半島咖啡 Fangliao Café","city":"pingtung","wifi":0,"seat":0,"quiet":0,"tasty":0,"cheap":0,"music":0,"url":"https://www.facebook.com/FANGLIAOCAFE/","address":"屏東縣枋寮鄉儲運路7號","latitude":"22.36619710","longitude":"120.59620600","limited_time":"","socket":"","standing_desk":"","mrt":"","open_time":""},{"id":"94ad8456-3e18-4dfd-8e0e-59dc1d9c31a3","name":"繫本屋","city":"pingtung","wifi":0,"seat":5,"quiet":4,"tasty":4,"cheap":5,"music":4,"url":"https://www.facebook.com/akauwbooks/","address":"900屏東縣屏東市青島街112號","latitude":"22.67859230","longitude":"120.48380710","limited_time":"no","socket":"no","standing_desk":"yes","mrt":"","open_time":""},{"id":"a61e2394-0955-4db0-bfb3-84614cd22f96","name":"Nearly Cafe","city":"pingtung","wifi":5,"seat":4,"quiet":4.5,"tasty":5,"cheap":5,"music":3,"url":"https://www.facebook.com/Nearly.cafe/","address":"屏東市自由路391號","latitude":"22.68113850","longitude":"120.49453740","limited_time":"yes","socket":"no","standing_desk":"yes","mrt":"","open_time":"11:00-18:00"},{"id":"afde690d-8fdb-4b0c-b967-8e24c75e38d0","name":"曾幸福咖啡","city":"pingtung","wifi":0,"seat":0,"quiet":0,"tasty":0,"cheap":0,"music":0,"url":"","address":"屏東縣長治鄉長興路519號","latitude":"22.68199940","longitude":"120.51114510","limited_time":"","socket":"","standing_desk":"","mrt":"","open_time":""},{"id":"b91de885-ddee-4e98-9b67-c16da918a7df","name":"小白咖啡店","city":"pingtung","wifi":0,"seat":0,"quiet":0,"tasty":0,"cheap":0,"music":0,"url":"","address":"屏東縣屏東市豐榮街209號旁邊空地","latitude":"22.68106700","longitude":"120.50430500","limited_time":"","socket":"","standing_desk":"","mrt":"","open_time":""},{"id":"be9d423f-ba23-4eaa-9f6e-0c9bd7c9bf54","name":"好日子 Good Day 渡假小餐館","city":"pingtung","wifi":0,"seat":0,"quiet":0,"tasty":0,"cheap":0,"music":0,"url":"https://www.facebook.com/haveagooddaykt/","address":"屏東縣恆春鎮西門路 13 號","latitude":"22.00607030","longitude":"120.74308720","limited_time":"","socket":"","standing_desk":"","mrt":"","open_time":""},{"id":"c265745d-5d26-40da-96f9-0334cd189f59","name":"149咖啡烘焙坊","city":"pingtung","wifi":0,"seat":4,"quiet":3,"tasty":5,"cheap":4,"music":3,"url":"","address":"900屏東縣屏東市屏東縣屏東市忠孝路149號","latitude":"22.67502680","longitude":"120.48697100","limited_time":"","socket":"","standing_desk":"","mrt":"","open_time":""},{"id":"c396c73b-e2cd-49ae-a10d-eaf0bab66678","name":"Lili 手作烘焙","city":"pingtung","wifi":5,"seat":5,"quiet":5,"tasty":5,"cheap":5,"music":4,"url":"https://www.facebook.com/lilicakehouse","address":"屏東縣屏東市空翔里永城16號","latitude":"22.68010000","longitude":"120.47970500","limited_time":"","socket":"","standing_desk":"","mrt":"","open_time":""},{"id":"ca4c15d8-8496-4771-ad76-96ed0fd5d006","name":"匠.kaffa精品咖啡工坊","city":"pingtung","wifi":4,"seat":3.5,"quiet":4,"tasty":3.5,"cheap":5,"music":3,"url":"https://m.facebook.com/Tk.kaffa/?locale2=zh_TW","address":"屏東市武林街42-1號","latitude":"22.66085400","longitude":"120.48064430","limited_time":"no","socket":"","standing_desk":"","mrt":"","open_time":""},{"id":"cb39b2a1-734a-49ea-b83d-303a61c7e12e","name":"在繁華阿嬤家 stayinfanhua","city":"pingtung","wifi":5,"seat":5,"quiet":5,"tasty":5,"cheap":5,"music":3,"url":"","address":"屏東縣長治鄉繁華村復華街600巷16號","latitude":"22.69958400","longitude":"120.57286130","limited_time":"maybe","socket":"yes","standing_desk":"no","mrt":"","open_time":"晚上會成為居酒屋"},{"id":"ce648140-dba1-4204-bfb4-8dff7a8de50f","name":"驛前大和旅社","city":"pingtung","wifi":0,"seat":4,"quiet":2,"tasty":3,"cheap":3,"music":3,"url":"","address":"屏東市民族路163-1號","latitude":"22.67013290","longitude":"120.48666400","limited_time":"","socket":"","standing_desk":"","mrt":"","open_time":""},{"id":"d1174c94-b519-4b1c-947f-dac0138c266f","name":"Paw Café","city":"pingtung","wifi":5,"seat":5,"quiet":5,"tasty":5,"cheap":5,"music":5,"url":"https://www.facebook.com/pawcafe.com.tw/","address":"屏東縣屏東市瑞民路22號","latitude":"22.66368390","longitude":"120.50690770","limited_time":"maybe","socket":"yes","standing_desk":"no","mrt":"","open_time":""},{"id":"d7ebffe8-2899-4660-930a-8d36c644710c","name":"ego coffee","city":"pingtung","wifi":0,"seat":5,"quiet":5,"tasty":5,"cheap":5,"music":5,"url":"https://www.facebook.com/egocoffee.tw","address":"屏東縣萬丹鄉萬丹路一段343號","latitude":"22.59133940","longitude":"120.48892060","limited_time":"no","socket":"yes","standing_desk":"no","mrt":"","open_time":""},{"id":"da5580d6-6ae0-4281-b993-f279fd386e97","name":"順順堂","city":"pingtung","wifi":5,"seat":4.5,"quiet":4,"tasty":4,"cheap":4,"music":5,"url":"https://www.facebook.com/%E9%A0%86%E9%A0%86%E5%A0%82-1557638557839663/","address":"屏東縣屏東市福建路53號","latitude":"22.67239190","longitude":"120.49081310","limited_time":"","socket":"","standing_desk":"","mrt":"","open_time":""},{"id":"e439f7b7-d2f2-43bf-8d0d-7e46fddfd92f","name":"協生咖啡 Recipe Coffee","city":"pingtung","wifi":0,"seat":0,"quiet":0,"tasty":0,"cheap":0,"music":0,"url":"https://www.facebook.com/recipecoffee/","address":"屏東市博愛路30號","latitude":"22.67200720","longitude":"120.48208680","limited_time":"maybe","socket":"no","standing_desk":"no","mrt":"","open_time":""},{"id":"e8a60dbe-8c39-4bfb-8a0b-3a0daa753bfc","name":"可可共和國","city":"pingtung","wifi":0,"seat":0,"quiet":0,"tasty":0,"cheap":0,"music":0,"url":"https://www.facebook.com/cocorepubliccafe","address":"屏東市廣東路1028號","latitude":"22.68756100","longitude":"120.48496930","limited_time":"","socket":"","standing_desk":"","mrt":"","open_time":"13:30 -22:00 星期四公休"},{"id":"eaf23f87-3fa0-486d-a145-4e0b1da75677","name":"癮空間","city":"pingtung","wifi":5,"seat":5,"quiet":5,"tasty":5,"cheap":5,"music":5,"url":"https://www.facebook.com/freeness1219/","address":"屏東縣恆春鎮省北路40巷121號","latitude":"22.00899900","longitude":"120.74792790","limited_time":"no","socket":"","standing_desk":"","mrt":"","open_time":""},{"id":"f349764b-6f74-4923-aff4-cc18f313462e","name":"江果咖啡 Jungle cafe","city":"pingtung","wifi":5,"seat":5,"quiet":5,"tasty":4,"cheap":5,"music":3,"url":"https://www.facebook.com/%E6%B1%9F%E6%9E%9C%E5%92%96%E5%95%A1-jungle-cafe-113357660217058","address":"900屏東縣屏東市成都街36號","latitude":"22.67492840","longitude":"120.48412510","limited_time":"no","socket":"no","standing_desk":"no","mrt":"","open_time":""},{"id":"fc4bbaec-1d82-4c46-9a5f-659de60b5edb","name":"日食糖224 sugarbistro224","city":"pingtung","wifi":0,"seat":0,"quiet":0,"tasty":0,"cheap":0,"music":0,"url":"https://www.facebook.com/sugar.bistro.22.24/","address":"屏東縣屏東市康定路22號","latitude":"22.67763590","longitude":"120.48341400","limited_time":"","socket":"","standing_desk":"","mrt":"","open_time":""},{"id":"fd54686a-563a-46fa-8029-2296040055a4","name":"飛夢林青年咖啡館","city":"pingtung","wifi":5,"seat":5,"quiet":4.5,"tasty":4.5,"cheap":4.5,"music":4,"url":"https://www.facebook.com/family087380518/","address":"屏東縣屏東市中華路80-2號","latitude":"22.67667820","longitude":"120.49170090","limited_time":"no","socket":"yes","standing_desk":"yes","mrt":"","open_time":""}]