[{"id":"013fea91-2d05-4e67-b961-ac9e0659ec08","name":"性格咖啡","city":"tainan","wifi":0,"seat":0,"quiet":0,"tasty":0,"cheap":0,"music":0,"url":"https://www.facebook.com/Singletoast/","address":"台南市北區成功路68巷4-5號","latitude":"22.99860820","longitude":"120.20679550","limited_time":"no","socket":"no","standing_desk":"no","mrt":"","open_time":""},{"id":"0226048a-f553-4689-a131-4f9caff1e34f","name":"192手工咖啡","city":"tainan","wifi":0,"seat":5,"quiet":5,"tasty":5,"cheap":5,"music":4,"url":"https://www.facebook.com/192coffee/","address":"台南市東區育樂街117巷13號","latitude":"22.99527100","longitude":"120.21504000","limited_time":"no","socket":"no","standing_desk":"","mrt":"","open_time":"不定時休(回診、進修)會在 FB粉 公佈"},{"id":"0299f482-86b6-47f9-a718-ef82cdb8434c","name":"緩緩咖啡","city":"tainan","wifi":5,"seat":5,"quiet":5,"tasty":5,"cheap":5,"music":5,"url":"https://www.facebook.com/easecoffee0205","address":"台南市東區東光路二段86號","latitude":"22.99732300","longitude":"120.23176000","limited_time":"no","socket":"yes","standing_desk":"no","mrt":"","open_time":""},{"id":"0393ba9b-553f-445f-aa9f-6cd197ee8ff1","name":"Panorama Caffe","city":"tainan","wifi":5,"seat":5,"quiet":4.5,"tasty":5,"cheap":5,"music":4.5,"url":"https://www.facebook.com/Panorama-Caffe-1800994453522595/","address":"704 台南市北區南園街2號","latitude":"23.00931100","longitude":"120.22350700","limited_time":"maybe","socket":"maybe","standing_desk":"no","mrt":"","open_time":""},{"id":"06867ea9-b509-43e9-8a51-defbef877721","name":"findcoffee 找咖啡","city":"tainan","wifi":0,"seat":0,"quiet":0,"tasty":0,"cheap":0,"music":0,"url":"https://www.facebook.com/findcoffee183/","address":"台南市佳里區平等街183號","latitude":"23.15668700","longitude":"120.17646500","limited_time":"no","socket":"maybe","standing_desk":"yes","mrt":"","open_time":"公休公告於FB粉專"},{"id":"073354ca-6914-4245-ae3c-d1231d62cfd1","name":"西門洋行","city":"tainan","wifi":5,"seat":5,"quiet":4,"tasty":4.5,"cheap":4,"music":5,"url":"https://www.facebook.com/simen.cafe/","address":"台南市西門路一段607號3F","latitude":"22.98525390","longitude":"120.19738330","limited_time":"no","socket":"yes","standing_desk":"no","mrt":"","open_time":"二公休，三~五10:30–20:00，六日10:30–20:00"},{"id":"0769bba0-7c81-48ca-bf37-da4daf056e1a","name":"湠咖啡","city":"tainan","wifi":5,"seat":5,"quiet":5,"tasty":4,"cheap":5,"music":5,"url":"https://www.facebook.com/thuanncoffee/","address":"台南市學甲區中正路225號","latitude":"23.23320170","longitude":"120.17998810","limited_time":"no","socket":"no","standing_desk":"","mrt":"","open_time":""},{"id":"086e90bb-5f6d-449d-9fa8-31726f60eb32","name":"頑童主義咖啡Stand-Up Shop","city":"tainan","wifi":0,"seat":0,"quiet":0,"tasty":0,"cheap":0,"music":0,"url":"","address":"70245台南市南區西門路一段269號","latitude":"22.97643520","longitude":"120.19742690","limited_time":"","socket":"","standing_desk":"","mrt":"","open_time":""},{"id":"0ace13d8-bb5a-485d-af29-d1d21a5918b4","name":"橋上看書(bRidge+)","city":"tainan","wifi":5,"seat":4.5,"quiet":4.5,"tasty":5,"cheap":4,"music":4.5,"url":"https://www.facebook.com/bridgeplus2012/","address":"台南市東區勝利路52巷13號","latitude":"22.99210110","longitude":"120.21848800","limited_time":"no","socket":"maybe","standing_desk":"no","mrt":"","open_time":"二-五 09:00 - 18:00 六日08:30 - 18:00 周一休"},{"id":"0acf29bc-46ff-4671-a370-710286b0101f","name":"黑羊咖啡","city":"tainan","wifi":4,"seat":4,"quiet":3,"tasty":4,"cheap":5,"music":3,"url":"https://www.facebook.com/%E9%BB%91%E7%BE%8A%E5%92%96%E5%95%A1-537527469747930/?fref=ts","address":"台南市永福路一段五號","latitude":"22.98177610","longitude":"120.19991140","limited_time":"","socket":"yes","standing_desk":"","mrt":"","open_time":"9:00-20:00"},{"id":"0b048887-f048-4fd6-a4f3-c0813aa71eb1","name":"FOR YOU espresso 為你·煮咖啡","city":"tainan","wifi":0,"seat":5,"quiet":5,"tasty":5,"cheap":5,"music":5,"url":"https://www.facebook.com/foryouespresso/","address":"701台南市東區長榮路三段66巷62-1號","latitude":"22.99351410","longitude":"120.22317210","limited_time":"no","socket":"yes","standing_desk":"yes","mrt":"","open_time":""},{"id":"0b317028-3a83-4aed-b70f-744e3ad42f1e","name":" 1982 de glacée 法式冰淇淋","city":"tainan","wifi":5,"seat":3,"quiet":4,"tasty":5,"cheap":4,"music":5,"url":"https://www.facebook.com/pg/1982eco/about/?ref=page_internal","address":"700台灣台南市中西區永福路一段68巷9號","latitude":"22.98702780","longitude":"120.20059510","limited_time":"no","socket":"maybe","standing_desk":"yes","mrt":"","open_time":""},{"id":"0c44ed70-2904-48ce-84ef-881c261e9d35","name":"貓門Cafe Moment","city":"tainan","wifi":5,"seat":4,"quiet":4,"tasty":5,"cheap":4,"music":5,"url":"https://www.facebook.com/MaoMenCafeMoment/","address":"台南市北區南園街87號1樓","latitude":"23.00823960","longitude":"120.22523070","limited_time":"no","socket":"maybe","standing_desk":"no","mrt":"","open_time":"星期一-三 0900-1800 星期五-日0900-2200[星期四固定店休 但有時候老闆會備料順便開店營業 詳細請看粉絲頁]"},{"id":"0e3f6083-bd9b-4800-840d-670a90f4bec1","name":"豐咖啡","city":"tainan","wifi":5,"seat":5,"quiet":5,"tasty":5,"cheap":5,"music":4,"url":"","address":"台南市中西區民生路二段75號","latitude":"22.99104810","longitude":"120.19612660","limited_time":"no","socket":"yes","standing_desk":"yes","mrt":"","open_time":""},{"id":"0ec8d078-0012-4389-9b5a-d36ca148802b","name":"大風堂","city":"tainan","wifi":5,"seat":5,"quiet":5,"tasty":5,"cheap":4,"music":0,"url":"https://www.facebook.com/DAFONGTANG/","address":"台南市東和路159巷29號","latitude":"22.99799380","longitude":"120.22691630","limited_time":"","socket":"maybe","standing_desk":"","mrt":"","open_time":"10:00 - 20:00 周一二休"},{"id":"0ee0fe9c-327f-4fa8-b930-40f526de4ada","name":"棧留咖啡小館","city":"tainan","wifi":4,"seat":5,"quiet":3,"tasty":4,"cheap":4,"music":4,"url":"https://www.facebook.com/stayinn.coffee.tw/?fref=ts","address":"台南市安南區本原街2段32號","latitude":"23.05719800","longitude":"120.18860990","limited_time":"","socket":"maybe","standing_desk":"yes","mrt":"","open_time":""},{"id":"10809e7c-f711-4ba8-a48d-3a66f8f1ee3b","name":"路易莎咖啡永康分店","city":"tainan","wifi":5,"seat":5,"quiet":5,"tasty":5,"cheap":5,"music":5,"url":"https://www.facebook.com/%E8%B7%AF%E6%98%93%E8%8E%8ELouisa-coffee%E4%B9%8B%E5%8F%B0%E5%8D%97%E6%B0%B8%E5%BA%B7%E5%BA%97-117941595272468/","address":"台南市永康區中華二路365號","latitude":"23.00790010","longitude":"120.23185000","limited_time":"","socket":"","standing_desk":"","mrt":"","open_time":"07:00 - 21:00 六日-19:00"},{"id":"12d05d89-b572-4912-8b35-d42f3ebe6407","name":"肥貓咖啡","city":"tainan","wifi":5,"seat":4,"quiet":5,"tasty":5,"cheap":4,"music":5,"url":"https://www.facebook.com/fatcatcoffee135/","address":"台南市中西區神農街135號","latitude":"22.99791200","longitude":"120.19523100","limited_time":"no","socket":"maybe","standing_desk":"no","mrt":"","open_time":""},{"id":"13a7a35d-f212-482e-a021-5bf3c2347e0c","name":"街頭咖啡Street Cafe 民生店 ","city":"tainan","wifi":0,"seat":0,"quiet":0,"tasty":0,"cheap":0,"music":0,"url":"","address":"台南市中西區新美街7號","latitude":"22.99450630","longitude":"120.20003500","limited_time":"","socket":"","standing_desk":"","mrt":"","open_time":""},{"id":"1404d099-8a85-41b7-8cec-2ad4f7dbcf3f","name":"THE YUAN 東興店","city":"tainan","wifi":0,"seat":0,"quiet":0,"tasty":0,"cheap":0,"music":0,"url":"","address":"701台南市東區東興路13號","latitude":"22.99040860","longitude":"120.22848750","limited_time":"maybe","socket":"no","standing_desk":"no","mrt":"","open_time":""},{"id":"142ba05b-8c7e-45f0-8002-0a1e82969283","name":"Lefty's Cafe 左撇子咖啡吧","city":"tainan","wifi":4,"seat":4,"quiet":4,"tasty":4,"cheap":4,"music":4,"url":"https://www.facebook.com/leftyscoffeetogo/","address":"台南市民族路三段289號","latitude":"23.00006310","longitude":"120.19226640","limited_time":"no","socket":"yes","standing_desk":"yes","mrt":"","open_time":"臨時變動另見FB粉絲專頁"},{"id":"15bab905-9502-415c-a3ec-bc6e25222465","name":"雷巴咖啡烘焙道場","city":"tainan","wifi":0,"seat":0,"quiet":0,"tasty":0,"cheap":0,"music":0,"url":"","address":"701台南市東區長榮路一段186號1樓","latitude":"22.98459640","longitude":"120.21824370","limited_time":"maybe","socket":"maybe","standing_desk":"no","mrt":"","open_time":""},{"id":"1696a0cc-6538-4c6c-80f4-06bd24dae30f","name":"Bobosa Coffee","city":"tainan","wifi":0,"seat":5,"quiet":5,"tasty":5,"cheap":4,"music":3,"url":"https://www.facebook.com/bobosa.coffee.tainan.com.tw/","address":"台南市北區小東路321號","latitude":"22.99921720","longitude":"120.23082460","limited_time":"","socket":"","standing_desk":"","mrt":"","open_time":""},{"id":"17471888-4833-4644-b6aa-2de0062f254f","name":"虫二咖啡","city":"tainan","wifi":5,"seat":5,"quiet":5,"tasty":2.5,"cheap":1.5,"music":5,"url":"","address":"台南市東區長榮路一段101號","latitude":"22.98276380","longitude":"120.21636730","limited_time":"","socket":"","standing_desk":"","mrt":"","open_time":""},{"id":"19e23eed-3301-49ae-9594-3661bceabdfa","name":"歐塔克ottag caf'e手作烘焙咖啡館","city":"tainan","wifi":5,"seat":4,"quiet":4,"tasty":4,"cheap":5,"music":4,"url":"","address":"台南市安平區華平路726號","latitude":"22.99861730","longitude":"120.17617000","limited_time":"","socket":"","standing_desk":"","mrt":"","open_time":""},{"id":"1d704f83-3988-4d21-801a-5640673117f0","name":"ARA  coffee co","city":"tainan","wifi":0,"seat":0,"quiet":0,"tasty":0,"cheap":0,"music":0,"url":"","address":"台南市安平區 健康三街107巷7號旁貨櫃屋","latitude":"22.98750500","longitude":"120.16820700","limited_time":"","socket":"","standing_desk":"","mrt":"","open_time":""},{"id":"226c23dd-fe32-4f1f-90b8-6ec5d0ef04ea","name":"農林咖啡","city":"tainan","wifi":0,"seat":0,"quiet":0,"tasty":5,"cheap":5,"music":5,"url":"https://www.facebook.com/nonglincafe/","address":"台南市麻豆區麻口里10之13號","latitude":"23.17809230","longitude":"120.22445210","limited_time":"","socket":"","standing_desk":"yes","mrt":"","open_time":""},{"id":"27de2f1b-dfc4-4b0c-a67f-1e8d56dc419d","name":"金鑛咖啡台南永華店","city":"tainan","wifi":5,"seat":4.2,"quiet":3,"tasty":4.8,"cheap":4.5,"music":4.2,"url":"","address":"台南市永華路一段301號","latitude":"22.98850800","longitude":"120.18848900","limited_time":"no","socket":"maybe","standing_desk":"no","mrt":"","open_time":""},{"id":"29529b23-e8af-4d69-8746-3417dab8968d","name":"直式咖啡","city":"tainan","wifi":0,"seat":0,"quiet":0,"tasty":0,"cheap":0,"music":0,"url":"","address":"台南市西門路二段412-1號","latitude":"22.99924520","longitude":"120.20113440","limited_time":"","socket":"","standing_desk":"","mrt":"","open_time":""},{"id":"2a4974e9-5a59-4a55-a1d4-e80cdbc7c9a7","name":"安徒生咖啡館","city":"tainan","wifi":0,"seat":4,"quiet":4,"tasty":3,"cheap":4,"music":3,"url":"","address":"台南市北區東豐路249號","latitude":"23.00321430","longitude":"120.22166560","limited_time":"no","socket":"no","standing_desk":"no","mrt":"","open_time":""},{"id":"2ad64a26-9790-4be3-a096-9928ae081488","name":"卡加米亞casamia cafe","city":"tainan","wifi":5,"seat":4,"quiet":4,"tasty":4,"cheap":4,"music":4.5,"url":"https://www.facebook.com/casamiacafe","address":"台南市中西區西門路二段426號","latitude":"22.99945500","longitude":"120.20124590","limited_time":"","socket":"","standing_desk":"","mrt":"","open_time":"09：00-17：00 周一休"},{"id":"2b28b2db-f915-4b92-9daf-68d9a8480c25","name":"月光咖啡廳","city":"tainan","wifi":3,"seat":4,"quiet":4,"tasty":5,"cheap":4,"music":5,"url":"","address":"台南巿東區崇明路405號2樓","latitude":"22.97373650","longitude":"120.22395900","limited_time":"no","socket":"maybe","standing_desk":"no","mrt":"","open_time":""},{"id":"2b8aabc9-49aa-4bb7-9483-8606de48f5c5","name":"A WEEK","city":"tainan","wifi":0,"seat":0,"quiet":0,"tasty":0,"cheap":0,"music":0,"url":"https://www.facebook.com/AWEEKcoffeepancake/","address":"台南市中西區武德街22-1號","latitude":"22.99254380","longitude":"120.20974000","limited_time":"","socket":"","standing_desk":"","mrt":"","open_time":"二~五10:00 - 18:00 六日09:00 - 18:00 周一休"},{"id":"2c1833e5-aff3-4489-81c2-369ae4509dde","name":"Caf'e Duet","city":"tainan","wifi":5,"seat":5,"quiet":5,"tasty":5,"cheap":1,"music":5,"url":"https://www.facebook.com/cafeduet/","address":"台南市健康路一段113巷66號","latitude":"22.98140700","longitude":"120.21004500","limited_time":"no","socket":"no","standing_desk":"no","mrt":"","open_time":"10：00～18：00"},{"id":"2c252b48-0e1c-4dce-914d-6e1cbacdf722","name":"兩倆","city":"tainan","wifi":4,"seat":4,"quiet":5,"tasty":4,"cheap":4,"music":4,"url":"https://www.facebook.com/2liang/","address":"台南市中西區信義街100號","latitude":"23.00058100","longitude":"120.19504300","limited_time":"","socket":"maybe","standing_desk":"yes","mrt":"","open_time":""},{"id":"2d43783e-f5b0-45f8-868e-feff37129460","name":"More Cafe, 摩爾咖啡. 摩爾先生咖啡館","city":"tainan","wifi":0,"seat":0,"quiet":0,"tasty":0,"cheap":0,"music":0,"url":"https://www.facebook.com/HelloMoreCafe/","address":"台南市中西區赤嵌街47號","latitude":"22.99857100","longitude":"120.20240700","limited_time":"maybe","socket":"no","standing_desk":"no","mrt":"","open_time":""},{"id":"2d8ab165-5299-4116-9ea9-28e9a6a654ce","name":"PEKOPEKO","city":"tainan","wifi":0,"seat":5,"quiet":4,"tasty":0,"cheap":0,"music":5,"url":"","address":"700台南市中西區民生路一段132巷5號","latitude":"22.99444370","longitude":"120.20075970","limited_time":"no","socket":"no","standing_desk":"no","mrt":"","open_time":""},{"id":"2f91200e-4c1f-4168-8982-6d89d032b132","name":"深作咖啡","city":"tainan","wifi":4,"seat":5,"quiet":4.5,"tasty":4,"cheap":4.5,"music":4.5,"url":"https://www.facebook.com/%E6%B7%B1%E4%BD%9Ccafe-139303346276286/","address":"台南市中西區民權路二段231號","latitude":"22.99535480","longitude":"120.20142130","limited_time":"no","socket":"yes","standing_desk":"yes","mrt":"","open_time":"0800~1800 週二休 月底最後一週的禮拜一休"},{"id":"2feadb1c-9cb4-4bfd-ae62-4f2d9ad91e65","name":"bib pancake","city":"tainan","wifi":0,"seat":0,"quiet":0,"tasty":0,"cheap":0,"music":0,"url":"","address":"台南市開山路106號","latitude":"22.98967550","longitude":"120.20693300","limited_time":"","socket":"","standing_desk":"","mrt":"","open_time":""},{"id":"300e5387-883a-41a1-9476-0ffe939bb758","name":"橘舍","city":"tainan","wifi":3,"seat":4,"quiet":5,"tasty":5,"cheap":5,"music":4,"url":"","address":"中西區中正路108巷1號","latitude":"22.99282400","longitude":"120.20019100","limited_time":"no","socket":"no","standing_desk":"no","mrt":"","open_time":"08：00～18：00"},{"id":"3100ca44-d52a-4186-abd3-77ea4ecac858","name":"蔬食樂 初始店","city":"tainan","wifi":4,"seat":4,"quiet":4,"tasty":5,"cheap":4,"music":4,"url":"https://www.facebook.com/SoothRoadoriginal/","address":"台南市東區東平路61號","latitude":"22.99498630","longitude":"120.23199200","limited_time":"maybe","socket":"no","standing_desk":"no","mrt":"","open_time":""},{"id":"32060f39-d4a1-4f62-8c54-59af9ebdf4f0","name":"哈本咖啡Happen Coffee","city":"tainan","wifi":5,"seat":5,"quiet":5,"tasty":5,"cheap":4,"music":5,"url":"https://www.facebook.com/Happencoffee/","address":"台南市東區長榮路三段3號2F","latitude":"22.99288340","longitude":"120.22145020","limited_time":"","socket":"no","standing_desk":"","mrt":"","open_time":"09:30 - 20:30 周一休"},{"id":"32c59c93-3150-438d-b0ba-f53ffe91475b","name":"M2 coffee shop 崇德店","city":"tainan","wifi":5,"seat":5,"quiet":4,"tasty":4,"cheap":5,"music":4,"url":"","address":"701台南市東區崇德路616號","latitude":"22.97077350","longitude":"120.22736760","limited_time":"no","socket":"maybe","standing_desk":"yes","mrt":"","open_time":""},{"id":"33c277d3-09fd-41f6-9083-b04e6e22d12e","name":"華莎咖啡","city":"tainan","wifi":5,"seat":5,"quiet":5,"tasty":5,"cheap":5,"music":5,"url":"https://www.facebook.com/warszawa.cafe/","address":"台南市東區富農街一段131巷24-1號1樓","latitude":"22.98217500","longitude":"120.23400200","limited_time":"no","socket":"yes","standing_desk":"no","mrt":"","open_time":""},{"id":"33e698ab-8cde-4ec2-8114-56469a4215b5","name":"猛男咖啡","city":"tainan","wifi":5,"seat":3,"quiet":3,"tasty":5,"cheap":2,"music":5,"url":"","address":"台南市南區大成路一段32號","latitude":"22.97517200","longitude":"120.20254000","limited_time":"","socket":"","standing_desk":"","mrt":"","open_time":""},{"id":"34a25d36-ade6-4c72-a62e-56605af7ff96","name":"James Cofa","city":"tainan","wifi":0,"seat":0,"quiet":0,"tasty":0,"cheap":0,"music":0,"url":"","address":"台南市民族路二段47號","latitude":"22.99428710","longitude":"120.21044260","limited_time":"","socket":"","standing_desk":"","mrt":"","open_time":""},{"id":"35d335ac-783c-4868-9b4c-30704e28fd83","name":"CHEFFRESH cafe (南門)","city":"tainan","wifi":5,"seat":3,"quiet":4,"tasty":5,"cheap":3,"music":5,"url":"https://www.facebook.com/CHEFFRESH-cafe-133198263358168/","address":"國立台灣文學館—台南中正路1號（南門路出入口）","latitude":"22.99197710","longitude":"120.20449150","limited_time":"no","socket":"","standing_desk":"","mrt":"","open_time":""},{"id":"35d3a55e-5be1-433d-bc11-da73e43250db","name":"那咖啡","city":"tainan","wifi":0,"seat":5,"quiet":4,"tasty":5,"cheap":5,"music":4,"url":"https://www.facebook.com/nacofe","address":"744台南市新市區信義街5-13","latitude":"23.07250260","longitude":"120.29004800","limited_time":"no","socket":"maybe","standing_desk":"no","mrt":"","open_time":"需要到粉絲專業詢問開店予否"},{"id":"380137bf-41d5-46a1-b716-f1e80a2197b5","name":"村有熊","city":"tainan","wifi":0,"seat":0,"quiet":0,"tasty":0,"cheap":0,"music":0,"url":"","address":"台南市永康區中山東路239號","latitude":"23.01103150","longitude":"120.23711590","limited_time":"","socket":"","standing_desk":"","mrt":"","open_time":""},{"id":"38c0c26e-d120-4368-a3cc-90abdb762c0d","name":"曲屋咖啡","city":"tainan","wifi":4.5,"seat":3.5,"quiet":4,"tasty":5,"cheap":4,"music":3,"url":"https://www.facebook.com/musichousecoffee/","address":"台南市中西區府緯街82號","latitude":"22.98397280","longitude":"120.19701460","limited_time":"no","socket":"maybe","standing_desk":"yes","mrt":"","open_time":"0930-1900"},{"id":"38ca249c-df2c-4b71-946b-75924e66ab5c","name":"Coffee Concept 隱初","city":"tainan","wifi":5,"seat":5,"quiet":5,"tasty":5,"cheap":0,"music":0,"url":"https://m.facebook.com/coffeeconcept01/","address":"台南市中西區西門路二段365巷5號","latitude":"22.99809950","longitude":"120.20013590","limited_time":"no","socket":"maybe","standing_desk":"no","mrt":"","open_time":""},{"id":"38f5b7d0-3244-42ad-bd44-817c4657c402","name":"東楓咖啡","city":"tainan","wifi":4,"seat":4,"quiet":3,"tasty":4,"cheap":5,"music":3,"url":"https://www.facebook.com/dongfongcoffee/","address":"台南市北區東豐路161號","latitude":"23.00366240","longitude":"120.21849300","limited_time":"","socket":"","standing_desk":"","mrt":"","open_time":"07:00 - 21:00 六日08:00 - 18:00"},{"id":"3a410430-abf0-4041-9159-dadac8a0ce99","name":"歸旅咖啡＠台南安平＠早午餐＠民宿＠Guei Cafe","city":"tainan","wifi":5,"seat":5,"quiet":5,"tasty":5,"cheap":5,"music":5,"url":"https://www.facebook.com/gueicafe/","address":"台南市安平區建平七街752號","latitude":"22.99026510","longitude":"120.16795180","limited_time":"maybe","socket":"yes","standing_desk":"yes","mrt":"","open_time":"9:00-16:00"},{"id":"3acf17b5-d5eb-4f21-bf93-2adf661e405a","name":"恆萃咖啡Coffee Forever","city":"tainan","wifi":5,"seat":5,"quiet":5,"tasty":5,"cheap":4,"music":5,"url":"https://www.facebook.com/licoffeefoever/","address":"741台南市善化區民權路37-1號","latitude":"23.13203350","longitude":"120.30385610","limited_time":"no","socket":"maybe","standing_desk":"no","mrt":"","open_time":""},{"id":"3adc15e4-b824-4a21-a4b4-0726a8aac6f6","name":"am's food and goods","city":"tainan","wifi":0,"seat":0,"quiet":0,"tasty":0,"cheap":0,"music":0,"url":"","address":"台南市北區前鋒路173號","latitude":"23.00193580","longitude":"120.21452740","limited_time":"","socket":"","standing_desk":"","mrt":"","open_time":""},{"id":"3b653515-6d68-497c-bda0-235140f432a0","name":"URN Cafe","city":"tainan","wifi":5,"seat":5,"quiet":4.5,"tasty":5,"cheap":3.5,"music":5,"url":"urncafe","address":"台南市中西區臨安路一段97號","latitude":"22.99946710","longitude":"120.19087340","limited_time":"no","socket":"maybe","standing_desk":"yes","mrt":"","open_time":""},{"id":"3d531140-60e1-4194-96c5-c186c0bf0cc6","name":"順風號","city":"tainan","wifi":4,"seat":3.5,"quiet":4.5,"tasty":4,"cheap":4,"music":5,"url":"https://www.facebook.com/%E9%A0%86%E9%A2%A8%E8%99%9F-337562839689320/?fref=ts","address":"台南市中西區開山路35巷39弄32號","latitude":"22.99011840","longitude":"120.20775680","limited_time":"","socket":"","standing_desk":"no","mrt":"","open_time":"吃的二-五供應至20:00、六日供應至20:30"},{"id":"3dba2825-5fbb-4832-a918-f1d8837c2988","name":"品蓬咖啡Pinpong Coffee","city":"tainan","wifi":3,"seat":4,"quiet":4,"tasty":4,"cheap":4,"music":5,"url":"https://www.facebook.com/pinpongcoffee/","address":"台南市中西區府前路一段196巷17號","latitude":"22.98968900","longitude":"120.20508800","limited_time":"no","socket":"maybe","standing_desk":"no","mrt":"","open_time":""},{"id":"3dea5309-ef45-41b0-80be-abb1c147696b","name":"正興咖啡館","city":"tainan","wifi":5,"seat":4,"quiet":3,"tasty":5,"cheap":5,"music":5,"url":"https://www.facebook.com/zx.cafe","address":"台南市中西區國華街三段43號","latitude":"22.99422970","longitude":"120.19736230","limited_time":"","socket":"","standing_desk":"","mrt":"","open_time":"週一～四：09:00 - 19:00 週五～日：09:00 - 21:00"},{"id":"3f90aba5-2a6b-4fa8-b102-7a5fd1294031","name":"Coffee Cafe' 咖啡珈琲","city":"tainan","wifi":4,"seat":3,"quiet":4.5,"tasty":4,"cheap":4.5,"music":4.5,"url":"https://www.facebook.com/abelCoffeeCafe/","address":"台南市中西區樹林街二段290號","latitude":"22.98650210","longitude":"120.20140570","limited_time":"no","socket":"","standing_desk":"","mrt":"","open_time":"10:00 - 21:00 週三休"},{"id":"3facb8a4-f116-47e9-bc29-f2edbfc1fc75","name":"Smile Elephant 微笑日作菓子","city":"tainan","wifi":0,"seat":0,"quiet":0,"tasty":0,"cheap":0,"music":0,"url":"https://www.facebook.com/Smile-Elephant-%E5%BE%AE%E7%AC%91%E6%97%A5%E4%BD%9C%E8%8F%93%E5%AD%90-196798317171327/","address":"台南市中西區神農街109號","latitude":"22.99781860","longitude":"120.19587290","limited_time":"","socket":"","standing_desk":"","mrt":"","open_time":"11:00 - 19:00 周一二休 (ps.甜點賣完就會提早結束營業)"},{"id":"4024b04f-5748-41d5-be34-6ac665e439ea","name":"席瑪朵珈琲烘焙棧(立賢店)","city":"tainan","wifi":4,"seat":3,"quiet":4,"tasty":4,"cheap":3,"music":4,"url":"https://www.facebook.com/cermado.spirit/","address":"台南市北區立賢路一段569號","latitude":"23.00953480","longitude":"120.20121220","limited_time":"","socket":"no","standing_desk":"no","mrt":"","open_time":""},{"id":"409300b4-9125-4de7-b090-efe4c44bf3a6","name":"小巷裡的拾壹號","city":"tainan","wifi":5,"seat":3,"quiet":4,"tasty":5,"cheap":5,"music":5,"url":"https://www.facebook.com/thealleyno11","address":"台南市中西區衛民街143巷11號","latitude":"22.99311880","longitude":"120.20761420","limited_time":"maybe","socket":"yes","standing_desk":"no","mrt":"","open_time":""},{"id":"431c4a4f-febf-4c9b-93ba-c99f7b6571e7","name":"私人藏豆 COFFELLECTION - 永康店","city":"tainan","wifi":0,"seat":0,"quiet":0,"tasty":0,"cheap":0,"music":0,"url":"https://www.facebook.com/coffellection/","address":"台南市永康區永平街No. 161號","latitude":"23.02226670","longitude":"120.25866090","limited_time":"maybe","socket":"yes","standing_desk":"no","mrt":"","open_time":""},{"id":"43a25b9a-a14c-4047-827b-ba23b63133cc","name":"咖啡基因 Espresso Bar & Specialty Coffee","city":"tainan","wifi":2.5,"seat":3,"quiet":3,"tasty":5,"cheap":5,"music":4,"url":"https://www.facebook.com/coffeegenes/","address":"台南市中西區府連路132號","latitude":"22.98421580","longitude":"120.21093770","limited_time":"no","socket":"","standing_desk":"","mrt":"","open_time":"07:00–17:00 週四休"},{"id":"43b2ea21-5cc3-4572-8749-337a7bcd9284","name":"FuYu cafe'賦于咖啡","city":"tainan","wifi":0,"seat":0,"quiet":0,"tasty":0,"cheap":0,"music":0,"url":"","address":"台南市東區長榮路三段76號","latitude":"22.99399900","longitude":"120.22187670","limited_time":"","socket":"no","standing_desk":"yes","mrt":"","open_time":""},{"id":"452784e9-31df-460b-9a8e-e91442902db7","name":"艾登咖啡館","city":"tainan","wifi":5,"seat":4,"quiet":3,"tasty":5,"cheap":5,"music":4,"url":"https://www.facebook.com/cafeidentw/","address":"台南市中西區成功路437號","latitude":"23.00080700","longitude":"120.19693100","limited_time":"no","socket":"no","standing_desk":"yes","mrt":"","open_time":"不定期店休，公告FB及現場"},{"id":"452c1b88-9658-4b38-8751-588fb27d43b7","name":"辰星咖啡 EstrellaCoffee","city":"tainan","wifi":5,"seat":4.5,"quiet":4,"tasty":4.5,"cheap":4,"music":4,"url":"https://www.facebook.com/EstrellaCoffeeShop/","address":"台南市東區府連東路47號","latitude":"22.98423550","longitude":"120.21823570","limited_time":"","socket":"maybe","standing_desk":"","mrt":"","open_time":"每月最後一周二三休共休2天(公休前的星期一會在 5:00 pm 提早打烊)"},{"id":"469220ff-8419-4d7e-9f16-f78d93f28952","name":"鹿耳","city":"tainan","wifi":3,"seat":3,"quiet":3,"tasty":3,"cheap":4,"music":4.5,"url":"https://www.facebook.com/lurelatelatebreakfast/","address":"台南市林森路一段153巷19號","latitude":"22.98493730","longitude":"120.22175710","limited_time":"","socket":"yes","standing_desk":"yes","mrt":"","open_time":""},{"id":"4a9e0aae-917a-4cb1-8823-4a77323c7caa","name":"開普三號店","city":"tainan","wifi":5,"seat":4,"quiet":3,"tasty":4,"cheap":3,"music":4,"url":"https://www.facebook.com/%E9%96%8B%E6%99%AE%E4%B8%89%E8%99%9F%E5%BA%97-CAPE-CAFE-3-439555272844579/","address":"台南市東區長榮路三段66巷70號","latitude":"22.99357720","longitude":"120.22319030","limited_time":"maybe","socket":"maybe","standing_desk":"","mrt":"","open_time":"11:00-21:00"},{"id":"4cd2354f-13f4-43eb-85b3-d9bb9d93bdaf","name":"Season Cafe","city":"tainan","wifi":5,"seat":5,"quiet":3,"tasty":5,"cheap":5,"music":4,"url":"https://www.facebook.com/Season.Cafe.257/","address":"台南市中西區開山路257號","latitude":"22.98600080","longitude":"120.21028170","limited_time":"","socket":"","standing_desk":"","mrt":"","open_time":"09:00 - 18:00"},{"id":"4cea08c3-a3ed-4434-bcac-37dd53a8a473","name":"福米cafe","city":"tainan","wifi":5,"seat":4,"quiet":4,"tasty":4,"cheap":3,"music":3,"url":"","address":"台南市中西區西門路一段536號","latitude":"22.98542910","longitude":"120.19793700","limited_time":"","socket":"","standing_desk":"no","mrt":"","open_time":""},{"id":"4d339dc5-2086-4a2b-b37d-1c6ab5a206cf","name":"藏風藝文咖啡","city":"tainan","wifi":4,"seat":5,"quiet":4,"tasty":3,"cheap":3,"music":3,"url":"https://www.facebook.com/TsangFongCoffee/","address":"台南市中西區衛民街67號-1","latitude":"22.99264700","longitude":"120.21033900","limited_time":"no","socket":"maybe","standing_desk":"yes","mrt":"","open_time":"二-四 12:00 - 20:00\n五六 12:00 - 21:00\n日    12:00 - 18:00"},{"id":"4d520730-ebe5-4509-a39d-7a9dc1dda7a5","name":"ICI Cafe","city":"tainan","wifi":4.5,"seat":4.5,"quiet":4,"tasty":4.5,"cheap":4,"music":4.5,"url":"https://www.facebook.com/ici-cafe-831634633530313/","address":"台南市中西區忠孝街93巷108號","latitude":"23.00114500","longitude":"120.19575400","limited_time":"","socket":"yes","standing_desk":"no","mrt":"","open_time":""},{"id":"4e6a9eab-618c-40da-827c-92250e2d8ab3","name":"跳舞的羊咖啡豆專賣店","city":"tainan","wifi":3.5,"seat":2.5,"quiet":3,"tasty":4,"cheap":3.5,"music":3.5,"url":"","address":"台南市中西區衛民街59號","latitude":"22.99275930","longitude":"120.21066980","limited_time":"maybe","socket":"maybe","standing_desk":"no","mrt":"","open_time":""},{"id":"4e8ee6e5-5e97-4447-91bc-4274c15b5eed","name":"日澗咖啡 Day Stream Caf'e","city":"tainan","wifi":0,"seat":0,"quiet":0,"tasty":0,"cheap":0,"music":0,"url":"","address":"台南市中西區大埔街57號","latitude":"22.98708730","longitude":"120.20844200","limited_time":"","socket":"","standing_desk":"","mrt":"","open_time":""},{"id":"4ecf7c0b-e626-483a-8110-b207bfe53c25","name":"微果咖啡  wego cafe","city":"tainan","wifi":4,"seat":5,"quiet":4,"tasty":5,"cheap":5,"music":4,"url":"https://www.facebook.com/%E5%BE%AE%E6%9E%9C%E5%92%96%E5%95%A1-WeGo-Cafe-1083408225050754/","address":"台南市東區崇善11街2號","latitude":"22.96998920","longitude":"120.23102180","limited_time":"no","socket":"maybe","standing_desk":"yes","mrt":"","open_time":"星期一到星期六早上十點到晚上七點"},{"id":"4f5aa79b-4d28-425e-aff2-7ba317a0a2e7","name":"K30 COFFEE","city":"tainan","wifi":0,"seat":0,"quiet":0,"tasty":0,"cheap":0,"music":0,"url":"https://m.facebook.com/K30COFFEE/","address":"台南市中西區中正路217巷7號","latitude":"22.99279210","longitude":"120.19767400","limited_time":"no","socket":"no","standing_desk":"yes","mrt":"","open_time":"休假時間會用FB公告"},{"id":"50223d86-cd69-4ea6-bcbd-8a33584824bf","name":"寮國咖啡","city":"tainan","wifi":1,"seat":3,"quiet":3,"tasty":4,"cheap":4,"music":3,"url":"https://www.facebook.com/%E5%AF%AE%E5%9C%8B%E5%92%96%E5%95%A1%E5%AF%AE%E6%9E%9C%E5%92%96%E5%95%A1%E5%B7%A5%E5%9D%8A-212644352411035/?fref=ts","address":"台南市中西區中山路79巷60號","latitude":"22.99433080","longitude":"120.20663070","limited_time":"maybe","socket":"no","standing_desk":"no","mrt":"","open_time":"09:30 - 17:00，週日公休 "},{"id":"52c77ab2-dceb-4e1e-b778-5e03add4e08f","name":"EAGER CAF'E","city":"tainan","wifi":0,"seat":5,"quiet":0,"tasty":5,"cheap":0,"music":5,"url":"https://www.facebook.com/EAGER-CAFE-%E4%B8%80%E5%80%8B-%E5%92%96%E5%95%A1%E8%87%AA%E5%AE%B6%E7%83%98%E7%84%99-231885243936347/","address":"台南市善化區文昌路93-1號","latitude":"23.12845200","longitude":"120.28905800","limited_time":"no","socket":"no","standing_desk":"no","mrt":"","open_time":""},{"id":"534b9cdf-e19b-4168-9563-2d2d459c4545","name":"樂享學","city":"tainan","wifi":5,"seat":5,"quiet":5,"tasty":5,"cheap":4,"music":4,"url":"https://www.facebook.com/o.fami.tw/?eid=ARDmkHrmzf4AGsfA2oK-7-4zFa9-bBpNemGNoogxF-I6cMEH8wD_tmesJDX-NcGd9km551FXUneMuTve","address":"台南市永康區中山路298號","latitude":"23.03291980","longitude":"120.25543710","limited_time":"no","socket":"yes","standing_desk":"yes","mrt":"","open_time":""},{"id":"54f82ada-0bda-41fd-aa66-10fa6900aa1e","name":"魚羊鮮豆","city":"tainan","wifi":4,"seat":4,"quiet":3,"tasty":4,"cheap":4,"music":3,"url":"https://www.facebook.com/pages/%E9%AD%9A%E7%BE%8A%E9%AE%AE%E8%B1%86%E5%92%96%E5%95%A1%E9%A4%A8/141002589293227?fref=ts","address":"台南市北區東豐路275號","latitude":"23.00294470","longitude":"120.22325000","limited_time":"","socket":"no","standing_desk":"no","mrt":"","open_time":""},{"id":"56cbb403-3298-46b8-a856-8f29e7641605","name":"lazy day","city":"tainan","wifi":0,"seat":0,"quiet":0,"tasty":0,"cheap":0,"music":0,"url":"","address":"台南市中西區忠孝街116巷2號","latitude":"23.00033490","longitude":"120.19762150","limited_time":"","socket":"","standing_desk":"","mrt":"","open_time":""},{"id":"570df433-b2e0-4786-aa5a-9d73b392b87e","name":"A WAY CAFE","city":"tainan","wifi":5,"seat":5,"quiet":4,"tasty":4.5,"cheap":3.5,"music":4.5,"url":"https://www.facebook.com/awaycafe/","address":"台南市東區小東路368號","latitude":"22.99833080","longitude":"120.23387440","limited_time":"no","socket":"yes","standing_desk":"yes","mrt":"","open_time":"07:00 - 17:00"},{"id":"583ebeb4-c211-4afa-a176-6ee1bf0332de","name":"神榕147","city":"tainan","wifi":5,"seat":5,"quiet":5,"tasty":5,"cheap":5,"music":0,"url":"https://www.facebook.com/shennong147/","address":"臺南市神農街147號","latitude":"22.99814410","longitude":"120.19501100","limited_time":"no","socket":"no","standing_desk":"yes","mrt":"","open_time":"見粉絲專頁"},{"id":"583ed0c1-4ef6-46d3-b58d-c46dcdb195bf","name":"小野珈琲烘焙坊","city":"tainan","wifi":5,"seat":5,"quiet":5,"tasty":5,"cheap":5,"music":5,"url":"https://www.facebook.com/bestcoffeetime/","address":"台南市東區崇善二街74號","latitude":"22.97854630","longitude":"120.22939120","limited_time":"no","socket":"no","standing_desk":"no","mrt":"","open_time":""},{"id":"583f2646-05df-431d-9db0-852d791bd258","name":"Django 決哥手烘咖啡吧-勝利店","city":"tainan","wifi":4,"seat":4,"quiet":3,"tasty":5,"cheap":4,"music":4,"url":"https://www.facebook.com/django6999","address":"台南市東區勝利路187號","latitude":"22.99612870","longitude":"120.21804530","limited_time":"no","socket":"yes","standing_desk":"no","mrt":"","open_time":""},{"id":"5c38586b-09ca-4eda-9811-f4c71574736d","name":"奧薇小鎮","city":"tainan","wifi":4.5,"seat":4.5,"quiet":3.5,"tasty":3,"cheap":3.5,"music":3.5,"url":"https://www.facebook.com/%E5%A5%A7%E8%96%87%E5%B0%8F%E9%8E%AE-354391024651887/","address":"台南市東區裕平路110號","latitude":"22.98501080","longitude":"120.24098770","limited_time":"","socket":"","standing_desk":"","mrt":"","open_time":"09:30 - 17:30"},{"id":"5cceb4c3-fd20-4a59-89d3-ce801c98de91","name":"南十三咖啡","city":"tainan","wifi":0,"seat":0,"quiet":0,"tasty":0,"cheap":0,"music":0,"url":"","address":"台南市中西區民族路二段317巷46號","latitude":"22.99608680","longitude":"120.20277440","limited_time":"","socket":"","standing_desk":"","mrt":"","open_time":""},{"id":"5d191eba-8bdd-4fc3-b112-7c39d5e7263e","name":"a room","city":"tainan","wifi":5,"seat":3,"quiet":4,"tasty":5,"cheap":4,"music":5,"url":"","address":"台南市長榮路一段234巷17號","latitude":"22.98495400","longitude":"120.21909070","limited_time":"","socket":"maybe","standing_desk":"no","mrt":"","open_time":""},{"id":"5e322b4f-285a-47ed-bf66-e25f86709c2e","name":"For coffee","city":"tainan","wifi":5,"seat":5,"quiet":5,"tasty":5,"cheap":4,"music":4,"url":"https://www.facebook.com/forcoffee38/","address":"台南市永康區東橋八街38號","latitude":"23.02074790","longitude":"120.23333300","limited_time":"maybe","socket":"maybe","standing_desk":"no","mrt":"","open_time":""},{"id":"5e723daa-b62f-46e6-b30c-21d3a2951660","name":"榮寓冰室","city":"tainan","wifi":5,"seat":5,"quiet":5,"tasty":5,"cheap":4,"music":5,"url":"https://www.facebook.com/%E6%A6%AE%E5%AF%93%E5%86%B0%E5%AE%A4-779315372144403/","address":"台南市東區榮譽街84巷55號","latitude":"22.97471100","longitude":"120.21895500","limited_time":"no","socket":"yes","standing_desk":"yes","mrt":"","open_time":"12:30-18:30 (公休日不定)"},{"id":"5e7a44b1-d232-4407-b7a7-558a5c970309","name":"咚珈琲","city":"tainan","wifi":1,"seat":3,"quiet":3,"tasty":5,"cheap":4,"music":5,"url":"https://www.facebook.com/dongkohi/?fref=ts","address":"台南市府前路一段17號","latitude":"22.98857560","longitude":"120.21096250","limited_time":"no","socket":"maybe","standing_desk":"no","mrt":"","open_time":""},{"id":"5ffdfed1-da22-4726-b790-6d249970fdd3","name":"旅享所在","city":"tainan","wifi":5,"seat":5,"quiet":5,"tasty":5,"cheap":5,"music":5,"url":"https://www.facebook.com/travelifelab","address":"台南市南區仁慈街21號","latitude":"22.97827210","longitude":"120.19388410","limited_time":"maybe","socket":"yes","standing_desk":"yes","mrt":"","open_time":""},{"id":"60530c95-ce65-4ec3-983a-d2103ea2058e","name":"未艾公寓","city":"tainan","wifi":5,"seat":5,"quiet":4.5,"tasty":4.5,"cheap":4,"music":5,"url":"https://www.facebook.com/welove7710/","address":"台南市中西區正興街77巷10號","latitude":"22.99406800","longitude":"120.19689200","limited_time":"maybe","socket":"maybe","standing_desk":"yes","mrt":"","open_time":"12:00 - 19:30"},{"id":"62a1ada2-c3b3-401b-ae28-72189292e5bb","name":"MASA LOFT","city":"tainan","wifi":4,"seat":4,"quiet":4,"tasty":4,"cheap":4,"music":4,"url":"https://www.facebook.com/MASALOFT.TAINAN/","address":"台南市東區大學路西段53號","latitude":"22.99635100","longitude":"120.21692800","limited_time":"no","socket":"maybe","standing_desk":"","mrt":"","open_time":"一-五  09:30–21:30六日   09:30–18:00"},{"id":"636c5035-43e6-4f9c-8522-4e6cae7930d6","name":"熨斗目花 wudaocafe","city":"tainan","wifi":4,"seat":4,"quiet":4,"tasty":3,"cheap":2,"music":4,"url":"https://www.facebook.com/wudaocafe/","address":"台南市中西區新美街90號","latitude":"22.99563360","longitude":"120.20061170","limited_time":"","socket":"","standing_desk":"","mrt":"","open_time":"0900~2000"},{"id":"63780ddc-16aa-4cb4-be83-a47697e3d67e","name":"甘谷咖啡","city":"tainan","wifi":0,"seat":5,"quiet":3,"tasty":5,"cheap":3,"music":5,"url":"https://www.facebook.com/Gongulu.Coffee/","address":"701台南市東區裕豐街54巷1號","latitude":"22.98441440","longitude":"120.22694080","limited_time":"no","socket":"maybe","standing_desk":"no","mrt":"","open_time":"12:00-20:00，每周一休業"},{"id":"63a7d995-dad8-4ea9-aeb6-491864f35e1d","name":"kokoni cafe","city":"tainan","wifi":4.5,"seat":4.5,"quiet":3.5,"tasty":4,"cheap":4,"music":4.5,"url":"https://www.facebook.com/kokoni-cafe-355594461267861/","address":"台南市中西區西門路二段372巷23-1號","latitude":"22.99118430","longitude":"120.19770980","limited_time":"","socket":"yes","standing_desk":"no","mrt":"","open_time":"最後點餐19:30"},{"id":"63cb8cf2-d0af-439f-bb67-20dcdc242b8c","name":"沛里歐早午餐鬆餅咖啡館","city":"tainan","wifi":3,"seat":4,"quiet":3,"tasty":5,"cheap":4,"music":4,"url":"https://www.facebook.com/PELLEO.TW/","address":"700台南市中西區樹林街二段67號","latitude":"22.98555630","longitude":"120.20538260","limited_time":"","socket":"","standing_desk":"","mrt":"","open_time":"08:00 - 19:00 周六-14:00 週二休"},{"id":"63cfcbf1-0aec-465e-8841-4ada066f3f69","name":"花樓二店","city":"tainan","wifi":0,"seat":5,"quiet":4,"tasty":5,"cheap":4,"music":5,"url":"https://www.facebook.com/%E8%8A%B1%E6%A8%93follow_coffee-1058378214308090/","address":"台南市中西區民權路三段55號","latitude":"22.99641200","longitude":"120.19816400","limited_time":"","socket":"","standing_desk":"no","mrt":"","open_time":""},{"id":"65ad064b-5bdf-4d76-885a-a40dc748893c","name":"慢咖啡","city":"tainan","wifi":5,"seat":5,"quiet":5,"tasty":5,"cheap":4,"music":3,"url":"https://www.facebook.com/slow0529/","address":"台南市東區崇德路287號","latitude":"22.97783820","longitude":"120.22205280","limited_time":"no","socket":"yes","standing_desk":"","mrt":"","open_time":""},{"id":"67164a15-138e-421d-bd2a-66f8aef40fc6","name":"牽咖啡 Chen Coffee","city":"tainan","wifi":2,"seat":5,"quiet":2.5,"tasty":5,"cheap":5,"music":3,"url":"https://www.facebook.com/chenchencoffee/","address":"台南市中西區民權路一段219號","latitude":"22.99234360","longitude":"120.20727210","limited_time":"no","socket":"maybe","standing_desk":"no","mrt":"","open_time":"周日休"},{"id":"6759dbca-19ea-4414-8924-19d44e6542f5","name":"台南艾咖啡 ALFEE Coffee","city":"tainan","wifi":5,"seat":4,"quiet":4,"tasty":5,"cheap":4,"music":4,"url":"https://www.facebook.com/ICAFFEFANS","address":"台南市中西區西華南街15號","latitude":"22.99334270","longitude":"120.20921400","limited_time":"","socket":"","standing_desk":"","mrt":"","open_time":"13:00 - 21:00 週二休"},{"id":"688e93ea-17e6-4b76-9080-1f24edf35523","name":"豆趣留聲","city":"tainan","wifi":4.5,"seat":5,"quiet":5,"tasty":4,"cheap":3.5,"music":4,"url":"","address":"台南市東區北門路二段16號","latitude":"22.99902470","longitude":"120.21288680","limited_time":"no","socket":"maybe","standing_desk":"","mrt":"","open_time":"09：00～21：00"},{"id":"6a742fc3-a490-4f1c-996c-3c4cb6e8350e","name":"金礦咖啡-台南中華門市","city":"tainan","wifi":5,"seat":4.5,"quiet":2,"tasty":2.5,"cheap":3,"music":3,"url":"https://www.facebook.com/pg/b030783/about/?tab=page_info","address":"台南市永康區中華路617號","latitude":"23.01458260","longitude":"120.22991450","limited_time":"no","socket":"maybe","standing_desk":"yes","mrt":"","open_time":"07:00 - 24:00"},{"id":"6cba77d6-6719-4575-950d-4ba4c855c57d","name":"道南館 自家烘焙咖啡館","city":"tainan","wifi":5,"seat":5,"quiet":5,"tasty":5,"cheap":4,"music":5,"url":"https://www.facebook.com/pg/daonanguan/","address":"台南市中西區民權路二段248號","latitude":"22.99599270","longitude":"120.20067550","limited_time":"no","socket":"no","standing_desk":"no","mrt":"","open_time":"11:00 - 21:00 週日-18:00"},{"id":"6cfb28a6-6d29-4695-a3eb-d8754a944a8e","name":"多那之台南西門門市（寶美樓）","city":"tainan","wifi":0,"seat":0,"quiet":0,"tasty":0,"cheap":0,"music":0,"url":"","address":"台南市中西區西門路二段309號","latitude":"22.99702220","longitude":"120.19982020","limited_time":"no","socket":"yes","standing_desk":"no","mrt":"","open_time":""},{"id":"6d6000c5-ae01-40d6-a503-2ea943402b39","name":"I'M Coffee","city":"tainan","wifi":4,"seat":5,"quiet":4,"tasty":3,"cheap":3,"music":4,"url":"https://www.facebook.com/IMCOFFEETW/","address":"台南市北區開元路515號","latitude":"23.01104820","longitude":"120.22507830","limited_time":"no","socket":"yes","standing_desk":"no","mrt":"","open_time":""},{"id":"6e111a89-4976-4183-9cbc-563a0e34f0a7","name":"Lure Late Late Breakfast 鹿耳晚晚早餐","city":"tainan","wifi":5,"seat":4,"quiet":2.5,"tasty":3.5,"cheap":5,"music":5,"url":"https://www.facebook.com/lurelatelatebreakfast/","address":"台南市東區林森路一段153巷19號","latitude":"22.98426600","longitude":"120.21523600","limited_time":"no","socket":"yes","standing_desk":"yes","mrt":"","open_time":""},{"id":"6eb4b047-5d6c-4629-bef0-be4972a3f287","name":"CaffeBene 咖啡伴_成大門市","city":"tainan","wifi":0,"seat":0,"quiet":0,"tasty":0,"cheap":0,"music":0,"url":"https://www.facebook.com/%E5%92%96%E5%95%A1%E4%BC%B4_%E6%88%90%E5%A4%A7%E9%96%80%E5%B8%82-2475209642705352/","address":"台南市東區大學路16-1號","latitude":"22.99600720","longitude":"120.22065150","limited_time":"no","socket":"yes","standing_desk":"no","mrt":"","open_time":""},{"id":"6fe02ef5-d366-405e-acbd-5608a86b8db6","name":"透南風咖啡聚場","city":"tainan","wifi":0,"seat":5,"quiet":5,"tasty":5,"cheap":4,"music":5,"url":"https://www.facebook.com/southwind.2016/","address":"台南市中西區永福路二段35巷6號","latitude":"22.99113550","longitude":"120.20026120","limited_time":"no","socket":"maybe","standing_desk":"","mrt":"","open_time":""},{"id":"714e710a-2a4b-418c-b3cd-da5717f90955","name":"花樓follow_coffee","city":"tainan","wifi":0,"seat":0,"quiet":0,"tasty":5,"cheap":0,"music":0,"url":"https://www.facebook.com/%E8%8A%B1%E6%A8%93follow_coffee-1058378214308090/?ref=br_rs","address":"台南市中西區民權路二段118號","latitude":"22.99482410","longitude":"120.20330480","limited_time":"","socket":"","standing_desk":"","mrt":"","open_time":""},{"id":"733f638e-b136-4982-aad9-fe55698d1b37","name":"有緣人 Yuan Coffee","city":"tainan","wifi":0,"seat":4,"quiet":5,"tasty":5,"cheap":5,"music":4,"url":"https://www.facebook.com/%E6%9C%89%E7%B7%A3%E4%BA%BAYuan-Coffee-102737151223922/","address":"台南市永康區中華路912巷59弄9號 Tainan, Taiwan","latitude":"23.02056910","longitude":"120.22445800","limited_time":"no","socket":"no","standing_desk":"no","mrt":"","open_time":""},{"id":"737630b1-571e-490d-a885-96ad83cded01","name":"mumu小客廳","city":"tainan","wifi":4,"seat":5,"quiet":4,"tasty":4,"cheap":3,"music":4,"url":"https://www.facebook.com/MumuBrunch/?ref=br_rs","address":"台南市中西區開山路35巷16號","latitude":"22.99106680","longitude":"120.20648820","limited_time":"","socket":"","standing_desk":"","mrt":"","open_time":"09:00 - 17:30"},{"id":"73a5c0e7-2c5b-4535-9c24-5c8bb74ec677","name":"握咖啡台南赤崁店","city":"tainan","wifi":0,"seat":0,"quiet":0,"tasty":0,"cheap":0,"music":0,"url":"","address":"700台南市中西區成功路223號後棟","latitude":"22.99862310","longitude":"120.20413540","limited_time":"","socket":"","standing_desk":"","mrt":"","open_time":""},{"id":"7634087a-26eb-47cb-b3d8-2d21ab18a8f5","name":"加比萊瑟思 License.CAF'E","city":"tainan","wifi":0,"seat":0,"quiet":0,"tasty":5,"cheap":4,"music":0,"url":"https://www.facebook.com/cafelicense2016","address":"700台南市民權路一段270號","latitude":"22.99343370","longitude":"120.20691040","limited_time":"no","socket":"no","standing_desk":"no","mrt":"","open_time":""},{"id":"76c72f1c-d966-40ba-91bf-7e07afecd16c","name":"双生 Shuànsên Cafe","city":"tainan","wifi":5,"seat":4,"quiet":4.5,"tasty":5,"cheap":5,"music":5,"url":"https://www.facebook.com/ShuansenCafe/","address":"台南市中西區忠義路二段147巷17號","latitude":"22.99597970","longitude":"120.20305720","limited_time":"yes","socket":"maybe","standing_desk":"","mrt":"","open_time":"09:30~賣完為止 周一休"},{"id":"77f43040-111b-46e2-816a-7fda1ce6fc30","name":"BORN 2 HER Cafe 她她咖啡","city":"tainan","wifi":5,"seat":5,"quiet":4,"tasty":5,"cheap":5,"music":5,"url":"https://www.facebook.com/born2her/","address":"台南市西華南街28號","latitude":"22.99364460","longitude":"120.20936280","limited_time":"no","socket":"maybe","standing_desk":"no","mrt":"","open_time":"12:30 - 21:30"},{"id":"79e0a000-ca7b-4ed6-9e01-116008db3c5a","name":"朋友的朋友咖啡店","city":"tainan","wifi":0,"seat":0,"quiet":0,"tasty":0,"cheap":0,"music":0,"url":"","address":"台南市中西區建安街51巷30號","latitude":"22.98790160","longitude":"120.19543050","limited_time":"","socket":"","standing_desk":"","mrt":"","open_time":""},{"id":"79ea2e99-3e61-49f8-a2cf-df4a264e3d6f","name":"生命樹咖啡","city":"tainan","wifi":5,"seat":5,"quiet":5,"tasty":5,"cheap":5,"music":5,"url":"https://www.facebook.com/lifetreesilkroadcoffee/","address":"台南市東區小東路350號","latitude":"22.99837170","longitude":"120.23349520","limited_time":"no","socket":"yes","standing_desk":"yes","mrt":"","open_time":""},{"id":"7b6e2035-8778-4fcf-98ba-37b3c1bd83a3","name":"裁縫師深夜咖啡館 coffee bar","city":"tainan","wifi":5,"seat":4,"quiet":4,"tasty":5,"cheap":4,"music":5,"url":"https://www.facebook.com/tailorcoffeebar","address":"臺南市安平區延平街122號","latitude":"23.00081150","longitude":"120.16220340","limited_time":"maybe","socket":"maybe","standing_desk":"yes","mrt":"","open_time":""},{"id":"7c491c8b-3122-4a45-ad6e-14393f492d63","name":"曼頓咖啡Manton Coffee-成大店24H","city":"tainan","wifi":3.5,"seat":4,"quiet":3,"tasty":3,"cheap":4,"music":3.5,"url":"https://www.facebook.com/MantonNCKU/?ref=br_rs","address":"台南市小東路151號","latitude":"23.00037810","longitude":"120.22687350","limited_time":"","socket":"maybe","standing_desk":"yes","mrt":"","open_time":"24HR"},{"id":"7da69f3c-f73b-47b3-a150-275a287bc787","name":"Et咖啡","city":"tainan","wifi":0,"seat":5,"quiet":5,"tasty":5,"cheap":5,"music":3,"url":"","address":"台南市臨安路二段253號","latitude":"23.00448930","longitude":"120.20105830","limited_time":"no","socket":"maybe","standing_desk":"no","mrt":"","open_time":""},{"id":"7ed76005-09d8-422d-92ad-0e6df1b3f2c4","name":"David yang cafe","city":"tainan","wifi":1,"seat":5,"quiet":4.5,"tasty":5,"cheap":5,"music":5,"url":"","address":"台南市府前路一段185號","latitude":"22.98889690","longitude":"120.20483560","limited_time":"no","socket":"maybe","standing_desk":"yes","mrt":"","open_time":"8:00-18:00"},{"id":"7ee1516f-1391-4b19-944e-e5f80d539554","name":"私人藏豆 Coffellection","city":"tainan","wifi":0,"seat":5,"quiet":3,"tasty":5,"cheap":5,"music":3,"url":"","address":"台南市東區崇德路333巷1號","latitude":"22.98131790","longitude":"120.21814990","limited_time":"","socket":"","standing_desk":"","mrt":"","open_time":""},{"id":"7f01e748-2241-4864-98e0-1ff0b91d89c6","name":"鹿柴咖啡","city":"tainan","wifi":5,"seat":0,"quiet":5,"tasty":4,"cheap":0,"music":5,"url":"","address":"708, Taiwan, Tainan City, Anping District, Jiankang 3rd Street, 77號","latitude":"22.98682680","longitude":"120.16816540","limited_time":"no","socket":"maybe","standing_desk":"","mrt":"","open_time":""},{"id":"7f3807fa-23cc-48ac-af5f-2c67b4a7f406","name":"圻圻。嚴選咖啡","city":"tainan","wifi":5,"seat":5,"quiet":5,"tasty":5,"cheap":5,"music":5,"url":"https://www.facebook.com/kickeycoffee/","address":"台南市新市區大營里豐榮17-3號","latitude":"23.08967770","longitude":"120.30643530","limited_time":"maybe","socket":"no","standing_desk":"yes","mrt":"","open_time":"開始營業時間不穩定"},{"id":"8083c5a3-4ae6-47d9-b976-55af4fc45647","name":"ST.1 Cafe'","city":"tainan","wifi":4.5,"seat":4,"quiet":4,"tasty":4.5,"cheap":3.5,"music":4.5,"url":"https://www.facebook.com/st1cafe/","address":"台南市永康區大橋一街328號","latitude":"23.01970780","longitude":"120.23237960","limited_time":"maybe","socket":"maybe","standing_desk":"no","mrt":"","open_time":""},{"id":"81a440cf-1050-467c-9c41-ca68583e5852","name":"貓薄荷咖啡","city":"tainan","wifi":4,"seat":4,"quiet":5,"tasty":4,"cheap":4,"music":4,"url":"https://www.facebook.com/sweets.coffee.cats/","address":"台南市安平區育平九街235號","latitude":"22.99527000","longitude":"120.17009130","limited_time":"no","socket":"maybe","standing_desk":"no","mrt":"","open_time":"10:30 - 18:00 周一休"},{"id":"824675cb-abdf-4135-b5e8-259ff0a89911","name":"萃行咖啡館 Atelier Pure","city":"tainan","wifi":5,"seat":5,"quiet":5,"tasty":5,"cheap":4,"music":5,"url":"https://www.facebook.com/AtelierPureCafe/","address":"台南市南區樹林街二段420號","latitude":"22.98652530","longitude":"120.19699270","limited_time":"no","socket":"yes","standing_desk":"yes","mrt":"","open_time":""},{"id":"8309a7c7-2a75-49db-b6e9-176c0b781b22","name":"Lu.CY Coffee Roast & Brew","city":"tainan","wifi":5,"seat":5,"quiet":5,"tasty":5,"cheap":5,"music":5,"url":"https://www.facebook.com/Lu.CYcoffeestudio/","address":"台南市北區 育德二路340號 ","latitude":"23.01467960","longitude":"120.20335380","limited_time":"no","socket":"no","standing_desk":"no","mrt":"","open_time":""},{"id":"85ac9359-a6a5-4d12-8577-c69f4d986bc0","name":"L'esprit café","city":"tainan","wifi":4,"seat":4,"quiet":4,"tasty":5,"cheap":3,"music":5,"url":"https://www.facebook.com/LespritCafe/","address":"台南市中西區民生路二段401號","latitude":"22.99752300","longitude":"120.18851560","limited_time":"","socket":"","standing_desk":"","mrt":"","open_time":"09:00 - 19:30 週二休"},{"id":"869b3ba3-7af9-4a74-a186-512e2b2dc61a","name":"南島夢遊","city":"tainan","wifi":4,"seat":4,"quiet":4,"tasty":3,"cheap":3,"music":4,"url":"https://www.facebook.com/dreamXdrift/","address":"台南市北區公園路487巷18號","latitude":"23.00917260","longitude":"120.20953270","limited_time":"","socket":"","standing_desk":"","mrt":"","open_time":"10:00 - 18:00 週二三休"},{"id":"894faf32-f2b4-433b-89f2-37d4d2f38866","name":"咖啡森活","city":"tainan","wifi":5,"seat":5,"quiet":5,"tasty":5,"cheap":4,"music":5,"url":"https://www.facebook.com/coffeelife1124/","address":"台南市東區東門路一段52巷3弄5號","latitude":"22.98816640","longitude":"120.21295410","limited_time":"no","socket":"yes","standing_desk":"no","mrt":"","open_time":""},{"id":"89b1f554-ea40-4926-ba94-cf36878c8a13","name":"是吉咖啡","city":"tainan","wifi":4.5,"seat":2,"quiet":3,"tasty":3,"cheap":2,"music":4,"url":"https://www.facebook.com/twcafeichi/","address":"台南市北區公園路295巷50-2號","latitude":"23.00392170","longitude":"120.20913930","limited_time":"maybe","socket":"no","standing_desk":"no","mrt":"","open_time":""},{"id":"8c3a7271-d805-424f-950e-28ebdbaad804","name":"代謝俱楽部","city":"tainan","wifi":3.5,"seat":3,"quiet":4.5,"tasty":4,"cheap":5,"music":4.5,"url":"https://www.facebook.com/DaixieClub/","address":"台南市北區開元路212巷126號","latitude":"23.00504150","longitude":"120.22414360","limited_time":"","socket":"","standing_desk":"no","mrt":"","open_time":"有臨時店休或特別休假，以臉書宣布的營業時間為主"},{"id":"8c6751e3-656d-4db3-8397-8ecd8d437990","name":"大鋤花間","city":"tainan","wifi":3,"seat":3,"quiet":3,"tasty":3,"cheap":2,"music":3,"url":"https://www.facebook.com/pages/%E5%A4%A7%E9%8B%A4%E8%8A%B1%E9%96%93/142333645830278","address":"733 台南市台南市東山區高原村高原109之17號 (台南縣東山鄉175線道11.5公里)","latitude":"23.28399270","longitude":"120.50135330","limited_time":"no","socket":"no","standing_desk":"no","mrt":"","open_time":""},{"id":"8caa38a3-6ac7-41f4-9ee2-988fd4b84686","name":"PIANO,PIANO","city":"tainan","wifi":0,"seat":0,"quiet":0,"tasty":0,"cheap":0,"music":0,"url":"https://www.facebook.com/PIANOPIANO-141154832635987/","address":"台南市中西區府前路一段342巷19號","latitude":"22.99118440","longitude":"120.19845380","limited_time":"","socket":"","standing_desk":"","mrt":"","open_time":""},{"id":"8d501edf-aebc-4f21-a32a-01a04c4c3b2d","name":"聶樓","city":"tainan","wifi":0,"seat":5,"quiet":5,"tasty":4,"cheap":3,"music":5,"url":"https://www.facebook.com/niielou/?fref=ts","address":"700台南市中西區信義街60巷3號","latitude":"0.00000000","longitude":"0.00000000","limited_time":"","socket":"","standing_desk":"","mrt":"","open_time":""},{"id":"8f9ebc09-4537-4643-9049-3288308e6bc5","name":"窩餐廳--咖啡話語","city":"tainan","wifi":0,"seat":5,"quiet":5,"tasty":5,"cheap":5,"music":2,"url":"https://m.facebook.com/cafewhispering/?locale2=zh_TW","address":"台南市中西區友愛街261號","latitude":"22.99198860","longitude":"120.19640160","limited_time":"maybe","socket":"maybe","standing_desk":"yes","mrt":"","open_time":""},{"id":"90aec48b-ff49-4e3c-9fa1-0e340fc433f2","name":"沒有咖啡","city":"tainan","wifi":0,"seat":0,"quiet":0,"tasty":0,"cheap":0,"music":0,"url":"","address":"701台南市東區裕豐街84巷6號","latitude":"0.00000000","longitude":"0.00000000","limited_time":"","socket":"maybe","standing_desk":"no","mrt":"","open_time":""},{"id":"9144170f-9fea-43dc-899d-18e77c3c1fea","name":"雷克斯咖啡吧","city":"tainan","wifi":0,"seat":4,"quiet":4,"tasty":5,"cheap":5,"music":4,"url":"https://www.facebook.com/Rexespressobar/","address":"台南市北區南園街153巷2號","latitude":"23.00633770","longitude":"120.22568120","limited_time":"","socket":"","standing_desk":"","mrt":"","open_time":""},{"id":"92f21750-89f5-4c63-9048-d7a67ec26df1","name":"哈本咖啡(隨行吧) Happen Coffee","city":"tainan","wifi":0,"seat":0,"quiet":0,"tasty":0,"cheap":0,"music":0,"url":"","address":"700台南市中西區中正路86號","latitude":"22.99229300","longitude":"120.20085100","limited_time":"","socket":"","standing_desk":"","mrt":"","open_time":""},{"id":"9374a1fb-2db2-4cde-95b2-b080871cd7e8","name":"悠豆咖啡","city":"tainan","wifi":0,"seat":5,"quiet":2,"tasty":5,"cheap":5,"music":0,"url":"","address":"734台南市六甲區民生街47號","latitude":"23.22760900","longitude":"120.35176000","limited_time":"no","socket":"no","standing_desk":"no","mrt":"","open_time":"老闆很看心情"},{"id":"93e0d452-d09b-41c0-a69e-c4d6aa709731","name":"尚品咖啡 (南門店)","city":"tainan","wifi":5,"seat":5,"quiet":3,"tasty":5,"cheap":4,"music":0,"url":"https://www.facebook.com/sanpincoffee1980/","address":"台南市中西區南門路233-6號","latitude":"22.98327310","longitude":"120.20423300","limited_time":"no","socket":"","standing_desk":"no","mrt":"","open_time":""},{"id":"9900de78-4a89-438a-8ec8-3c1e59a2396f","name":"美麗少婦的羽球咖-白色小舖子","city":"tainan","wifi":5,"seat":5,"quiet":5,"tasty":5,"cheap":3,"music":5,"url":"","address":"台南市東區裕信路166號","latitude":"22.98728180","longitude":"120.24500480","limited_time":"no","socket":"maybe","standing_desk":"no","mrt":"","open_time":""},{"id":"999879a0-4fde-425d-8673-9221c34d9ac2","name":"Louisa Coffee 路易．莎咖啡(台南大同門市)","city":"tainan","wifi":0,"seat":4,"quiet":2,"tasty":5,"cheap":5,"music":4,"url":"https://www.louisacoffee.co/","address":"700台南市中西區大同路一段214號","latitude":"22.98267850","longitude":"120.21111440","limited_time":"no","socket":"maybe","standing_desk":"yes","mrt":"","open_time":""},{"id":"9bc56aa6-e56c-451b-be3f-37c25b21d980","name":"曉咖啡","city":"tainan","wifi":4,"seat":4.5,"quiet":4,"tasty":4.5,"cheap":4,"music":4,"url":"https://www.facebook.com/akatsukicoffee/","address":" 台南市中西區忠義路一段84巷6弄2號","latitude":"22.98696710","longitude":"120.20205100","limited_time":"no","socket":"maybe","standing_desk":"no","mrt":"","open_time":""},{"id":"9bf00b32-494d-4fda-9130-e749e160c720","name":"吉光咖啡","city":"tainan","wifi":5,"seat":3,"quiet":4,"tasty":4,"cheap":4,"music":4,"url":"","address":"台南市東區光華街229巷28弄9號","latitude":"22.98588410","longitude":"120.21399140","limited_time":"","socket":"","standing_desk":"","mrt":"","open_time":""},{"id":"9c34cb14-2844-42d9-8a0a-5a66e6e4ebba","name":"極萃咖啡Kaffuns Brew Coffee","city":"tainan","wifi":0,"seat":4,"quiet":5,"tasty":5,"cheap":5,"music":5,"url":"","address":"台南市中西區新美街5號","latitude":"22.99448400","longitude":"120.20004190","limited_time":"","socket":"","standing_desk":"","mrt":"","open_time":""},{"id":"9c6f77ed-6b26-49ca-96c0-425ad2ab53be","name":"旺德實驗室","city":"tainan","wifi":5,"seat":5,"quiet":5,"tasty":5,"cheap":4,"music":5,"url":"https://www.facebook.com/WLAB.10BF/","address":"台南市北區公園路437巷10號","latitude":"23.00827480","longitude":"120.20952290","limited_time":"maybe","socket":"maybe","standing_desk":"no","mrt":"","open_time":""},{"id":"9caaa850-a39e-45ea-afbc-e2256267652a","name":"MixCoffee","city":"tainan","wifi":5,"seat":5,"quiet":5,"tasty":5,"cheap":5,"music":4,"url":"","address":"台南市永康區中華路23巷9號","latitude":"22.99979520","longitude":"120.23403820","limited_time":"no","socket":"yes","standing_desk":"yes","mrt":"","open_time":"不定休"},{"id":"9cae70e6-7d8e-4db6-9548-4fbd78f76b9b","name":"甘單咖啡","city":"tainan","wifi":5,"seat":3,"quiet":4,"tasty":5,"cheap":4,"music":4,"url":"https://www.facebook.com/%E9%96%8B%E9%9A%86%E5%AE%AE-%E7%94%98%E5%96%AE%E5%92%96%E5%95%A1-148567851869417/?fref=ts","address":"台南市中西區民權路二段4巷13號","latitude":"22.99414540","longitude":"120.20677240","limited_time":"no","socket":"no","standing_desk":"yes","mrt":"","open_time":"每個月最後一週的 星期一~星期四公休"},{"id":"9d92d2d9-322c-44c3-aebc-2bb9fd40f49c","name":"銅板咖啡","city":"tainan","wifi":0,"seat":0,"quiet":0,"tasty":0,"cheap":0,"music":0,"url":"","address":"台南市中西區忠義路二段141號","latitude":"22.99561740","longitude":"120.20384430","limited_time":"","socket":"","standing_desk":"","mrt":"","open_time":""},{"id":"9df5ea5a-57bb-4d02-a96e-ea5f28fe315a","name":" 臺南・特有種商行","city":"tainan","wifi":5,"seat":4,"quiet":4,"tasty":4,"cheap":4,"music":5,"url":"https://www.facebook.com/RealgutsCafe.Tainan/","address":"臺南市中西區正興街71號","latitude":"22.99411910","longitude":"120.19700200","limited_time":"","socket":"yes","standing_desk":"no","mrt":"","open_time":""},{"id":"a0488209-c163-4349-9963-e58bb346ce88","name":"Dos Café 逗室","city":"tainan","wifi":5,"seat":5,"quiet":5,"tasty":5,"cheap":5,"music":5,"url":"https://www.facebook.com/doscafe8/","address":"台南市中西區忠義路二段8號","latitude":"22.99108400","longitude":"120.20274220","limited_time":"maybe","socket":"maybe","standing_desk":"no","mrt":"","open_time":""},{"id":"a08dd144-3acd-4b2e-b667-99b8b5788a2d","name":"belonginn","city":"tainan","wifi":5,"seat":5,"quiet":4,"tasty":5,"cheap":4,"music":5,"url":"","address":"台南市神農街80號","latitude":"22.99791100","longitude":"120.19672200","limited_time":"","socket":"","standing_desk":"","mrt":"","open_time":""},{"id":"a2b0369e-8dd1-4ceb-9e7c-52180e1b8ac8","name":"parkview綠帕克","city":"tainan","wifi":5,"seat":5,"quiet":5,"tasty":5,"cheap":5,"music":5,"url":"","address":"台南市東區育樂街250號","latitude":"22.99198700","longitude":"120.21439360","limited_time":"","socket":"","standing_desk":"","mrt":"","open_time":""},{"id":"a5433fb9-13f4-4898-bdba-4d3a6e0b5cd1","name":"老棧","city":"tainan","wifi":0,"seat":0,"quiet":0,"tasty":0,"cheap":0,"music":0,"url":"","address":"台南市仁德區中正路二段669號","latitude":"22.95978190","longitude":"120.25318040","limited_time":"","socket":"","standing_desk":"","mrt":"","open_time":""},{"id":"a5cae1cf-4005-4376-8fb5-dde1365f3296","name":"有邑家咖啡","city":"tainan","wifi":5,"seat":5,"quiet":5,"tasty":5,"cheap":5,"music":5,"url":"https://www.facebook.com/HomefromHome3147/","address":"台南市北區海安路三段147號","latitude":"23.00496220","longitude":"120.19962320","limited_time":"no","socket":"","standing_desk":"","mrt":"","open_time":""},{"id":"a678d905-8540-4350-89b2-50646d429968","name":"南找咖啡","city":"tainan","wifi":4,"seat":4,"quiet":3,"tasty":3,"cheap":4,"music":4,"url":"","address":"704台南市北區長榮路五段406巷28號","latitude":"23.01411760","longitude":"120.21471900","limited_time":"maybe","socket":"maybe","standing_desk":"no","mrt":"","open_time":""},{"id":"a83ffcde-53ba-41b5-8097-2b1aa8bbbc36","name":"奇美咖啡館","city":"tainan","wifi":5,"seat":5,"quiet":4,"tasty":1,"cheap":4,"music":3,"url":"https://www.facebook.com/cafechimei/","address":"台南市東區大學路1號","latitude":"22.99624360","longitude":"120.22217190","limited_time":"","socket":"","standing_desk":"","mrt":"","open_time":"08:00 - 20:00"},{"id":"a84767d6-c5e4-4da3-945f-db9ca9e75e86","name":"台南-秘氏咖啡","city":"tainan","wifi":4,"seat":4.5,"quiet":4,"tasty":4.5,"cheap":3.5,"music":5,"url":"https://www.facebook.com/cafechamber.tainan/","address":"台南市中西區國華街三段123之160","latitude":"22.99663220","longitude":"120.19847700","limited_time":"no","socket":"maybe","standing_desk":"no","mrt":"","open_time":""},{"id":"a8502b2b-b4dc-42cb-bc0b-381c10679afd","name":"豆谷咖啡 Dual Good","city":"tainan","wifi":5,"seat":5,"quiet":5,"tasty":2,"cheap":2,"music":4,"url":"","address":"台南市永康區崑山街4巷9號","latitude":"23.00073610","longitude":"120.25836210","limited_time":"","socket":"","standing_desk":"","mrt":"","open_time":""},{"id":"a8989be1-2940-4236-b992-a479a8cbc758","name":"貓吐司","city":"tainan","wifi":5,"seat":5,"quiet":4,"tasty":4,"cheap":5,"music":4,"url":"https://www.facebook.com/fatcattoast/","address":"台南市東區大學路22巷16-1號","latitude":"22.99501680","longitude":"120.22112030","limited_time":"","socket":"no","standing_desk":"no","mrt":"","open_time":""},{"id":"a960dd99-a1e6-4f53-95a6-0d74889860af","name":"瑞尹咖啡館Rui Yin Cafe","city":"tainan","wifi":0,"seat":0,"quiet":0,"tasty":0,"cheap":0,"music":0,"url":"","address":"台南市東區裕信路201號","latitude":"22.98338530","longitude":"120.24513240","limited_time":"","socket":"","standing_desk":"","mrt":"","open_time":""},{"id":"ae36c4cf-8e83-4732-9c98-df7f289ec8a7","name":"Ho-Yo Cookies","city":"tainan","wifi":0,"seat":5,"quiet":4,"tasty":4,"cheap":4,"music":4,"url":"","address":"700台南市中西區中正路138巷6號","latitude":"22.99289160","longitude":"120.19955280","limited_time":"no","socket":"maybe","standing_desk":"yes","mrt":"","open_time":""},{"id":"ae39c052-360e-4dc5-a2f5-3783bcbd54f9","name":"自己的房間","city":"tainan","wifi":5,"seat":4,"quiet":3,"tasty":5,"cheap":4,"music":5,"url":"https://www.instagram.com/aroomofonesown160/","address":"台南市中西區新美街160號","latitude":"22.99750500","longitude":"120.20119900","limited_time":"","socket":"","standing_desk":"no","mrt":"","open_time":""},{"id":"afa06993-3720-4634-9553-4b2a66d8bfe1","name":"小雨咖啡 Café Drizzle","city":"tainan","wifi":4,"seat":3.5,"quiet":4,"tasty":4.5,"cheap":4.5,"music":4.5,"url":"https://www.facebook.com/cafe3952/?fref=ts","address":"台南市中西區海安路一段133號","latitude":"22.99079130","longitude":"120.19539100","limited_time":"no","socket":"maybe","standing_desk":"no","mrt":"","open_time":""},{"id":"b0551959-d912-46fc-bcad-50e72baf1134","name":"毛伊咖啡","city":"tainan","wifi":4.5,"seat":4.5,"quiet":2.5,"tasty":3.5,"cheap":3.5,"music":3.5,"url":"https://www.facebook.com/Mauicoffee.Tainan/","address":"台南市東區東門路二段385號","latitude":"22.98224830","longitude":"120.22840870","limited_time":"maybe","socket":"yes","standing_desk":"","mrt":"","open_time":"09:00 - 21:00"},{"id":"b074654a-ccb2-4e8e-9841-518134ec9f96","name":"日日咖啡","city":"tainan","wifi":5,"seat":4,"quiet":5,"tasty":4,"cheap":4,"music":4,"url":"https://www.facebook.com/anicedaycoffee/","address":"台南市永康區中華路23巷1-2號","latitude":"22.99869300","longitude":"120.23405800","limited_time":"","socket":"","standing_desk":"","mrt":"","open_time":"09:00 - 17:00 六日-18:00 週二休"},{"id":"b30bd965-37b8-41dd-84f2-acf78e14b5fe","name":"勝曼咖啡 公園店","city":"tainan","wifi":5,"seat":5,"quiet":4,"tasty":5,"cheap":5,"music":4,"url":"","address":"台南市北區公園路916號","latitude":"23.01510960","longitude":"120.21349740","limited_time":"no","socket":"maybe","standing_desk":"yes","mrt":"","open_time":""},{"id":"b4092f3b-2fcf-4267-bfa3-e379e212f1b6","name":"漿果咖啡","city":"tainan","wifi":5,"seat":3.5,"quiet":3.5,"tasty":4,"cheap":2.5,"music":3.5,"url":"","address":"712台南市新化区復興路285-1號","latitude":"23.03514100","longitude":"120.31054240","limited_time":"no","socket":"maybe","standing_desk":"no","mrt":"","open_time":""},{"id":"b4f95596-1e30-4d16-8249-95892fcd5d41","name":"Coffee x Conscience","city":"tainan","wifi":5,"seat":5,"quiet":4.5,"tasty":5,"cheap":4.5,"music":4.5,"url":"https://www.facebook.com/ConscienceTaiwan/","address":"台南市東區崇德21街138巷23號","latitude":"22.96702060","longitude":"120.23173780","limited_time":"maybe","socket":"maybe","standing_desk":"yes","mrt":"","open_time":""},{"id":"b6a75208-7361-496e-95d4-08f213e1ffd2","name":"手草生活","city":"tainan","wifi":0,"seat":0,"quiet":0,"tasty":0,"cheap":0,"music":0,"url":"","address":"台南市北區裕民街72巷12號","latitude":"22.99971000","longitude":"120.20505220","limited_time":"","socket":"","standing_desk":"","mrt":"","open_time":""},{"id":"b71f252f-704c-40b1-b73b-33618e02a4e1","name":"雄雄食社","city":"tainan","wifi":4,"seat":4,"quiet":5,"tasty":4,"cheap":4,"music":4,"url":"https://www.facebook.com/XiongXiongSnack/?fref=ts","address":"台南市東區東光路二段152號","latitude":"22.99826640","longitude":"120.23185190","limited_time":"","socket":"maybe","standing_desk":"no","mrt":"","open_time":""},{"id":"b842353f-667d-43ed-80ac-1042158413a5","name":"Wooli cafe屋裡自家烘焙咖啡店","city":"tainan","wifi":4,"seat":4.5,"quiet":4,"tasty":4,"cheap":4,"music":4,"url":"https://www.facebook.com/muskaemilycoffee/","address":"台南市永康區東橋三路476號","latitude":"23.02404450","longitude":"120.23242480","limited_time":"no","socket":"no","standing_desk":"no","mrt":"","open_time":""},{"id":"be206fd9-2ca0-4107-aa8b-bad194625cd9","name":"134巷內的女巫's","city":"tainan","wifi":5,"seat":5,"quiet":5,"tasty":4,"cheap":4,"music":4,"url":"https://www.facebook.com/witchesin134/","address":"台南市東區東寧路134巷61-2號","latitude":"22.99072680","longitude":"120.22322030","limited_time":"yes","socket":"no","standing_desk":"no","mrt":"","open_time":"09:00 ~ 16:30 週一～四休 (早午餐供應至下午2:30)"},{"id":"beb960f8-d0cc-4d42-bbfb-d42c620b6a79","name":"塗鴉空間 書店 小酒館 - Picturesque","city":"tainan","wifi":5,"seat":5,"quiet":4,"tasty":4,"cheap":5,"music":5,"url":"https://www.facebook.com/picturesquebookstore/","address":"台南市東區大學路18巷18-1號","latitude":"22.99461010","longitude":"120.22074790","limited_time":"","socket":"","standing_desk":"","mrt":"","open_time":"10:00 - 22:00 周一休"},{"id":"bef9904f-0317-41c4-b47f-6f9d2ec5746e","name":"Hour Jungle共同工作室（台南崇學館）","city":"tainan","wifi":5,"seat":5,"quiet":5,"tasty":4,"cheap":5,"music":5,"url":"https://www.facebook.com/HourJungle/","address":"台南市東區崇學路165號7樓","latitude":"22.98013160","longitude":"120.22329660","limited_time":"no","socket":"yes","standing_desk":"yes","mrt":"","open_time":"獨立包廂24小時"},{"id":"c0ec40f6-c17c-43b9-a098-f8796e0348d7","name":" 樸澍 咖啡館","city":"tainan","wifi":5,"seat":5,"quiet":5,"tasty":4,"cheap":4,"music":5,"url":"https://www.facebook.com/CafePrimitive/","address":"台南市東區榮譽街23號","latitude":"22.97408090","longitude":"120.21568510","limited_time":"no","socket":"yes","standing_desk":"yes","mrt":"","open_time":""},{"id":"c112f714-d301-4720-a3f2-d9ff3cd41af4","name":"安內咖啡","city":"tainan","wifi":5,"seat":4.5,"quiet":5,"tasty":5,"cheap":4,"music":4,"url":"https://www.facebook.com/An1943.coffee","address":"台南市永康區大橋一街73巷34號","latitude":"23.01817160","longitude":"120.22809170","limited_time":"no","socket":"maybe","standing_desk":"no","mrt":"","open_time":"13:00 - 21:00 周一休"},{"id":"c191a9f9-8fd5-4857-b429-44d89bdf169d","name":"叁七茶房","city":"tainan","wifi":4,"seat":4.5,"quiet":3.5,"tasty":4.5,"cheap":4.5,"music":4.5,"url":"https://www.facebook.com/37cafetea","address":"台南市北區忠義路三段68號1樓","latitude":"22.99730000","longitude":"120.20072100","limited_time":"maybe","socket":"maybe","standing_desk":"yes","mrt":"","open_time":""},{"id":"c34d88e1-296e-48cf-9e30-bb928372a24a","name":"巷隅咖啡Lane Corner Coffee","city":"tainan","wifi":0,"seat":0,"quiet":0,"tasty":0,"cheap":0,"music":0,"url":"","address":"台南市東區中華東路三段399巷5號","latitude":"22.97316600","longitude":"120.22057000","limited_time":"","socket":"","standing_desk":"","mrt":"","open_time":""},{"id":"c74c7b6e-739f-440a-aaa2-5ca822d4d26b","name":"Meller 墨樂咖啡","city":"tainan","wifi":5,"seat":5,"quiet":5,"tasty":5,"cheap":5,"music":5,"url":"https://www.facebook.com/MellerCoffee/","address":"台南市安平區安北路53號","latitude":"23.00077960","longitude":"120.16635500","limited_time":"no","socket":"","standing_desk":"no","mrt":"","open_time":""},{"id":"c9bcd745-78d3-434f-a04d-270d382e4ebb","name":"午營咖啡 a break cafe","city":"tainan","wifi":5,"seat":5,"quiet":5,"tasty":5,"cheap":4,"music":5,"url":"https://www.facebook.com/abreakcafe/","address":"台南市南區福吉路64號","latitude":"22.98210150","longitude":"120.19309310","limited_time":"no","socket":"yes","standing_desk":"yes","mrt":"","open_time":"14:00 - 23:00，每周三公休"},{"id":"ca26bc59-e486-44dc-b33f-831b5f9ebd7e","name":"覓拾coffee","city":"tainan","wifi":5,"seat":5,"quiet":4,"tasty":4,"cheap":4,"music":4,"url":"https://www.facebook.com/%E8%A6%93%E6%8B%BEcoffee-1841900586043285/","address":"台南市東區立德2路38號","latitude":"22.97776930","longitude":"120.21472170","limited_time":"","socket":"maybe","standing_desk":"","mrt":"","open_time":"09:00-17:00 (最後點餐時間16:00) 公休日每月FB公布"},{"id":"caa35b81-98c9-48e0-8297-eb1879e87a62","name":"Cama現烘咖啡專門店-台南西門店","city":"tainan","wifi":5,"seat":4,"quiet":5,"tasty":4,"cheap":3,"music":3,"url":"http://www.camacafe.com/","address":"台南市中西區西門路一段701號","latitude":"22.98796210","longitude":"120.19735830","limited_time":"no","socket":"maybe","standing_desk":"no","mrt":"","open_time":""},{"id":"cb382d7c-4908-4e54-8625-405f0c3e3ccf","name":"mini izzy cafe 府前店","city":"tainan","wifi":1,"seat":4,"quiet":1,"tasty":3,"cheap":3,"music":2,"url":"","address":"台南市中西區府前路一段172-1號","latitude":"22.98922270","longitude":"120.20666490","limited_time":"no","socket":"no","standing_desk":"yes","mrt":"","open_time":""},{"id":"cc67a8be-eea0-4c6a-b798-0fbdcb2b4dca","name":"More Cafe,摩爾咖啡","city":"tainan","wifi":4,"seat":5,"quiet":4,"tasty":3,"cheap":3,"music":3,"url":"https://www.facebook.com/HelloMoreCafe?ref=hl","address":"台南市中西區赤崁街47號","latitude":"22.99778810","longitude":"120.20348090","limited_time":"no","socket":"maybe","standing_desk":"no","mrt":"","open_time":"11～19"},{"id":"cc8bc6e8-62e5-497c-b96a-b30aee7196d3","name":"Kizuna Café","city":"tainan","wifi":5,"seat":5,"quiet":5,"tasty":5,"cheap":4,"music":5,"url":"","address":" 71248台南市新化區民治路23號","latitude":"23.03230510","longitude":"120.30454960","limited_time":"","socket":"","standing_desk":"","mrt":"","open_time":""},{"id":"cdd60f24-9b0a-4992-b7e3-558a3f791f44","name":"Mini izzy cafe中華店","city":"tainan","wifi":4,"seat":5,"quiet":4,"tasty":4,"cheap":4,"music":4,"url":"https://www.facebook.com/miniizzycafe2/","address":"台南市東區中華東路三段72號","latitude":"22.97954070","longitude":"120.22780280","limited_time":"no","socket":"yes","standing_desk":"yes","mrt":"","open_time":""},{"id":"d041eb3f-7cf1-45fe-bdc9-0628c158afc9","name":"咖啡匙","city":"tainan","wifi":0,"seat":0,"quiet":0,"tasty":0,"cheap":0,"music":0,"url":"","address":"704台南市北區文成五街66號","latitude":"23.01886460","longitude":"120.20499280","limited_time":"","socket":"","standing_desk":"","mrt":"","open_time":""},{"id":"d140aa0f-3d1c-4964-9280-558ca8c3b774","name":"月牙兒彎彎 Le Croissant de Lune","city":"tainan","wifi":0,"seat":0,"quiet":0,"tasty":0,"cheap":0,"music":0,"url":"","address":"701台南市東區東興路20巷109號","latitude":"22.99052400","longitude":"120.22994800","limited_time":"","socket":"","standing_desk":"","mrt":"","open_time":""},{"id":"d92e0b21-5288-4cd8-b0df-d84eb15b8ca5","name":"Mini Izzy cafe 小東店","city":"tainan","wifi":0,"seat":0,"quiet":0,"tasty":0,"cheap":0,"music":0,"url":"","address":"710台南市永康區小東路553號","latitude":"22.99877020","longitude":"120.23651760","limited_time":"","socket":"","standing_desk":"","mrt":"","open_time":""},{"id":"da273534-985e-4d43-85d8-00b2a2b4e0fa","name":"雨露微亮 everiridescent","city":"tainan","wifi":5,"seat":3,"quiet":3,"tasty":4,"cheap":3,"music":4,"url":"https://www.facebook.com/everiridescent/","address":"台南市北區富北街64號","latitude":"22.99930480","longitude":"120.21157910","limited_time":"no","socket":"maybe","standing_desk":"yes","mrt":"","open_time":"依預約情況決定營業時間"},{"id":"db429664-18d8-4ff2-82e5-8886e165f8f9","name":"喝我咖啡 Hold My Cafe‘ 咖啡豆專門店","city":"tainan","wifi":0,"seat":5,"quiet":5,"tasty":5,"cheap":5,"music":5,"url":"https://linktr.ee/holdmycafe","address":"700台南市中西區康樂街282巷17號","latitude":"22.99943210","longitude":"120.19721820","limited_time":"maybe","socket":"maybe","standing_desk":"yes","mrt":"","open_time":"提供咖啡飲品外帶、咖啡熟豆販售"},{"id":"dc6300f3-a755-4d16-9f70-c2afc207472a","name":"ROOM A","city":"tainan","wifi":5,"seat":4,"quiet":5,"tasty":5,"cheap":4,"music":5,"url":"https://www.facebook.com/on.RoomA/","address":"台南市中西區康樂街21號","latitude":"22.99075600","longitude":"120.19388500","limited_time":"yes","socket":"yes","standing_desk":"","mrt":"","open_time":"10:00 - 22:30 周二休"},{"id":"dd982a7b-40be-4ed7-b27e-aea2b727f942","name":"Paripari ","city":"tainan","wifi":5,"seat":4,"quiet":4,"tasty":5,"cheap":4,"music":5,"url":"","address":"台南市忠義路2段158巷9號","latitude":"22.99583470","longitude":"120.20452840","limited_time":"","socket":"","standing_desk":"","mrt":"","open_time":""},{"id":"de0d7c49-d2ac-4a60-871f-77eac120a0a5","name":"Miss Bossy Café","city":"tainan","wifi":0,"seat":0,"quiet":0,"tasty":0,"cheap":0,"music":0,"url":"https://www.facebook.com/Miss-Bossy-Caf%C3%A9-400688696777876/","address":"台南市中西區新美街185號","latitude":"22.99840300","longitude":"120.20156560","limited_time":"","socket":"","standing_desk":"","mrt":"","open_time":"14:00 - 19:00 周一~三休"},{"id":"de1e166d-9064-4600-b22b-698cc5c769c6","name":"寂寞先生 Mr.lonely Cafe & Bar","city":"tainan","wifi":0,"seat":3,"quiet":4,"tasty":4,"cheap":4,"music":5,"url":"https://www.facebook.com/mrlonelycafe/","address":"70261台灣台南市南區萬年路160巷6-3號","latitude":"22.93447320","longitude":"120.18554400","limited_time":"","socket":"","standing_desk":"","mrt":"","open_time":"11月開始營業"},{"id":"e0a92d53-802d-46a6-9b00-62d930cbf4f8","name":"木門 朝午洋食 MOMENT","city":"tainan","wifi":5,"seat":4,"quiet":4,"tasty":5,"cheap":4,"music":5,"url":"https://www.facebook.com/moment192/","address":"台南市中西區民權路一段192號","latitude":"22.99180860","longitude":"120.20804950","limited_time":"maybe","socket":"maybe","standing_desk":"no","mrt":"","open_time":""},{"id":"e0c49408-8fb3-4814-9a6c-a58aac529d72","name":"WO TANG XING 莪堂行","city":"tainan","wifi":0,"seat":0,"quiet":0,"tasty":0,"cheap":0,"music":0,"url":"https://www.facebook.com/wotangxing/","address":"台南市中西區府前路一段359巷22號","latitude":"22.98907500","longitude":"120.21038320","limited_time":"","socket":"","standing_desk":"","mrt":"","open_time":"11:30 - 20:30"},{"id":"e0c6d5ab-1599-4ba0-bb98-b6a0e2862aa5","name":"阿基里斯與龜珈琲","city":"tainan","wifi":4,"seat":5,"quiet":5,"tasty":4,"cheap":4,"music":5,"url":"https://www.facebook.com/aattcafe/","address":"台南市中西區湖美二街20巷10號","latitude":"22.99982160","longitude":"120.18229950","limited_time":"no","socket":"maybe","standing_desk":"no","mrt":"","open_time":""},{"id":"e3d23279-5c97-4d3d-a417-e1daba04c4d1","name":"肆樓咖啡","city":"tainan","wifi":0,"seat":5,"quiet":5,"tasty":5,"cheap":4,"music":5,"url":"https://www.facebook.com/slowcoffeeshop/","address":"台南市安平區延平街104巷21號","latitude":"23.00118590","longitude":"120.16260640","limited_time":"maybe","socket":"maybe","standing_desk":"no","mrt":"","open_time":""},{"id":"e56c9b0c-2d71-4bba-ad38-05273ea956f0","name":"M2 coffee shop 凱旋店","city":"tainan","wifi":5,"seat":5,"quiet":4,"tasty":4,"cheap":5,"music":4,"url":"","address":"701台南市東區凱旋路15號","latitude":"22.99294400","longitude":"120.23100100","limited_time":"no","socket":"maybe","standing_desk":"yes","mrt":"","open_time":""},{"id":"e5c58d42-bac9-429c-aaad-458e8041a0df","name":"甜在心咖啡館","city":"tainan","wifi":5,"seat":4,"quiet":4,"tasty":5,"cheap":4,"music":4,"url":"https://www.facebook.com/甜在心咖啡館-147910205312553/?fref=ts","address":"台南市北區北忠街58巷12號","latitude":"22.99906090","longitude":"120.21140670","limited_time":"no","socket":"maybe","standing_desk":"yes","mrt":"","open_time":"09:00-18:00"},{"id":"e672b74a-67d1-4d3b-b043-ee2eeb4ce49c","name":"賣 飲料 my beverages","city":"tainan","wifi":4,"seat":4,"quiet":4,"tasty":4,"cheap":4,"music":5,"url":"https://www.facebook.com/my.beverage/","address":"台南市中西區永福路二段142-1號","latitude":"22.99431400","longitude":"120.20150560","limited_time":"","socket":"maybe","standing_desk":"yes","mrt":"","open_time":"休假日:每月最後一個禮拜二~禮拜四(實際休假日期以臉書公告為主)"},{"id":"e960b4ba-add1-49fe-89e0-4338fc11be5c","name":"可斯里咖啡烘焙","city":"tainan","wifi":4,"seat":4,"quiet":4,"tasty":5,"cheap":5,"music":4,"url":"","address":"台南市北區海安路3段908號","latitude":"23.01838280","longitude":"120.20013900","limited_time":"no","socket":"maybe","standing_desk":"no","mrt":"","open_time":""},{"id":"e96cbda5-2377-43ab-b61d-5396fbc3c1e1","name":"六合境 茶弥","city":"tainan","wifi":5,"seat":5,"quiet":5,"tasty":5,"cheap":4,"music":5,"url":"https://www.facebook.com/r.sabiski/?fref=ts","address":"台南市中西區建業街18號2樓","latitude":"22.98786810","longitude":"120.20726330","limited_time":"no","socket":"yes","standing_desk":"yes","mrt":"","open_time":"一四日13:00 - 21:00 五六13:00 - 23:00 週二三休"},{"id":"e9e0c171-5251-4b0b-8964-16b7671cce0d","name":"RW Coffee","city":"tainan","wifi":0,"seat":0,"quiet":0,"tasty":0,"cheap":0,"music":0,"url":"","address":"台南市東區東興路4號","latitude":"22.99023530","longitude":"120.22859030","limited_time":"","socket":"","standing_desk":"","mrt":"","open_time":""},{"id":"e9e35693-f332-4e20-9298-b5b6cb7f09eb","name":"IZZY CAFE","city":"tainan","wifi":0,"seat":0,"quiet":0,"tasty":0,"cheap":0,"music":0,"url":"","address":"708台南市安平區安平路346之1號","latitude":"22.99837100","longitude":"120.17700200","limited_time":"","socket":"","standing_desk":"","mrt":"","open_time":""},{"id":"e9eaaa01-a174-473a-8734-1fcc4aaad7d0","name":"TreesWind 樹有風精選咖啡豆專賣店","city":"tainan","wifi":4,"seat":4,"quiet":4,"tasty":5,"cheap":3,"music":4,"url":"https://www.facebook.com/treeswindcafe/?ref=br_rs","address":"台南市中西區府前路一段333號","latitude":"22.98981610","longitude":"120.19966800","limited_time":"","socket":"maybe","standing_desk":"","mrt":"","open_time":""},{"id":"ea235fed-a2ce-4f15-b50f-51fd51a99f93","name":"暖暖蛇咖啡館 Café Flâneur","city":"tainan","wifi":4,"seat":4,"quiet":3,"tasty":4,"cheap":4,"music":4.5,"url":"https://www.facebook.com/cafeflaneur/","address":"台南市中西區普濟街53號","latitude":"22.99844200","longitude":"120.19871800","limited_time":"","socket":"maybe","standing_desk":"no","mrt":"","open_time":""},{"id":"eab91270-ad72-47e4-bbed-6b0cc8e926f2","name":"鹿柴咖啡","city":"tainan","wifi":5,"seat":5,"quiet":5,"tasty":5,"cheap":4,"music":4,"url":"https://www.facebook.com/Luchaicafe/","address":"708台南市安平區健康三街77號","latitude":"22.98578310","longitude":"120.20531500","limited_time":"","socket":"","standing_desk":"","mrt":"","open_time":"13:00 - 21:00 週四休"},{"id":"eac50485-9aeb-4128-826f-51ba74b31b33","name":"Mini Izzy cafe 民族店","city":"tainan","wifi":0,"seat":0,"quiet":0,"tasty":0,"cheap":0,"music":0,"url":"","address":"700台南市中西區民族路三段150號","latitude":"22.99904100","longitude":"120.19595700","limited_time":"","socket":"","standing_desk":"","mrt":"","open_time":""},{"id":"eb3b2eba-d86f-4f77-9b71-f5cb304873a9","name":"Kadoya喫茶店","city":"tainan","wifi":4.5,"seat":3,"quiet":3,"tasty":3,"cheap":3,"music":5,"url":"https://www.facebook.com/Kadoyasweets/","address":"台南市東區樹林街一段36號","latitude":"22.98588600","longitude":"120.21611430","limited_time":"","socket":"no","standing_desk":"yes","mrt":"","open_time":""},{"id":"ed69cfca-ec2f-4ebe-9ec3-5e60dfea67a7","name":"zee's coffee jar","city":"tainan","wifi":5,"seat":4,"quiet":4,"tasty":5,"cheap":5,"music":5,"url":"","address":"台南市北門路二段547巷","latitude":"23.00493670","longitude":"120.21399250","limited_time":"","socket":"","standing_desk":"","mrt":"","open_time":""},{"id":"ee42202d-f634-4008-a492-9ba2b27fe2d9","name":"古行自家烘焙咖啡","city":"tainan","wifi":0,"seat":3,"quiet":5,"tasty":5,"cheap":5,"music":5,"url":"https://m.facebook.com/goodthingcoffeetw/","address":"台南市中西區民族路二段399號","latitude":"22.99715900","longitude":"120.20117900","limited_time":"no","socket":"no","standing_desk":"no","mrt":"","open_time":"臨時休會另行公告"},{"id":"ef3250a0-17b1-476c-9468-0db953f046ea","name":"先吃•再聊","city":"tainan","wifi":5,"seat":5,"quiet":5,"tasty":4.5,"cheap":5,"music":5,"url":"https://www.facebook.com/stomachfriend/","address":"台南市中西區開山路122巷36弄12號","latitude":"22.98993150","longitude":"120.20628330","limited_time":"maybe","socket":"yes","standing_desk":"no","mrt":"","open_time":"13:00～19:30"},{"id":"f1126f00-5ddc-4974-96fd-bc8383e54c17","name":"Coffee Cape station","city":"tainan","wifi":3.5,"seat":4,"quiet":3,"tasty":3,"cheap":3,"music":4,"url":"https://www.facebook.com/Coffee-Cape-station-1502589336715645/","address":"台南市中西區萬昌街133-1號","latitude":"22.99430840","longitude":"120.21077850","limited_time":"maybe","socket":"maybe","standing_desk":"no","mrt":"","open_time":"12:00 - 22:00"},{"id":"f1aa3ba4-5069-46c2-b12d-af00325dd0b3","name":"福吉161商行","city":"tainan","wifi":5,"seat":4.5,"quiet":4.5,"tasty":5,"cheap":5,"music":4.5,"url":"https://www.facebook.com/fuji161cafe/?fref=ts","address":"台南市南區福吉五街16巷1號","latitude":"22.98248800","longitude":"120.19271410","limited_time":"","socket":"","standing_desk":"","mrt":"","open_time":"12:00 - 20:00"},{"id":"f326dad8-2a8c-4196-a1b9-e4357659f8ed","name":"慕坐會","city":"tainan","wifi":0,"seat":0,"quiet":0,"tasty":0,"cheap":0,"music":0,"url":"","address":"台南市北區成功路68巷9號","latitude":"22.99847820","longitude":"120.20659030","limited_time":"","socket":"","standing_desk":"","mrt":"","open_time":""},{"id":"f333f5be-bbaf-4d67-9448-198a66ba239e","name":"( AT ) ~Cats&Tea 茶飲輕食","city":"tainan","wifi":0,"seat":5,"quiet":5,"tasty":5,"cheap":4,"music":4,"url":"","address":"台南市中西區建業街72號","latitude":"22.98790620","longitude":"120.20516800","limited_time":"no","socket":"maybe","standing_desk":"no","mrt":"","open_time":""},{"id":"f371e8a6-e3a0-4289-bec7-15b9d61e90b6","name":"T'WIN coffee 咖啡' 云","city":"tainan","wifi":5,"seat":4,"quiet":4,"tasty":4,"cheap":3,"music":4,"url":"http://www.facebook.com/526twin/","address":"台南市東區崇明路526號","latitude":"22.97325960","longitude":"120.22415410","limited_time":"","socket":"","standing_desk":"","mrt":"","open_time":""},{"id":"f4250350-db43-4b5d-83ca-0926b681355a","name":"漫步日光","city":"tainan","wifi":0,"seat":5,"quiet":5,"tasty":5,"cheap":5,"music":5,"url":"https://an-coffee.com","address":"台南市新營區中山路93-2號1樓","latitude":"23.30563500","longitude":"120.32012400","limited_time":"maybe","socket":"maybe","standing_desk":"yes","mrt":"","open_time":"每個月的最後一個星期一公休"},{"id":"f558af1e-9fbb-40ac-bbe9-c2ec5f0a8fd6","name":"那豆鮮焙","city":"tainan","wifi":1,"seat":5,"quiet":5,"tasty":4,"cheap":2,"music":5,"url":"","address":"台南市東區長榮路三段24巷20號","latitude":"22.99250600","longitude":"120.22234600","limited_time":"","socket":"","standing_desk":"","mrt":"","open_time":""},{"id":"f5a4c3cb-a3db-4638-ae83-1f8af4a64072","name":"瞎聊貓咖啡","city":"tainan","wifi":5,"seat":4,"quiet":5,"tasty":5,"cheap":5,"music":5,"url":"https://www.facebook.com/catchatcafe/","address":"台南市東區府東街214號","latitude":"22.99460220","longitude":"120.22662810","limited_time":"no","socket":"maybe","standing_desk":"no","mrt":"","open_time":""},{"id":"f689d579-ad0d-4fe1-a001-c811986c4d95","name":"Quinny cafe & lounge","city":"tainan","wifi":0,"seat":0,"quiet":0,"tasty":0,"cheap":0,"music":0,"url":"","address":"台南市東區長榮路一段95號","latitude":"22.98305540","longitude":"120.21693860","limited_time":"","socket":"","standing_desk":"","mrt":"","open_time":""},{"id":"f6a97699-27f0-431d-81b6-1733d12369a4","name":"T3CA精緻咖啡店","city":"tainan","wifi":5,"seat":5,"quiet":5,"tasty":5,"cheap":5,"music":5,"url":"https://www.facebook.com/t3cabrew/","address":"台南市東區中華東路二段133巷17弄21號1樓","latitude":"22.98634400","longitude":"120.23387800","limited_time":"no","socket":"maybe","standing_desk":"","mrt":"","open_time":"10:00 - 19:00 周日一休"},{"id":"f7e5ff2a-a1fb-46e8-b28d-e2503fd94eb6","name":"米寓","city":"tainan","wifi":0,"seat":0,"quiet":0,"tasty":0,"cheap":0,"music":0,"url":"https://www.facebook.com/APTM1040103/","address":"台南市中西區忠明街3號","latitude":"22.99601610","longitude":"120.19723020","limited_time":"","socket":"","standing_desk":"","mrt":"","open_time":"0900-1700 週三、日休"},{"id":"f979f252-c19a-4f19-ad6a-9e54749024b0","name":"咖啡匙咖啡工作室","city":"tainan","wifi":0,"seat":3.5,"quiet":4,"tasty":5,"cheap":3.5,"music":4,"url":"https://www.facebook.com/cuppingspoon/","address":"台南市北區和緯路二段235號","latitude":"23.01230000","longitude":"120.20492750","limited_time":"","socket":"","standing_desk":"","mrt":"","open_time":""},{"id":"fa4a109c-4b7f-476a-bc93-edcf55b48cb8","name":"稍後咖啡館Encore Cafe","city":"tainan","wifi":0,"seat":0,"quiet":0,"tasty":0,"cheap":0,"music":0,"url":"","address":"台南市東區裕農二街六號","latitude":"22.98825840","longitude":"120.23888530","limited_time":"","socket":"","standing_desk":"","mrt":"","open_time":""},{"id":"fbcdb965-88e1-4f90-8817-b6f1cb9eeb0f","name":"李白先生咖啡","city":"tainan","wifi":5,"seat":5,"quiet":5,"tasty":5,"cheap":5,"music":5,"url":"https://www.facebook.com/MrLeeWhiteCafe/","address":"台南市永康區中山南路43巷40弄3號","latitude":"23.01340260","longitude":"120.22650790","limited_time":"no","socket":"maybe","standing_desk":"no","mrt":"","open_time":""},{"id":"fc674aa4-0261-4641-9c48-153cecf1897d","name":"蛋黃咖啡","city":"tainan","wifi":4,"seat":4,"quiet":4,"tasty":5,"cheap":4,"music":5,"url":"https://www.facebook.com/YOLKCOFFEE/","address":"台南市歸仁區中正六街27號","latitude":"22.96571790","longitude":"120.29325450","limited_time":"maybe","socket":"maybe","standing_desk":"yes","mrt":"","open_time":""},{"id":"fcef8dc2-ac0f-4902-a89d-2d28329e2d97","name":"存憶CafeBar","city":"tainan","wifi":4.5,"seat":3.5,"quiet":2.5,"tasty":5,"cheap":4.5,"music":3.5,"url":"https://www.facebook.com/%E5%AD%98%E6%86%B6Cafe-Bar-239830979545229/","address":"台南市中西區國華路三段211號","latitude":"22.99838950","longitude":"120.19916550","limited_time":"no","socket":"maybe","standing_desk":"no","mrt":"","open_time":""},{"id":"fd33590f-47ad-4535-aa1e-633be679ba64","name":"首璽咖啡 SoSee Coffee","city":"tainan","wifi":0,"seat":0,"quiet":0,"tasty":0,"cheap":0,"music":0,"url":"https://m.facebook.com/soseecoffee/","address":"701台南市東區裕農路375號","latitude":"22.98762800","longitude":"120.23013600","limited_time":"no","socket":"","standing_desk":"","mrt":"","open_time":""},{"id":"fe112249-a116-4e42-ad65-aa778fbf8ed8","name":"窄門咖啡","city":"tainan","wifi":2,"seat":3,"quiet":3.5,"tasty":3.5,"cheap":3.5,"music":3,"url":"https://www.facebook.com/narrowdoor99/","address":"台南市中西區南門路67號2樓","latitude":"22.98970980","longitude":"120.20479640","limited_time":"maybe","socket":"yes","standing_desk":"no","mrt":"","open_time":"若平日21:40 及 六日22:10 無顧客時即會提早打烊"},{"id":"fee5529e-f314-4653-a295-571135e1bad6","name":"ours我們工作室","city":"tainan","wifi":0,"seat":4,"quiet":4,"tasty":5,"cheap":5,"music":5,"url":"","address":"台南市北區開元路394巷27弄44號","latitude":"23.00568700","longitude":"120.21596300","limited_time":"","socket":"","standing_desk":"no","mrt":"","open_time":""},{"id":"ff28cacc-e00d-4780-b1c8-426d92b7f148","name":"阿烏咖啡","city":"tainan","wifi":1,"seat":3,"quiet":2.5,"tasty":4,"cheap":4.5,"music":3.5,"url":"","address":"台南市中西區開山路201號","latitude":"22.98686100","longitude":"120.20943550","limited_time":"","socket":"","standing_desk":"","mrt":"","open_time":""},{"id":"ff8ec474-b672-4034-870d-9a2a2446011e","name":"浮游咖啡","city":"tainan","wifi":0,"seat":0,"quiet":0,"tasty":0,"cheap":0,"music":0,"url":"","address":"台南市中西區府前路一段122巷81號","latitude":"22.99045120","longitude":"120.20777180","limited_time":"no","socket":"maybe","standing_desk":"yes","mrt":"","open_time":""},{"id":"ffc23f54-a2fe-42a6-be2b-1bb8c33b08c5","name":"Stable nice","city":"tainan","wifi":3,"seat":3,"quiet":3,"tasty":4,"cheap":3,"music":5,"url":"","address":"700台南市中西區南寧街83巷9號","latitude":"22.98469680","longitude":"120.19844360","limited_time":"","socket":"","standing_desk":"","mrt":"","open_time":""}]