[{"id":"082afd44-fe5e-4877-8d24-b82f82945ced","name":"目目咖啡","city":"taitung","wifi":5,"seat":4,"quiet":5,"tasty":4,"cheap":4,"music":5,"url":"https://www.facebook.com/mumucoffeeshop/","address":"台東市更生路404巷8號","latitude":"22.76230960","longitude":"121.14347510","limited_time":"no","socket":"maybe","standing_desk":"no","mrt":"","open_time":""},{"id":"08d36447-2cbe-4bc5-9c01-ef8303760f2f","name":"黑孩子黑咖啡","city":"taitung","wifi":5,"seat":5,"quiet":5,"tasty":5,"cheap":5,"music":5,"url":"https://www.facebook.com/black.kid.cafe/","address":"台東市知本路一段766號","latitude":"22.71812360","longitude":"121.08187750","limited_time":"no","socket":"yes","standing_desk":"no","mrt":"","open_time":"10:00-18:00"},{"id":"091210c1-2090-47f2-8426-adbc8c9c1131","name":"小曼咖啡店","city":"taitung","wifi":4,"seat":4,"quiet":4.5,"tasty":4,"cheap":4,"music":5,"url":"https://www.facebook.com/%E5%B0%8F%E6%9B%BC%E5%92%96%E5%95%A1-195900670429323","address":"台東縣台東市中華路一段376巷33號","latitude":"22.75493010","longitude":"121.15258550","limited_time":"","socket":"","standing_desk":"","mrt":"","open_time":""},{"id":"0912f5ae-aa71-43e7-be5a-dde65c046b69","name":"Mese Coffee 草月咖啡館/自家烘焙精品咖啡","city":"taitung","wifi":4.5,"seat":4,"quiet":4,"tasty":5,"cheap":4,"music":4,"url":"https://www.facebook.com/mese.coffee/","address":" 臺東市仁德街60號","latitude":"22.75782950","longitude":"121.15465840","limited_time":"no","socket":"maybe","standing_desk":"no","mrt":"","open_time":"1400~2230 週四公休"},{"id":"1bc51fea-4bee-46a0-88b6-4a9b830392e6","name":"4.5公里咖啡","city":"taitung","wifi":0,"seat":4,"quiet":4,"tasty":3,"cheap":3,"music":2,"url":"","address":"台東縣池上鄉3鄰33號","latitude":"23.08534490","longitude":"121.22190530","limited_time":"no","socket":"","standing_desk":"","mrt":"","open_time":"不定休"},{"id":"256ddf53-d1e6-4f53-a031-f649214b7cea","name":"咖啡淵緣","city":"taitung","wifi":5,"seat":5,"quiet":5,"tasty":5,"cheap":3,"music":5,"url":"https://www.facebook.com/coffeeyuanyuan/","address":"950 臺東市新生路608巷4號","latitude":"22.76220390","longitude":"121.13803740","limited_time":"no","socket":"yes","standing_desk":"no","mrt":"","open_time":""},{"id":"40ebad36-9d8b-4d73-9dde-d5a8927347bf","name":"石在有人咖啡館","city":"taitung","wifi":0,"seat":5,"quiet":5,"tasty":4,"cheap":3,"music":4,"url":"https://www.facebook.com/TheReefsCafe60/","address":"台東縣綠島鄉公館村60號","latitude":"22.67506410","longitude":"121.49133600","limited_time":"","socket":"","standing_desk":"","mrt":"","open_time":"08-14,11-14,17-20"},{"id":"43a5da84-34a2-430c-8e5c-c8230cfde045","name":"墾墨咖啡館","city":"taitung","wifi":5,"seat":4,"quiet":4,"tasty":5,"cheap":3,"music":5,"url":"https://www.facebook.com/communitytaitung/","address":"台東市更生路1208號","latitude":"22.77543990","longitude":"121.12853100","limited_time":"no","socket":"yes","standing_desk":"yes","mrt":"","open_time":"最後一個星期四也公休"},{"id":"5b940f3f-0769-40bc-a12a-84cc4b00c304","name":"Deep Coffee","city":"taitung","wifi":1,"seat":4,"quiet":3,"tasty":3,"cheap":3,"music":4,"url":"https://www.facebook.com/deepcoffee241/","address":"台東縣台東市豐榮路24巷1號","latitude":"22.74640640","longitude":"121.13954790","limited_time":"no","socket":"maybe","standing_desk":"yes","mrt":"","open_time":""},{"id":"740a665b-83f8-4baa-8033-1dfd91904e49","name":"逗留豆遊","city":"taitung","wifi":4.5,"seat":5,"quiet":5,"tasty":5,"cheap":5,"music":5,"url":"https://www.facebook.com/mjcafe.dulan/?fref=ts","address":"台東市東河鄉都蘭村都蘭121-1號","latitude":"22.87261500","longitude":"121.22673600","limited_time":"no","socket":"no","standing_desk":"no","mrt":"","open_time":""},{"id":"873bb691-13d2-48d1-87eb-7adcc44d1d2a","name":"食冊café書店","city":"taitung","wifi":5,"seat":5,"quiet":5,"tasty":5,"cheap":4.5,"music":5,"url":" https://www.facebook.com/diningbooks/","address":"台東市洛陽街265號","latitude":"22.76225340","longitude":"121.14068250","limited_time":"no","socket":"yes","standing_desk":"","mrt":"","open_time":""},{"id":"8d25448c-4762-4873-a810-c81de1f1e0cc","name":"Flight cafe 福來東咖啡","city":"taitung","wifi":5,"seat":5,"quiet":4,"tasty":5,"cheap":4,"music":5,"url":"https://www.facebook.com/flight457/","address":"台東市傳廣路457-1號","latitude":"22.76676870","longitude":"121.14386170","limited_time":"no","socket":"maybe","standing_desk":"no","mrt":"","open_time":"12:00-20:00  L.O19:15  "},{"id":"8fce43d2-9b7d-4f05-b537-71b38f555c9d","name":"Wow’s邦查（波浪屋2號倉庫）","city":"taitung","wifi":5,"seat":5,"quiet":5,"tasty":5,"cheap":4,"music":5,"url":"https://www.facebook.com/Wowspangcha/","address":"台東縣新生路105號","latitude":"22.75331140","longitude":"121.14730370","limited_time":"","socket":"","standing_desk":"","mrt":"","open_time":""},{"id":"9bbb12a1-0ce5-493d-871e-919bc7dc4283","name":"Wave coffee 浪頭咖啡","city":"taitung","wifi":0,"seat":4,"quiet":4,"tasty":4,"cheap":5,"music":4,"url":"@Laiyu.Wavecoffee","address":"台東縣蘭嶼鄉東清村","latitude":"22.05829160","longitude":"121.55412640","limited_time":"no","socket":"no","standing_desk":"yes","mrt":"","open_time":"早晨若天氣好有日出，則會更早營業，中午部分是休息．"},{"id":"a31a624e-f517-4d2f-9306-18a0746617ad","name":"走走池上","city":"taitung","wifi":5,"seat":4,"quiet":4,"tasty":5,"cheap":5,"music":5,"url":"","address":"台東縣池上鄉中山路99號","latitude":"23.12224870","longitude":"121.21508750","limited_time":"no","socket":"yes","standing_desk":"yes","mrt":"","open_time":"不定時公休"},{"id":"a346d174-e99d-49c9-b038-064f0266d8db","name":"默默珈琲手沖館","city":"taitung","wifi":0,"seat":5,"quiet":5,"tasty":5,"cheap":4,"music":4,"url":"沒有, 但在GoogleMap上可找到","address":"台東縣池上鄉中華路61號","latitude":"23.12575060","longitude":"121.21679620","limited_time":"no","socket":"","standing_desk":"","mrt":"","open_time":"無意間來到這家自家烘培且只賣手沖單品的小店, 店內常備品項竟超過十隻以上單品,, 當天有18隻, 另有手工甜點但得ˇ碰運氣, 也有茶飲與紅白酒, 重點是沒有招牌沒有招牌沒有招牌! 不定休~  單品真的很強!"},{"id":"b1eb66c2-9fd2-4269-9e06-e67db079d79e","name":"Coffeeloft-咖啡工寓","city":"taitung","wifi":0,"seat":4,"quiet":4,"tasty":4,"cheap":5,"music":4,"url":"https://www.facebook.com/coffeeloftapartment/?fref=ts","address":"台東市浙江路36號","latitude":"22.76007560","longitude":"121.14928200","limited_time":"","socket":"maybe","standing_desk":"no","mrt":"","open_time":""},{"id":"c8a9c49c-03dd-420d-b673-2c7ade0246ac","name":"怪豆咖啡","city":"taitung","wifi":4.5,"seat":4.5,"quiet":4.5,"tasty":5,"cheap":5,"music":4,"url":"https://www.facebook.com/ODDO.COFFEE/","address":"台東市更生路504號","latitude":"22.76361230","longitude":"121.14072650","limited_time":"","socket":"","standing_desk":"","mrt":"","open_time":"14:00 - 20:00"},{"id":"d7621396-d07e-44e0-9f05-30b0e5c67e9a","name":"青蔦菓子咖啡","city":"taitung","wifi":4,"seat":5,"quiet":5,"tasty":4,"cheap":4,"music":3,"url":"https://www.facebook.com/nicolenicklovelycafe2017/?locale2=zh_TW","address":"台東縣台東市中正路251巷19號","latitude":"22.75508370","longitude":"121.15286040","limited_time":"no","socket":"maybe","standing_desk":"no","mrt":"","open_time":""},{"id":"d86983d2-6e7a-47c7-99f5-51299606a4f3","name":"193咖啡館","city":"taitung","wifi":4,"seat":5,"quiet":3,"tasty":5,"cheap":3,"music":2,"url":"https://www.facebook.com/193cafe/","address":"95052台東縣台東市洛陽街193號","latitude":"22.76084830","longitude":"121.14230050","limited_time":"no","socket":"maybe","standing_desk":"no","mrt":"","open_time":"不定期公休日，需要參考FB公告"},{"id":"dbaecc7e-463e-4bc3-98c9-89f22733add3","name":"cheela小屋","city":"taitung","wifi":5,"seat":4,"quiet":4,"tasty":5,"cheap":4,"music":4,"url":"https://www.facebook.com/pages/Cheela%E5%B0%8F%E5%B1%8B/196715477024822?fref=ts","address":"台東縣台東市新生路395-1號","latitude":"22.75887310","longitude":"121.14052470","limited_time":"no","socket":"yes","standing_desk":"no","mrt":"","open_time":""},{"id":"e68f1b6c-a355-40b3-9c5e-3af2297104dd","name":"九號咖啡館 NO.9 Gourmet Coffee","city":"taitung","wifi":3,"seat":4,"quiet":4,"tasty":3,"cheap":2,"music":4,"url":"","address":"台東縣池上鄉慶豐村6鄰56號","latitude":"23.12527300","longitude":"121.22295900","limited_time":"","socket":"","standing_desk":"","mrt":"","open_time":""}]