[{"id":"0061c67c-61ea-46e9-ba5d-dda35ac22964","name":"燊咖啡","city":"taoyuan","wifi":4.5,"seat":4,"quiet":4,"tasty":4,"cheap":3,"music":4,"url":"https://www.facebook.com/pg/shencafetaoyuan/about/?ref=page_internal","address":"桃園市桃園區新埔六街138號","latitude":"25.01647470","longitude":"121.30168950","limited_time":"no","socket":"yes","standing_desk":"no","mrt":"","open_time":"12~22，唯有週二是12~1730，無公休"},{"id":"00c1a70f-1138-4cd6-9933-ebf53b92badf","name":"甯 咖啡 ","city":"taoyuan","wifi":5,"seat":5,"quiet":5,"tasty":5,"cheap":4,"music":5,"url":"https://www.facebook.com/jackscoffee/","address":"桃園市中壢區大仁五街12號","latitude":"24.95627560","longitude":"121.24054410","limited_time":"no","socket":"yes","standing_desk":"no","mrt":"","open_time":"11:30~21:00每月單數週日及每週一店休 "},{"id":"00d2ea54-ed84-41c5-a857-4bd38504b28d","name":"BeYou.té Café","city":"taoyuan","wifi":0,"seat":5,"quiet":5,"tasty":0,"cheap":0,"music":0,"url":"https://www.facebook.com/BeYouteCafe/","address":"桃園市中壢區文化二路267號","latitude":"24.97765160","longitude":"121.25051020","limited_time":"no","socket":"maybe","standing_desk":"yes","mrt":"","open_time":""},{"id":"013c1f18-626d-43e0-b627-f76ee74232f1","name":"R9 Cafe 桃園店","city":"taoyuan","wifi":4,"seat":4,"quiet":2,"tasty":2,"cheap":2,"music":4,"url":"","address":"桃園市桃園區民生路55巷8號","latitude":"24.99156610","longitude":"121.31415020","limited_time":"","socket":"","standing_desk":"","mrt":"","open_time":""},{"id":"02c18a8f-79c8-43a3-a982-e75192ec21d4","name":"班迪克咖啡","city":"taoyuan","wifi":5,"seat":5,"quiet":5,"tasty":5,"cheap":5,"music":5,"url":"https://www.facebook.com/%E7%8F%AD%E8%BF%AA%E5%85%8B%E5%92%96%E5%95%A1-1568269403394952/","address":"桃園市八德區建國路237號","latitude":"24.93642720","longitude":"121.28817740","limited_time":"maybe","socket":"maybe","standing_desk":"no","mrt":"","open_time":""},{"id":"041690b5-78d8-4b2a-aaa0-047cf83d8007","name":"突奌咖啡喵","city":"taoyuan","wifi":0,"seat":3,"quiet":2,"tasty":3,"cheap":3,"music":5,"url":"https://www.facebook.com/%E7%AA%81%E5%A5%8C%E5%92%96%E5%95%A1%E5%96%B5-220841121329242/?rf=375023756004853","address":"桃園市中壢區福州路20號","latitude":"24.95362760","longitude":"121.23218940","limited_time":"maybe","socket":"no","standing_desk":"no","mrt":"","open_time":""},{"id":"044fc366-62c7-47aa-8d5a-ba3490d7b122","name":"流石咖啡","city":"taoyuan","wifi":5,"seat":5,"quiet":4.5,"tasty":2,"cheap":2.5,"music":4,"url":"https://www.facebook.com/pg/cafe.sasuga","address":"桃園市中壢區福州二街412-1號","latitude":"24.96768530","longitude":"121.23219800","limited_time":"","socket":"","standing_desk":"yes","mrt":"","open_time":""},{"id":"05d6e272-4b95-414c-a4b0-34e483566989","name":"香草蛋糕舖 Vanilla Pastry House","city":"taoyuan","wifi":5,"seat":5,"quiet":4,"tasty":5,"cheap":5,"music":4,"url":"https://www.facebook.com/vanilla193/","address":"桃園市桃園區民族路193號","latitude":"24.99401800","longitude":"121.30778000","limited_time":"no","socket":"maybe","standing_desk":"no","mrt":"","open_time":""},{"id":"070d6564-673c-4125-ada9-90434e89dfc7","name":"ACID7 coffee","city":"taoyuan","wifi":5,"seat":3,"quiet":4,"tasty":5,"cheap":5,"music":5,"url":"https://www.facebook.com/ACID7-coffee-109876450746708/","address":"桃園市中壢區民權路150號","latitude":"24.95899400","longitude":"121.21769700","limited_time":"no","socket":"maybe","standing_desk":"yes","mrt":"","open_time":""},{"id":"077727a4-c546-4091-bd76-285271a6334f","name":"老墨咖啡","city":"taoyuan","wifi":4,"seat":4,"quiet":3.5,"tasty":5,"cheap":5,"music":4.5,"url":"https://www.facebook.com/rockmexicocooffee","address":"桃園市中壢區延平路324號","latitude":"24.96045590","longitude":"121.22561360","limited_time":"no","socket":"no","standing_desk":"yes","mrt":"","open_time":""},{"id":"080794d6-7146-4260-a13f-73b20c32b500","name":"只是光影 獨立咖啡廳","city":"taoyuan","wifi":5,"seat":4,"quiet":4,"tasty":4,"cheap":4,"music":5,"url":"https://www.facebook.com/riverdays/","address":"桃園市桃園區新民街43巷10之1號","latitude":"24.99448800","longitude":"121.31237500","limited_time":"maybe","socket":"maybe","standing_desk":"no","mrt":"","open_time":""},{"id":"0b30a705-7392-4800-998d-08e30ad3d220","name":"我們。他們","city":"taoyuan","wifi":5,"seat":4,"quiet":4,"tasty":5,"cheap":4,"music":5,"url":"https://www.facebook.com/usthem0527/","address":"中壢區長安街 1之13號（老街溪河濱步道上）","latitude":"24.95361700","longitude":"121.21804100","limited_time":"no","socket":"yes","standing_desk":"no","mrt":"","open_time":"有時有講座，不對外開放"},{"id":"0ba1f888-bb31-4f43-a587-97638ac1733c","name":"喵日子 Café","city":"taoyuan","wifi":5,"seat":4,"quiet":4,"tasty":3,"cheap":4,"music":4,"url":"https://www.facebook.com/MeowDayCafe/","address":"桃園區保定三街93號","latitude":"24.99833610","longitude":"121.29785070","limited_time":"maybe","socket":"no","standing_desk":"no","mrt":"","open_time":"最後收客時間20:30 暫不接待12歲以下小朋友"},{"id":"0d5a1c63-4f1c-4879-927b-253118711779","name":"尼爾瓦特","city":"taoyuan","wifi":0,"seat":0,"quiet":0,"tasty":0,"cheap":0,"music":0,"url":"https://www.facebook.com/%E5%B0%BC%E7%88%BE%E7%93%A6%E7%89%B9-NEAR-WATER-caf%C3%A9-104960030910940/?view_public_for=104960030910940","address":"桃園市龍潭區龍源路大平段690巷105號","latitude":"24.82512600","longitude":"121.24702890","limited_time":"maybe","socket":"yes","standing_desk":"no","mrt":"","open_time":""},{"id":"10493a5d-e562-474a-a04a-11e8a44855d4","name":"福森咖啡-大溪店","city":"taoyuan","wifi":5,"seat":4,"quiet":3,"tasty":4,"cheap":5,"music":5,"url":"https://www.facebook.com/fussencafe/","address":"桃園市大溪區登龍路18號","latitude":"24.88337210","longitude":"121.28665740","limited_time":"maybe","socket":"no","standing_desk":"no","mrt":"","open_time":""},{"id":"11f45596-bbef-42e7-9a25-18ea3e76d137","name":"山錡咖啡","city":"taoyuan","wifi":0,"seat":0,"quiet":0,"tasty":0,"cheap":0,"music":0,"url":"","address":"326桃園市楊梅區萬大路14號","latitude":"24.91260390","longitude":"121.17716090","limited_time":"","socket":"","standing_desk":"","mrt":"","open_time":""},{"id":"121eee9e-808c-4f52-9aca-4c60e8d2dee0","name":"黑豆啡","city":"taoyuan","wifi":5,"seat":5,"quiet":4,"tasty":5,"cheap":0,"music":0,"url":"","address":"桃園市同德11街156號","latitude":"25.02005150","longitude":"121.29459960","limited_time":"no","socket":"maybe","standing_desk":"","mrt":"","open_time":""},{"id":"124f2130-f819-4d50-bc90-d5a512df8177","name":"金木犀 Kinmokusei","city":"taoyuan","wifi":0,"seat":0,"quiet":0,"tasty":0,"cheap":0,"music":0,"url":"https://www.facebook.com/kinmokusei2021","address":"桃園市桃園區力行路385巷31號","latitude":"24.99792220","longitude":"121.29743870","limited_time":"","socket":"","standing_desk":"","mrt":"","open_time":""},{"id":"138c680c-9d97-49fb-9f29-ed5542f5a240","name":"Flowering 綻放咖啡","city":"taoyuan","wifi":5,"seat":5,"quiet":5,"tasty":5,"cheap":5,"music":5,"url":"https://www.floweringty.com/","address":"桃園市萬壽路二段1427號","latitude":"24.99212300","longitude":"121.32381220","limited_time":"no","socket":"yes","standing_desk":"no","mrt":"","open_time":""},{"id":"1449f84d-be7f-4825-85e7-6b9f549b1e2a","name":"Chīwit Kaffe其味咖啡","city":"taoyuan","wifi":0,"seat":0,"quiet":0,"tasty":0,"cheap":0,"music":0,"url":"https://www.facebook.com/chiwitkaffe/","address":"桃園市桃園區中華路32號2樓","latitude":"24.99122090","longitude":"121.31070800","limited_time":"maybe","socket":"maybe","standing_desk":"no","mrt":"","open_time":""},{"id":"153838fd-dc64-417d-8e9b-f711ac9efafd","name":"松鼎精品咖啡","city":"taoyuan","wifi":4,"seat":4,"quiet":4,"tasty":5,"cheap":4,"music":3,"url":"","address":"桃園市中壢區中山路59號","latitude":"24.95504890","longitude":"121.22693290","limited_time":"no","socket":"","standing_desk":"","mrt":"","open_time":""},{"id":"154a9581-7543-48a1-93d8-ddf9bd26f31f","name":"晴天咖啡 sunny cafe","city":"taoyuan","wifi":0,"seat":0,"quiet":0,"tasty":0,"cheap":0,"music":0,"url":"https://www.facebook.com/320sunnycafe/","address":"桃園市中壢區中北路165巷61號","latitude":"24.95816920","longitude":"121.23953580","limited_time":"no","socket":"maybe","standing_desk":"no","mrt":"","open_time":""},{"id":"19d7425f-8982-436a-86d4-76e0549865b4","name":"Table No.2","city":"taoyuan","wifi":4.5,"seat":3,"quiet":3.5,"tasty":3.5,"cheap":3,"music":5,"url":"","address":"台灣桃園市中壢區興平路163號號","latitude":"24.96595490","longitude":"121.22752200","limited_time":"maybe","socket":"maybe","standing_desk":"no","mrt":"","open_time":"11:00-20:00"},{"id":"19ff6ef1-08a5-4482-bb9e-182d9f6df12d","name":"木木秧咖啡","city":"taoyuan","wifi":0,"seat":0,"quiet":0,"tasty":0,"cheap":0,"music":0,"url":"","address":"桃園市大溪區慈光街128號","latitude":"24.90390260","longitude":"121.27875340","limited_time":"","socket":"","standing_desk":"","mrt":"","open_time":""},{"id":"1b53da94-31d9-40ea-b585-d77b502d97c4","name":"TINA咖啡(中正店)","city":"taoyuan","wifi":1.5,"seat":3.5,"quiet":3,"tasty":3.5,"cheap":3.5,"music":3.5,"url":"","address":"桃園市中正路1029號","latitude":"25.01511680","longitude":"121.29876610","limited_time":"","socket":"","standing_desk":"","mrt":"","open_time":""},{"id":"1d9c9a79-710e-4dfb-a5cd-9b7541e8ee4f","name":"ONE MO cafe","city":"taoyuan","wifi":0,"seat":0,"quiet":0,"tasty":0,"cheap":0,"music":0,"url":"","address":"桃園市楊梅區萬大路152巷15號","latitude":"24.90922900","longitude":"121.17820410","limited_time":"","socket":"","standing_desk":"","mrt":"","open_time":""},{"id":"1e2b4f2b-54df-4eb3-a096-8667ed0b37bc","name":"哈瓦那(中壢悅讀館)","city":"taoyuan","wifi":5,"seat":4,"quiet":4,"tasty":4,"cheap":5,"music":5,"url":"https://www.facebook.com/harwanaread/","address":"桃園市中壢區慈惠三街157巷6號","latitude":"24.96457480","longitude":"121.22513410","limited_time":"no","socket":"yes","standing_desk":"no","mrt":"","open_time":""},{"id":"1f0092fd-60b2-47ed-b7a0-fee25bf43e42","name":"J café","city":"taoyuan","wifi":5,"seat":4,"quiet":4,"tasty":4,"cheap":5,"music":5,"url":"","address":"桃園區力行路255巷2號","latitude":"24.99997130","longitude":"121.29928350","limited_time":"maybe","socket":"yes","standing_desk":"no","mrt":"","open_time":""},{"id":"20e0e553-4ac5-45bf-99fd-14ca6b2a5bc5","name":"寒咖啡_65號文創空間","city":"taoyuan","wifi":5,"seat":5,"quiet":5,"tasty":5,"cheap":5,"music":5,"url":"","address":"桃園市中壢區莒光路65號","latitude":"24.95220080","longitude":"121.23740290","limited_time":"no","socket":"yes","standing_desk":"no","mrt":"","open_time":""},{"id":"20e600d8-cd23-4f31-ad3a-ee44d7d63d03","name":"Cafeholic coffee & bar","city":"taoyuan","wifi":5,"seat":4.5,"quiet":5,"tasty":5,"cheap":5,"music":5,"url":"https://www.facebook.com/Cafeholic.coffee.bar/","address":"桃園市中壢區龍昌路26號號 1 樓","latitude":"24.94131500","longitude":"121.25003150","limited_time":"no","socket":"maybe","standing_desk":"yes","mrt":"","open_time":" 週二公休"},{"id":"20e7616f-1282-4b27-ae1d-3bc7a03ff893","name":"Alpha Coffee & Tea","city":"taoyuan","wifi":4,"seat":5,"quiet":4,"tasty":4,"cheap":3,"music":4,"url":"https://www.facebook.com/alphacoffeeandtea/","address":"桃園市平鎮區工業五路8號","latitude":"24.90229390","longitude":"121.19816400","limited_time":"no","socket":"maybe","standing_desk":"yes","mrt":"","open_time":""},{"id":"211b0ead-9e05-4b6e-8a84-1a134cc63ccc","name":"杜宅咖啡","city":"taoyuan","wifi":5,"seat":5,"quiet":5,"tasty":5,"cheap":5,"music":5,"url":"https://www.facebook.com/dou.zhai.homemade.roasted.cafe/","address":"台中市南區五權南路468號","latitude":"0.00000000","longitude":"0.00000000","limited_time":"no","socket":"yes","standing_desk":"","mrt":"","open_time":""},{"id":"226dfc66-cb0e-4b7f-9499-54d521404f4e","name":"JD cafe","city":"taoyuan","wifi":4,"seat":4,"quiet":3,"tasty":3,"cheap":3,"music":3,"url":"https://www.facebook.com/JDcafeJDcafe/","address":"桃園市龜山區興華三街6號","latitude":"25.05433400","longitude":"121.36634640","limited_time":"no","socket":"no","standing_desk":"","mrt":"","open_time":"11:00-21:00"},{"id":"24626b18-93b3-4373-8518-f7256d03ae18","name":"momo cafe","city":"taoyuan","wifi":5,"seat":5,"quiet":2,"tasty":4,"cheap":4,"music":5,"url":"","address":"桃園市大園區大勇路33號","latitude":"25.01985070","longitude":"121.21839500","limited_time":"maybe","socket":"maybe","standing_desk":"yes","mrt":"","open_time":"11:00-19:00"},{"id":"25558306-9283-4702-a398-84c54dfea3d7","name":"沐瑟咖啡","city":"taoyuan","wifi":5,"seat":5,"quiet":5,"tasty":5,"cheap":5,"music":5,"url":"https://www.facebook.com/CAPO.CAFE.CAPO/?ref=aymt_homepage_panel","address":"桃園市蘆竹區南平街31號","latitude":"25.04547780","longitude":"121.29115110","limited_time":"no","socket":"maybe","standing_desk":"no","mrt":"","open_time":"周一公休 10:30~18:30"},{"id":"25ed1210-457e-48cd-99a4-1b91d71602f4","name":"好咖 Howcup CURRY CAFE'","city":"taoyuan","wifi":5,"seat":4,"quiet":3,"tasty":4,"cheap":4,"music":4,"url":"https://m.facebook.com/howcup/","address":"桃園市中壢區中北路19號","latitude":"24.95605300","longitude":"121.23602000","limited_time":"maybe","socket":"no","standing_desk":"no","mrt":"","open_time":"11:00-21:00"},{"id":"26fab645-9307-443d-8cf3-a432be39563f","name":"野 freeman cafe","city":"taoyuan","wifi":5,"seat":5,"quiet":4,"tasty":5,"cheap":5,"music":5,"url":"https://www.facebook.com/ifreemanGo/","address":"桃園市桃園區中埔二街198號","latitude":"25.01384360","longitude":"121.29506210","limited_time":"","socket":"","standing_desk":"","mrt":"","open_time":""},{"id":"283989ca-fdc9-4721-8818-11b41a078f8c","name":"路易莎咖啡 louisa coffee -桃園中路店-","city":"taoyuan","wifi":4,"seat":5,"quiet":3,"tasty":5,"cheap":4,"music":4,"url":"https://www.facebook.com/%E8%B7%AF%E6%98%93%E8%8E%8E%E5%92%96%E5%95%A1-louisa-coffee-%E6%A1%83%E5%9C%92%E4%B8%AD%E8%B7%AF%E5%BA%97--106291971088026/","address":"桃園市桃園區正光路181號","latitude":"24.99608570","longitude":"121.29505880","limited_time":"maybe","socket":"maybe","standing_desk":"no","mrt":"","open_time":""},{"id":"2c3d2a9a-99c0-4dbf-95fe-d6e72a9b5046","name":"小木馬咖啡","city":"taoyuan","wifi":5,"seat":5,"quiet":5,"tasty":5,"cheap":4,"music":5,"url":"https://www.facebook.com/minimuma.com.tw/?ref=br_rs","address":"桃園市桃園區民富十七街12號","latitude":"25.01756150","longitude":"121.31048670","limited_time":"no","socket":"no","standing_desk":"no","mrt":"","open_time":""},{"id":"2c809e9f-627f-459f-98b6-2842d1a6d138","name":"印象","city":"taoyuan","wifi":0,"seat":4,"quiet":5,"tasty":5,"cheap":4,"music":5,"url":"","address":"桃園市龍潭區華南路一段127號","latitude":"24.86907900","longitude":"121.21769860","limited_time":"no","socket":"no","standing_desk":"yes","mrt":"","open_time":""},{"id":"2ca2a789-fec8-4f2e-b1a0-f177fcd8caf3","name":"啡蒔 Verse Cafe by Minorcode","city":"taoyuan","wifi":5,"seat":4,"quiet":3,"tasty":4,"cheap":3,"music":5,"url":"","address":"桃園市桃園區同德十一街45號","latitude":"25.02087100","longitude":"121.29713380","limited_time":"maybe","socket":"maybe","standing_desk":"no","mrt":"","open_time":""},{"id":"2e11306e-3188-49a4-a62b-b039b2bf4378","name":"方亭咖啡","city":"taoyuan","wifi":4,"seat":4,"quiet":4,"tasty":4,"cheap":4,"music":4,"url":"https://www.facebook.com/%E6%96%B9%E4%BA%AD%E5%92%96%E5%95%A1-107003372713291/","address":"桃園市桃園區民生路103號","latitude":"24.99230340","longitude":"121.31373230","limited_time":"","socket":"","standing_desk":"no","mrt":"","open_time":""},{"id":"2f677450-50ba-4e7a-beb9-6c0b34185c5d","name":"二哈咖啡","city":"taoyuan","wifi":5,"seat":5,"quiet":4,"tasty":5,"cheap":5,"music":3,"url":"https://www.facebook.com/tohacoffee/","address":"桃園市桃園區大同路119號","latitude":"24.98829600","longitude":"121.30899200","limited_time":"no","socket":"yes","standing_desk":"yes","mrt":"","open_time":""},{"id":"30a27ea2-f819-477d-8625-6e583f6943b6","name":"森林咖啡二號","city":"taoyuan","wifi":0,"seat":0,"quiet":0,"tasty":0,"cheap":0,"music":0,"url":"","address":"號, No. 661萬壽路二段龜山區桃園市333","latitude":"24.99884150","longitude":"121.34565920","limited_time":"yes","socket":"no","standing_desk":"no","mrt":"","open_time":""},{"id":"30cd155d-5ac7-4e14-96ce-f16c4b92e056","name":"Mr.Glasses眼鏡先生咖啡館","city":"taoyuan","wifi":5,"seat":4,"quiet":4,"tasty":5,"cheap":4,"music":4,"url":"https://www.facebook.com/pg/mrglassescf/about/?ref=page_internal","address":"桃園市中壢區莊敬路811巷12號","latitude":"24.96387910","longitude":"121.25509630","limited_time":"yes","socket":"maybe","standing_desk":"yes","mrt":"","open_time":""},{"id":"30edc976-6706-4662-9d2b-a3c1c302c042","name":"木桌子咖啡","city":"taoyuan","wifi":5,"seat":4.5,"quiet":4,"tasty":4.5,"cheap":3.5,"music":4,"url":"https://www.facebook.com/woodtablecoffee","address":"桃園市桃園區中山路847巷27號","latitude":"24.98848200","longitude":"121.28758500","limited_time":"no","socket":"maybe","standing_desk":"no","mrt":"","open_time":"週一-週五11:00~19:30/週六-週日10:00~19:30"},{"id":"33ed417a-786a-4490-af4e-d049a2dfeadf","name":"The Good One Coffee Roaster","city":"taoyuan","wifi":5,"seat":4.5,"quiet":4.5,"tasty":5,"cheap":5,"music":5,"url":"https://www.facebook.com/pg/TheGoodOne.coffee.roaster/","address":"桃園市桃園區民有五街122號","latitude":"25.00850100","longitude":"121.31784890","limited_time":"maybe","socket":"yes","standing_desk":"no","mrt":"","open_time":"每月其中1-2個週日公休（粉專公告）"},{"id":"35aaff33-3986-4453-ad17-b145ffd814b4","name":"Drip Note Coffee","city":"taoyuan","wifi":0,"seat":0,"quiet":0,"tasty":0,"cheap":0,"music":0,"url":"https://www.facebook.com/dripnotecoffee/","address":"桃園市楊梅區新農街366號","latitude":"24.91149410","longitude":"121.15670220","limited_time":"","socket":"","standing_desk":"","mrt":"","open_time":"不定時公休，詳情請FB官網。"},{"id":"3795c329-ddc3-42eb-9de3-9974f530c8fa","name":"愛瑞兒","city":"taoyuan","wifi":5,"seat":5,"quiet":5,"tasty":5,"cheap":5,"music":4,"url":"https://www.facebook.com/ariel27cafe/","address":"桃園市桃園區信一街27號","latitude":"24.99495990","longitude":"121.30149300","limited_time":"no","socket":"maybe","standing_desk":"yes","mrt":"","open_time":"09:00~19:00"},{"id":"3a6421dd-9efc-4925-8855-cae4b34c5a7f","name":"大觀 x 小弄","city":"taoyuan","wifi":5,"seat":4,"quiet":4,"tasty":5,"cheap":5,"music":5,"url":"https://www.facebook.com/DaGuanAlley/","address":"桃園市中壢區環中東路708巷116號","latitude":"24.95515970","longitude":"121.24387350","limited_time":"maybe","socket":"no","standing_desk":"no","mrt":"","open_time":""},{"id":"3a761dc3-64c1-4c37-aa97-da8b0ce8584a","name":"鞠分號","city":"taoyuan","wifi":0,"seat":0,"quiet":0,"tasty":0,"cheap":0,"music":0,"url":"https://www.facebook.com/jusemicolon","address":"桃園市桃園區慈祥街32號","latitude":"25.00786080","longitude":"121.30093220","limited_time":"no","socket":"maybe","standing_desk":"yes","mrt":"","open_time":""},{"id":"3a7c8c08-de3f-4db6-acbd-f03614f76db4","name":"The Path Coffeehouse","city":"taoyuan","wifi":5,"seat":5,"quiet":5,"tasty":5,"cheap":4,"music":5,"url":"https://www.facebook.com/Coffeefield","address":"桃園市中壢區中央西路二段150巷4號","latitude":"24.95925700","longitude":"121.21378400","limited_time":"no","socket":"yes","standing_desk":"no","mrt":"","open_time":"11:00 - 21:00"},{"id":"3af2a7fd-d336-470b-a4f5-85715d6af0ae","name":"BY2 COFFEE 白²咖啡","city":"taoyuan","wifi":0,"seat":0,"quiet":0,"tasty":0,"cheap":0,"music":0,"url":"https://www.facebook.com/BY2.COFFEE.SHOP/","address":"桃園市中壢區百韜二街48號","latitude":"24.94389420","longitude":"121.22767190","limited_time":"no","socket":"","standing_desk":"","mrt":"","open_time":""},{"id":"3bc4d689-1c27-495e-b6ac-fcd7d2af3fdd","name":"KAHVILA CAFE","city":"taoyuan","wifi":4,"seat":5,"quiet":4,"tasty":4,"cheap":4,"music":4,"url":"","address":"桃園區 南平路387號","latitude":"25.01752120","longitude":"121.29718940","limited_time":"no","socket":"no","standing_desk":"no","mrt":"","open_time":""},{"id":"3db608dd-a8b5-4f1d-8120-e9b1d3fd7aab","name":"Dute coffee ＆ bar","city":"taoyuan","wifi":0,"seat":4,"quiet":3,"tasty":5,"cheap":4,"music":5,"url":"https://www.facebook.com/DUTEcoffeebar/?modal=admin_todo_tour","address":"桃園市中壢區中光路61號","latitude":"24.95699100","longitude":"121.22705100","limited_time":"no","socket":"maybe","standing_desk":"yes","mrt":"","open_time":""},{"id":"3dc35363-7c1b-4015-9539-4e0fd5eb538c","name":"好野咖啡","city":"taoyuan","wifi":0,"seat":0,"quiet":0,"tasty":0,"cheap":0,"music":0,"url":"","address":"桃園市中壢區美樂路76號","latitude":"24.95251340","longitude":"121.22289230","limited_time":"","socket":"","standing_desk":"","mrt":"","open_time":""},{"id":"3f2d95d4-f98a-45b4-aa17-0ccb2ab5ab20","name":"丑咖啡 BU-SU cafe'","city":"taoyuan","wifi":5,"seat":4,"quiet":5,"tasty":5,"cheap":4,"music":5,"url":"https://www.facebook.com/BUSU.cafe/","address":"桃園市大溪區中山路53號","latitude":"24.88196850","longitude":"121.28569640","limited_time":"no","socket":"no","standing_desk":"no","mrt":"","open_time":""},{"id":"4166cda1-c8de-4dee-b235-68feaf9c0ac1","name":"解放咖啡館","city":"taoyuan","wifi":0,"seat":5,"quiet":5,"tasty":5,"cheap":4,"music":4,"url":"","address":"台灣桃園市大溪區復興路26號","latitude":"24.88034540","longitude":"121.28935500","limited_time":"maybe","socket":"maybe","standing_desk":"no","mrt":"","open_time":""},{"id":"41f4a0b8-31fd-422f-9b9d-34485c59887d","name":"走走咖啡","city":"taoyuan","wifi":5,"seat":4,"quiet":4,"tasty":5,"cheap":5,"music":5,"url":"https://www.facebook.com/goaroundwithus/","address":"桃園市桃園區寶山街358號","latitude":"25.01110200","longitude":"121.31209600","limited_time":"maybe","socket":"yes","standing_desk":"yes","mrt":"","open_time":"10~21，六日為0830~2100"},{"id":"427c7916-745f-478b-9d06-7af742aa706d","name":"艾提咖啡","city":"taoyuan","wifi":5,"seat":5,"quiet":5,"tasty":5,"cheap":5,"music":4,"url":"","address":"桃園市桃園區民生路55巷20號","latitude":"24.99152440","longitude":"121.31374050","limited_time":"","socket":"","standing_desk":"","mrt":"","open_time":""},{"id":"4334e4d0-84b4-4ddb-a14f-d8b3e835f047","name":"37cafe","city":"taoyuan","wifi":5,"seat":5,"quiet":5,"tasty":5,"cheap":5,"music":5,"url":"https://www.facebook.com/37cafe37cafe","address":"桃園市龜山區文東五街37巷37號","latitude":"25.05067700","longitude":"121.36157500","limited_time":"no","socket":"maybe","standing_desk":"no","mrt":"","open_time":""},{"id":"440201a9-34f5-498a-a5a2-6459b1449a97","name":"找個地方cafe","city":"taoyuan","wifi":5,"seat":4,"quiet":5,"tasty":4,"cheap":4,"music":4,"url":"https://www.facebook.com/benson1011/","address":"桃園市中壢區大仁二街15號2樓之13","latitude":"24.95477040","longitude":"121.24250940","limited_time":"","socket":"yes","standing_desk":"yes","mrt":"","open_time":""},{"id":"47286f33-4259-4a61-9d31-a0449e1a09af","name":"卡諾咖啡生活館","city":"taoyuan","wifi":0,"seat":0,"quiet":0,"tasty":0,"cheap":0,"music":0,"url":"","address":"330桃園市桃園區大興路200號","latitude":"25.01598320","longitude":"121.31248470","limited_time":"","socket":"","standing_desk":"","mrt":"","open_time":""},{"id":"4781498a-58ec-481a-8b24-5720c3a48164","name":"胖茶壺","city":"taoyuan","wifi":5,"seat":5,"quiet":4,"tasty":5,"cheap":4,"music":4,"url":"https://www.facebook.com/THEFATKETTLECOFFEE/","address":"桃園市蘆竹區中山路22號1樓","latitude":"25.05168760","longitude":"121.30119040","limited_time":"no","socket":"maybe","standing_desk":"yes","mrt":"","open_time":""},{"id":"47bb8e68-c645-4b64-ae0e-290d001bf950","name":"咖啡沁蜜","city":"taoyuan","wifi":0,"seat":5,"quiet":5,"tasty":5,"cheap":5,"music":4,"url":"https://www.facebook.com/QINMICOFFEE/","address":"桃園市八德區廣福路266號","latitude":"24.95971590","longitude":"121.29285900","limited_time":"no","socket":"maybe","standing_desk":"yes","mrt":"","open_time":""},{"id":"498727ca-be91-44f9-8729-d104b6fb6ebf","name":"午逅咖啡","city":"taoyuan","wifi":5,"seat":5,"quiet":5,"tasty":5,"cheap":5,"music":5,"url":"https://www.facebook.com/wuho2121398/","address":"桃園市蘆竹區南崁路352號2樓","latitude":"25.05076900","longitude":"121.29124840","limited_time":"no","socket":"yes","standing_desk":"no","mrt":"","open_time":""},{"id":"4a825f39-2759-44b7-9ea1-4a5051c62a23","name":"Z cafe 自家焙煎咖啡","city":"taoyuan","wifi":5,"seat":3,"quiet":3,"tasty":5,"cheap":5,"music":4,"url":"https://m.facebook.com/Ziv.cafe/?ref=bookmarks","address":"桃園市中壢區新生路二段36號","latitude":"24.97697660","longitude":"121.22281440","limited_time":"maybe","socket":"maybe","standing_desk":"no","mrt":"","open_time":"週二公休"},{"id":"4af81f59-81d6-4eac-8ba8-22a30870fc76","name":"寮國咖啡","city":"taoyuan","wifi":3,"seat":5,"quiet":5,"tasty":4,"cheap":5,"music":3,"url":"","address":"桃園市桃園區廈門街19號","latitude":"24.99454800","longitude":"121.29956500","limited_time":"no","socket":"no","standing_desk":"yes","mrt":"","open_time":"週一～週六08:00～18:00"},{"id":"50cdb3e7-8f2b-4285-9ff0-9ccac77c58c3","name":"Poffee Canteen 波菲咖啡食堂","city":"taoyuan","wifi":5,"seat":5,"quiet":5,"tasty":5,"cheap":5,"music":5,"url":"https://www.facebook.com/poffeecanteen/","address":"中壢區元化路125巷32號","latitude":"24.95937200","longitude":"121.22882900","limited_time":"no","socket":"yes","standing_desk":"yes","mrt":"","open_time":"11:00~20:00"},{"id":"5125fe57-2ad1-4b42-af15-f9bde1f08fc6","name":"Want Cafe 玩咖咖啡館","city":"taoyuan","wifi":5,"seat":5,"quiet":4,"tasty":4,"cheap":3,"music":4,"url":"https://www.facebook.com/WantCafe/","address":"桃園市中壢區環北路167號","latitude":"24.96667800","longitude":"121.22142500","limited_time":"no","socket":"yes","standing_desk":"no","mrt":"","open_time":"主要是六日營業，其他以教學為主"},{"id":"527bd116-909a-4109-bf5b-a867fc7194ee","name":"瑞沁咖啡","city":"taoyuan","wifi":5,"seat":4,"quiet":4,"tasty":5,"cheap":5,"music":4,"url":"https://www.facebook.com/RichingCoffee/","address":"桃園市中壢區元化路141號","latitude":"24.95945300","longitude":"121.22814390","limited_time":"no","socket":"yes","standing_desk":"no","mrt":"","open_time":""},{"id":"55b1d18c-d18b-49b1-8349-237aba85de5b","name":"豆舖咖啡","city":"taoyuan","wifi":4,"seat":5,"quiet":4,"tasty":3,"cheap":3,"music":2,"url":"","address":"桃園區大興西路二段322號","latitude":"25.00869990","longitude":"121.29400000","limited_time":"no","socket":"maybe","standing_desk":"no","mrt":"","open_time":"10：30-20：30"},{"id":"55d3ec56-26b1-4837-acdc-8573c6127db2","name":" Daisy Cafe","city":"taoyuan","wifi":5,"seat":4.5,"quiet":3.5,"tasty":3.5,"cheap":4,"music":3.5,"url":"https://www.facebook.com/Daisy.Cafe.Dessert/","address":"桃園市八德區忠勇一街37號","latitude":"24.96542680","longitude":"121.30492130","limited_time":"","socket":"","standing_desk":"","mrt":"","open_time":""},{"id":"56704293-be8d-464c-b78c-581cebf7cc03","name":"Re-Title Cafe","city":"taoyuan","wifi":0,"seat":0,"quiet":0,"tasty":0,"cheap":0,"music":0,"url":"https://www.facebook.com/ReTitle","address":"桃園市中壢區愛國路60巷39號","latitude":"24.96174210","longitude":"121.22146100","limited_time":"","socket":"","standing_desk":"","mrt":"","open_time":""},{"id":"56efaaf9-def4-40d6-be02-0660ed8a3f8c","name":"大溪-草店尾事務所","city":"taoyuan","wifi":5,"seat":5,"quiet":5,"tasty":5,"cheap":5,"music":5,"url":"https://www.facebook.com/bscafe.ltd/","address":"桃園市大溪區草店尾一巷1號","latitude":"24.88576050","longitude":"121.28675770","limited_time":"no","socket":"yes","standing_desk":"no","mrt":"","open_time":""},{"id":"57293a49-341c-4176-8523-a3b75f223f9e","name":"Webberhood Coffee","city":"taoyuan","wifi":5,"seat":5,"quiet":5,"tasty":5,"cheap":5,"music":5,"url":"https://www.facebook.com/webberhood/","address":"桃園市桃園區國強一街172號1樓","latitude":"24.99252530","longitude":"121.28374390","limited_time":"no","socket":"yes","standing_desk":"yes","mrt":"","open_time":""},{"id":"576a7e2b-ba69-4d49-b562-27dcfa15f80f","name":"築園咖啡","city":"taoyuan","wifi":5,"seat":4,"quiet":3,"tasty":5,"cheap":5,"music":4,"url":"https://www.facebook.com/%E7%AF%89%E7%B7%A3%E5%92%96%E5%95%A1-735650136491024/","address":"桃園市楊梅區行善路120號","latitude":"24.90401220","longitude":"121.15358500","limited_time":"no","socket":"maybe","standing_desk":"yes","mrt":"","open_time":""},{"id":"577e6556-a38c-416a-9317-926cdb41b29b","name":"年代人文咖啡館","city":"taoyuan","wifi":3.5,"seat":3.5,"quiet":2,"tasty":2.5,"cheap":3,"music":2.5,"url":"","address":"桃園市桃園區民族路271號","latitude":"24.99586020","longitude":"121.30682970","limited_time":"","socket":"","standing_desk":"","mrt":"","open_time":""},{"id":"57d9fb4f-6c61-4985-ac23-db9efc4ec115","name":"野人獻曝咖啡館龍潭店","city":"taoyuan","wifi":5,"seat":4.5,"quiet":4.5,"tasty":5,"cheap":3.5,"music":5,"url":"https://www.facebook.com/freemanTime.tw/","address":"桃園市龍潭區新龍路114號","latitude":"24.86011320","longitude":"121.21577160","limited_time":"no","socket":"maybe","standing_desk":"no","mrt":"","open_time":"11:00-20:00"},{"id":"58573642-21d8-4e95-89bd-41592c2ddcb7","name":"風雨珈琲","city":"taoyuan","wifi":5,"seat":4,"quiet":4,"tasty":5,"cheap":4,"music":5,"url":"https://www.facebook.com/風雨珈琲-1740317382919530/","address":"桃園市桃園區民權路25巷12號","latitude":"24.99064690","longitude":"121.31100700","limited_time":"maybe","socket":"","standing_desk":"","mrt":"","open_time":"日～一13:00 - 20:00"},{"id":"5ac41806-de55-4e0c-9bc0-536b20cbaf14","name":"午後時光Coffee烘焙","city":"taoyuan","wifi":0,"seat":0,"quiet":0,"tasty":0,"cheap":0,"music":0,"url":"https://www.facebook.com/AfternoonTimeCoffeeRoast/","address":"桃園市蘆竹區南崁路178號2樓","latitude":"25.04779820","longitude":"121.29396930","limited_time":"no","socket":"yes","standing_desk":"yes","mrt":"","open_time":""},{"id":"5ca0ebcd-2ee5-4837-81f8-cdf82b9e481b","name":"音閱咖啡","city":"taoyuan","wifi":5,"seat":5,"quiet":4,"tasty":5,"cheap":4,"music":5,"url":"https://www.facebook.com/WantmusicCoffee","address":"桃園市中壢區中央東路88號","latitude":"24.95615680","longitude":"121.22625250","limited_time":"no","socket":"maybe","standing_desk":"no","mrt":"","open_time":""},{"id":"5d68779c-3172-47bd-a269-43e33db0ac4d","name":"八號咖啡館","city":"taoyuan","wifi":5,"seat":4,"quiet":4,"tasty":5,"cheap":5,"music":5,"url":"https://www.facebook.com/No8coffee/","address":"桃園市龜山區大興商場8號","latitude":"24.99497340","longitude":"121.33571970","limited_time":"no","socket":"maybe","standing_desk":"no","mrt":"","open_time":"有時晚上無人，會提早休息"},{"id":"5d886c50-6777-45c1-97a4-fdbd04e46812","name":"拾光咖啡","city":"taoyuan","wifi":5,"seat":5,"quiet":5,"tasty":5,"cheap":5,"music":5,"url":"https://www.facebook.com/timelapse2015/","address":"中壢區中北路107號","latitude":"24.95693990","longitude":"121.23823600","limited_time":"maybe","socket":"no","standing_desk":"yes","mrt":"","open_time":""},{"id":"5dc84e91-489c-4f7b-8dd5-3626efb0043a","name":" 三火木咖啡企業社 (燊咖啡3店)","city":"taoyuan","wifi":5,"seat":5,"quiet":4,"tasty":5,"cheap":4,"music":4,"url":"https://www.facebook.com/shencafe87/","address":"桃園市桃園區幸福路87號","latitude":"25.02830470","longitude":"121.30178060","limited_time":"no","socket":"maybe","standing_desk":"yes","mrt":"","open_time":""},{"id":"60f0d9f1-c29a-4250-a28a-f1007514e5b7","name":"甘田果鋪","city":"taoyuan","wifi":4,"seat":4,"quiet":3.5,"tasty":4.5,"cheap":5,"music":4,"url":"https://www.facebook.com/甘田果舖-883231371768539/","address":"桃園市中壢區元化路213號","latitude":"24.96090970","longitude":"121.22727080","limited_time":"","socket":"maybe","standing_desk":"yes","mrt":"","open_time":""},{"id":"60f5af6e-84b2-43f4-9c1c-ede37cb80a54","name":"陽台terrase 咖啡","city":"taoyuan","wifi":4.5,"seat":4.5,"quiet":4,"tasty":3,"cheap":2,"music":3.5,"url":"https://www.facebook.com/terrasecoffee/?_rdr=p&ref=bookmarks","address":"桃園市中壢區慈惠三街34號","latitude":"24.96109420","longitude":"121.22445110","limited_time":"","socket":"","standing_desk":"","mrt":"","open_time":""},{"id":"627f9610-d03f-44ea-9061-c4f15c3cf18b","name":"奕鼎咖啡","city":"taoyuan","wifi":0,"seat":0,"quiet":0,"tasty":0,"cheap":0,"music":0,"url":"https://www.facebook.com/%E5%A5%95%E9%BC%8E%E5%92%96%E5%95%A1%E8%B1%86-125685887482351/?fref=ts","address":"桃園縣八德區忠勇街317號","latitude":"24.96505210","longitude":"121.30348220","limited_time":"","socket":"","standing_desk":"","mrt":"","open_time":""},{"id":"63f53526-cce9-4e39-a585-f2285fff26b0","name":" Café 4 FUN 咖啡趣","city":"taoyuan","wifi":0,"seat":0,"quiet":0,"tasty":0,"cheap":0,"music":0,"url":"https://www.facebook.com/cafe4fun/","address":"桃園市桃園區信光路52號","latitude":"25.00605360","longitude":"121.30686850","limited_time":"","socket":"","standing_desk":"","mrt":"","open_time":""},{"id":"6767da05-65d2-400d-8cb6-23223ee0c99e","name":"Bowen Coffee 伯元精品咖啡烘焙","city":"taoyuan","wifi":5,"seat":5,"quiet":5,"tasty":5,"cheap":5,"music":5,"url":"https://www.facebook.com/pg/BowenCoffeeTw/about/?ref=page_internal","address":"桃園市八德區廣福路783號","latitude":"24.96063300","longitude":"121.27967300","limited_time":"no","socket":"maybe","standing_desk":"yes","mrt":"","open_time":"9:00~19:00, 每週一&第二.四週日公休"},{"id":"6990db2f-f972-4f23-9d21-7f4ecaace0b6","name":"日青方好Goodafter","city":"taoyuan","wifi":0,"seat":0,"quiet":0,"tasty":0,"cheap":0,"music":0,"url":"https://www.facebook.com/goodafter.tw/","address":"桃園市桃園區大興路118號","latitude":"25.01551500","longitude":"121.31008170","limited_time":"maybe","socket":"maybe","standing_desk":"no","mrt":"","open_time":""},{"id":"6a666a86-f0ad-4c38-993a-7d05c1bff8a6","name":"習作咖啡部","city":"taoyuan","wifi":5,"seat":5,"quiet":5,"tasty":5,"cheap":4.5,"music":5,"url":"https://www.facebook.com/%E7%BF%92%E4%BD%9C%E5%92%96%E5%95%A1%E9%83%A8-578442535616943/","address":"桃園市桃園區林森路6巷37號","latitude":"24.98779050","longitude":"121.32038070","limited_time":"no","socket":"maybe","standing_desk":"no","mrt":"","open_time":""},{"id":"6ac8f950-dd4c-4767-a19e-fee87a08cdbf","name":"嵐午咖啡","city":"taoyuan","wifi":5,"seat":4,"quiet":1,"tasty":3,"cheap":1,"music":3,"url":"https://www.facebook.com/lattoocafe/","address":"桃園市中壢區實踐路225-17號","latitude":"24.95763490","longitude":"121.23843010","limited_time":"maybe","socket":"yes","standing_desk":"yes","mrt":"","open_time":""},{"id":"6c743e7f-966b-461a-9b96-754e8e41b58f","name":"Yang Cafe (佑品)","city":"taoyuan","wifi":3,"seat":4,"quiet":3,"tasty":4,"cheap":3,"music":3,"url":"https://www.facebook.com/yangcafe/","address":"桃園市中壢區民權路364號1樓","latitude":"24.96388430","longitude":"121.21732900","limited_time":"no","socket":"no","standing_desk":"","mrt":"","open_time":"10:00 - 20:00"},{"id":"6ed0ffbe-30d8-493e-a387-b69511d37478","name":"鹿點咖啡workshop ","city":"taoyuan","wifi":3,"seat":4,"quiet":3,"tasty":2,"cheap":1,"music":2,"url":"https://www.facebook.com/caffepromisedlandworkshop/","address":"桃園區文化二路34巷14弄6-5號","latitude":"25.05858600","longitude":"121.36533700","limited_time":"no","socket":"yes","standing_desk":"yes","mrt":"","open_time":"11:00-19:00"},{"id":"73273237-9f48-492b-9d55-5c059ec2d1f1","name":"Raretreat Coffee Roaster 微樂咖啡館","city":"taoyuan","wifi":0,"seat":0,"quiet":0,"tasty":0,"cheap":0,"music":0,"url":"","address":"桃園縣中壢市恩德街52號","latitude":"24.96118730","longitude":"121.22401370","limited_time":"","socket":"","standing_desk":"","mrt":"","open_time":""},{"id":"734eaa40-ca24-450f-9e8e-a9d173061e69","name":"四季芳庭","city":"taoyuan","wifi":0,"seat":0,"quiet":4,"tasty":5,"cheap":5,"music":5,"url":"","address":"桃園市蘆竹區南上路3號2樓","latitude":"25.04749030","longitude":"121.29450200","limited_time":"no","socket":"yes","standing_desk":"no","mrt":"","open_time":""},{"id":"78bdb503-f62c-4a34-8efa-5be3a2563d29","name":"Love in cafe","city":"taoyuan","wifi":5,"seat":3,"quiet":3,"tasty":4,"cheap":5,"music":4,"url":"https://www.facebook.com/loveincafe/","address":"中壢市慈惠一街126號","latitude":"24.96100450","longitude":"121.22510040","limited_time":"no","socket":"maybe","standing_desk":"yes","mrt":"","open_time":""},{"id":"7aa18025-c4c9-4330-8f47-a020a737e957","name":"豈咖啡","city":"taoyuan","wifi":5,"seat":5,"quiet":5,"tasty":5,"cheap":5,"music":5,"url":"https://www.facebook.com/sipscofe/","address":"桃園市八德區忠勇街84巷8號","latitude":"24.96008930","longitude":"121.30478170","limited_time":"no","socket":"maybe","standing_desk":"no","mrt":"","open_time":""},{"id":"7ad7636d-9305-4d9d-bd45-8adcf70210f0","name":"紅果子手烘咖啡坊","city":"taoyuan","wifi":1,"seat":5,"quiet":5,"tasty":5,"cheap":5,"music":5,"url":"www.facebook.com/033389288.com.te/","address":"桃園市桃園區中山東路70號","latitude":"24.99665610","longitude":"121.31729900","limited_time":"no","socket":"no","standing_desk":"no","mrt":"","open_time":"每月雙數週週三公休"},{"id":"7da3561d-0721-478a-a88f-0374e2ebca90","name":"ㄩㄢˊ咖啡事務所","city":"taoyuan","wifi":5,"seat":5,"quiet":5,"tasty":4,"cheap":5,"music":5,"url":"https://www.facebook.com/yuancoffee.tw","address":"桃園市龜山區復興二路131巷19號","latitude":"25.05423230","longitude":"121.37087230","limited_time":"no","socket":"maybe","standing_desk":"no","mrt":"","open_time":"9:00-19:00禮拜一公休"},{"id":"82dfc8cb-ef3a-4386-95c3-c2f2a296bdc3","name":"路易莎咖啡桃鶯店","city":"taoyuan","wifi":5,"seat":5,"quiet":4,"tasty":5,"cheap":5,"music":5,"url":"https://www.facebook.com/louisacoffeetaoyuan/","address":"桃園區桃鶯路168-1號","latitude":"24.98303640","longitude":"121.31874020","limited_time":"no","socket":"yes","standing_desk":"yes","mrt":"","open_time":"7:00-20:00"},{"id":"83182a01-aca9-4c5d-aa8f-805766895c57","name":"麻茶元","city":"taoyuan","wifi":5,"seat":5,"quiet":5,"tasty":5,"cheap":3,"music":5,"url":"https://m.facebook.com/MatchaMoto/","address":"桃園市蘆竹區桃園街2號","latitude":"25.04298070","longitude":"121.29345960","limited_time":"maybe","socket":"maybe","standing_desk":"no","mrt":"","open_time":""},{"id":"854d949c-1df0-48c7-a9a0-3112dd59d8ce","name":" Jo's Corner Café","city":"taoyuan","wifi":4,"seat":3.5,"quiet":3.5,"tasty":3.5,"cheap":4,"music":5,"url":"https://www.facebook.com/JosCornerCafe/","address":"桃園市桃園區國強一街135號","latitude":"24.99248750","longitude":"121.28594620","limited_time":"maybe","socket":"no","standing_desk":"no","mrt":"","open_time":""},{"id":"86b35c6c-2094-4f5c-ab73-dd8d6b6dff74","name":"啡行計畫coffee&dessert","city":"taoyuan","wifi":5,"seat":5,"quiet":5,"tasty":5,"cheap":3,"music":5,"url":"https://www.facebook.com/coffeedessertlife/","address":"桃園市桃園區敬二街38號","latitude":"25.02305160","longitude":"121.29316420","limited_time":"maybe","socket":"yes","standing_desk":"no","mrt":"","open_time":""},{"id":"880d3674-82ab-4c79-97d8-f2934dc8088a","name":"雷爾森","city":"taoyuan","wifi":5,"seat":4,"quiet":4,"tasty":5,"cheap":4,"music":4,"url":"https://www.facebook.com/%E9%9B%B7%E7%88%BE%E6%A3%AE%E5%92%96%E5%95%A1-145718265477350/?fref=ts","address":"桃園市中壢區三光路205號","latitude":"24.96378290","longitude":"121.21294310","limited_time":"no","socket":"maybe","standing_desk":"no","mrt":"","open_time":" 週三至週四13:00~20:00、週五13:00~21:00 週六13:30~21:00、週日13:00~20:00"},{"id":"88e69d3f-e8e7-414e-b527-dbdef054e9d2","name":"Wooly café","city":"taoyuan","wifi":5,"seat":3,"quiet":4,"tasty":5,"cheap":4,"music":5,"url":"https://www.facebook.com/woolycafe","address":"桃園市桃園區大同路60-1號","latitude":"24.98950920","longitude":"121.31182490","limited_time":"","socket":"","standing_desk":"","mrt":"","open_time":""},{"id":"8b5c8b7b-3a35-4287-93ae-35cf242a7fca","name":"友美子珈琲Cafeyumiko","city":"taoyuan","wifi":5,"seat":4,"quiet":4,"tasty":5,"cheap":4,"music":5,"url":"https://www.facebook.com/cafeyumiko/","address":"桃園區同德11街127號","latitude":"25.02009180","longitude":"121.29562770","limited_time":"maybe","socket":"maybe","standing_desk":"no","mrt":"","open_time":""},{"id":"8bb6c3fa-8ac8-4ce1-97a8-40588482471e","name":"190 Café House 珈琲烘焙屋","city":"taoyuan","wifi":5,"seat":4.5,"quiet":4,"tasty":5,"cheap":4,"music":4.5,"url":"https://www.facebook.com/190CafeHouse/","address":"桃園市桃園區慈光街51號","latitude":"25.00512250","longitude":"121.29797540","limited_time":"no","socket":"yes","standing_desk":"no","mrt":"","open_time":"週三公休，週一至週日10:30 - 19:30"},{"id":"926d5c19-4189-450f-a524-5c464aa04dd6","name":"Cafe Traveller 旅活楽咖啡","city":"taoyuan","wifi":5,"seat":5,"quiet":5,"tasty":5,"cheap":5,"music":5,"url":"https://www.facebook.com/CafeTraveller.LongTang/","address":"桃園市龍潭區中正路103號","latitude":"24.86803590","longitude":"121.21583600","limited_time":"","socket":"","standing_desk":"yes","mrt":"","open_time":""},{"id":"92a994a5-aa37-423c-a00c-11ab574f72c9","name":"新南12文創實驗商行","city":"taoyuan","wifi":5,"seat":4.5,"quiet":5,"tasty":4,"cheap":4.5,"music":4.5,"url":"https://www.facebook.com/sinnan12/","address":"桃園市大溪區中山路12號","latitude":"24.88173360","longitude":"121.28705530","limited_time":"maybe","socket":"no","standing_desk":"no","mrt":"","open_time":""},{"id":"94216d83-9467-4c19-bca7-d3052c6767ce","name":"Louisa Coffee 路易．莎咖啡(桃園桃大極門市)","city":"taoyuan","wifi":0,"seat":3,"quiet":2,"tasty":3,"cheap":4,"music":3,"url":"","address":"桃園市八德區金和路60號","latitude":"24.95515830","longitude":"121.29689000","limited_time":"no","socket":"","standing_desk":"no","mrt":"","open_time":""},{"id":"95cf032c-e86b-40ec-b316-9d3a5d8f79ef","name":"丹馬克咖啡","city":"taoyuan","wifi":4,"seat":3,"quiet":1,"tasty":3,"cheap":3,"music":4,"url":"https://www.facebook.com/DamarkCaFe/","address":"桃園縣中壢市慈惠三街157巷10號","latitude":"24.96409280","longitude":"121.22484870","limited_time":"","socket":"","standing_desk":"","mrt":"","open_time":""},{"id":"97c692d2-37cb-4812-b4ae-0ea8af4a5735","name":"晴耕雨讀小書院","city":"taoyuan","wifi":5,"seat":5,"quiet":5,"tasty":5,"cheap":4,"music":5,"url":"https://www.facebook.com/lifestylebookstore/","address":"桃園市平鎮區福龍路一段560巷12號","latitude":"24.89633680","longitude":"121.22586130","limited_time":"maybe","socket":"maybe","standing_desk":"no","mrt":"","open_time":""},{"id":"980b8b4f-705d-4f33-887e-07a89dff6282","name":"MINE CAFE","city":"taoyuan","wifi":5,"seat":5,"quiet":5,"tasty":5,"cheap":4,"music":5,"url":"https://www.facebook.com/MINE-CAFE-%E8%B3%A3%E5%92%96%E5%95%A1-1527754587536166/","address":"中壢區福州路63號","latitude":"24.95250900","longitude":"121.23321300","limited_time":"no","socket":"maybe","standing_desk":"yes","mrt":"","open_time":""},{"id":"985e6450-118c-4b2c-8201-444e7812c9b0","name":"閱讀柒年","city":"taoyuan","wifi":5,"seat":3,"quiet":5,"tasty":5,"cheap":3,"music":4,"url":"https://www.facebook.com/sevenyear1156/","address":"桃園市桃園區中正路115巷6號","latitude":"24.99300980","longitude":"121.31143360","limited_time":"","socket":"yes","standing_desk":"no","mrt":"","open_time":"11:00-21:00(週二休息)"},{"id":"999a3f73-7db4-4430-8df2-354c530d32cb","name":"可樂農莊桌上遊戲","city":"taoyuan","wifi":5,"seat":3,"quiet":3,"tasty":5,"cheap":3,"music":0,"url":"https://www.facebook.com/AgricolaFarm/?ref=page_internal","address":"桃園市中壢區東明街78號1樓","latitude":"24.95230280","longitude":"121.22975350","limited_time":"","socket":"","standing_desk":"","mrt":"","open_time":""},{"id":"99c23919-aaa0-4c61-8571-fe1734cb3414","name":"杯子。手沖咖啡","city":"taoyuan","wifi":0,"seat":0,"quiet":0,"tasty":0,"cheap":0,"music":0,"url":"","address":"桃園市龍潭區文化路(石門國小旁)","latitude":"24.84170910","longitude":"121.24083400","limited_time":"","socket":"","standing_desk":"","mrt":"","open_time":""},{"id":"9ac550f6-c0b3-498c-8227-281af137cb37","name":"Nuageクラウド雲朵鬆餅","city":"taoyuan","wifi":5,"seat":4.5,"quiet":4.5,"tasty":4.5,"cheap":2.5,"music":4.5,"url":"https://www.facebook.com/newdaycofe/","address":"桃園市桃園區民生路55巷8號","latitude":"24.99156610","longitude":"121.31415020","limited_time":"maybe","socket":"yes","standing_desk":"yes","mrt":"","open_time":""},{"id":"9c1461f5-5663-49dc-b11c-732d2a66cc74","name":"路易.莎咖啡(桃園縣府店)","city":"taoyuan","wifi":4,"seat":4,"quiet":5,"tasty":5,"cheap":5,"music":0,"url":"http://www.louisacoffee.co/","address":"桃園市桃園區中山路426號","latitude":"24.99227400","longitude":"121.30287200","limited_time":"no","socket":"maybe","standing_desk":"no","mrt":"","open_time":""},{"id":"9ffd9b76-26f7-47e1-8d8e-eb237f230063","name":" 翻轉甜點 flipbakery","city":"taoyuan","wifi":5,"seat":5,"quiet":4.5,"tasty":4,"cheap":3,"music":4,"url":"https://www.facebook.com/flipbakery/","address":"桃園市桃園區正光路71巷6號","latitude":"24.99150860","longitude":"121.29509510","limited_time":"maybe","socket":"maybe","standing_desk":"no","mrt":"","open_time":""},{"id":"9ffea7d7-7323-4ab3-b29c-c4c48f1853d3","name":"Boss Coffee 桃園旗艦店","city":"taoyuan","wifi":5,"seat":5,"quiet":4,"tasty":4,"cheap":5,"music":3,"url":"https://www.facebook.com/Boss-Coffee-%E6%A1%83%E5%9C%92%E6%97%97%E8%89%A6%E9%BB%9E-403453739855910/","address":"桃園市桃園區新埔八街53號","latitude":"25.01957840","longitude":"121.29888640","limited_time":"no","socket":"maybe","standing_desk":"no","mrt":"","open_time":""},{"id":"a1d34aec-1e35-42a7-bd71-78fb5375eb9f","name":"恰歐 Coffee Ciao","city":"taoyuan","wifi":4,"seat":4,"quiet":3.5,"tasty":4,"cheap":3.5,"music":3.5,"url":"https://www.facebook.com/ciaocoffeeciao/","address":"桃園市中壢區文化路130巷27號","latitude":"24.97498510","longitude":"121.25513950","limited_time":"maybe","socket":"maybe","standing_desk":"no","mrt":"","open_time":"週一公休 平日11:00-19:00假日11:00-20:00"},{"id":"a1da915a-fb0e-4ccd-8f4c-55d072080d98","name":" Collage咖楽聚-桃園總店","city":"taoyuan","wifi":0,"seat":0,"quiet":0,"tasty":0,"cheap":0,"music":0,"url":"https://www.facebook.com/CollageBrunch/","address":"桃園市桃園區國豐三街159號","latitude":"24.99120250","longitude":"121.27849530","limited_time":"maybe","socket":"maybe","standing_desk":"no","mrt":"","open_time":""},{"id":"a71196ed-214f-4074-8a17-c509251c97f1","name":"丹宅","city":"taoyuan","wifi":4.5,"seat":4.5,"quiet":4.5,"tasty":4.5,"cheap":4.5,"music":4.5,"url":"https://www.facebook.com/%E4%B8%B9%E5%AE%85-DANs-home-cuisine-788329184649240/","address":"桃園市桃園區園二街48號","latitude":"24.99738170","longitude":"121.31470240","limited_time":"maybe","socket":"maybe","standing_desk":"no","mrt":"","open_time":""},{"id":"aaa7f9ce-5fac-43b7-b134-5038b31c4c10","name":"Numbear 13 Cafe","city":"taoyuan","wifi":5,"seat":5,"quiet":5,"tasty":4,"cheap":5,"music":4,"url":"https://www.facebook.com/pg/numbear13/about/?ref=page_internal","address":"桃園市中壢區大仁五街32號1樓","latitude":"24.95663270","longitude":"121.24014760","limited_time":"maybe","socket":"no","standing_desk":"no","mrt":"","open_time":""},{"id":"abf1f8f3-9e25-4b93-8854-de0670e33a46","name":"鹿點咖啡 Luna桃園店","city":"taoyuan","wifi":0,"seat":3,"quiet":5,"tasty":5,"cheap":4,"music":5,"url":"https://www.facebook.com/caffepromisedlandluna/","address":"桃園市桃園區成功路三段175號","latitude":"25.00437200","longitude":"121.32447300","limited_time":"no","socket":"maybe","standing_desk":"yes","mrt":"","open_time":""},{"id":"ac52e3e5-a709-49db-9e11-adc6a27a5784","name":"hiii birdie 知鳥咖啡","city":"taoyuan","wifi":4.5,"seat":5,"quiet":4.5,"tasty":4.5,"cheap":4,"music":5,"url":"https://www.facebook.com/hiiibirdiecafe/","address":"桃園市龜山區興華五街75號","latitude":"25.05228970","longitude":"121.36585690","limited_time":"no","socket":"maybe","standing_desk":"no","mrt":"","open_time":"9:30~20:30"},{"id":"ae745ebd-b80a-4001-a641-500914a156fa","name":"9bar","city":"taoyuan","wifi":3,"seat":3,"quiet":3,"tasty":4,"cheap":4,"music":3,"url":"https://www.facebook.com/9Bar-%E8%87%AA%E5%AE%B6%E7%83%98%E7%84%99%E5%92%96%E5%95%A1-148096171916268/","address":"桃園市龜山區自強南路741號","latitude":"24.99193070","longitude":"121.33299360","limited_time":"no","socket":"no","standing_desk":"yes","mrt":"","open_time":""},{"id":"ae75f954-1512-4319-8edf-c53421af8bbf","name":"Ten past ten 咖啡豆專賣店","city":"taoyuan","wifi":1,"seat":5,"quiet":5,"tasty":5,"cheap":5,"music":5,"url":"https://www.facebook.com/Ten-Past-Ten-%E5%92%96%E5%95%A1%E8%B1%86%E5%B0%88%E8%B3%A3%E5%BA%97-199950360035279/","address":"桃園市蘆竹區洛陽街三號","latitude":"25.04548800","longitude":"121.29263600","limited_time":"no","socket":"no","standing_desk":"yes","mrt":"","open_time":"10:00~21:00"},{"id":"ae88b92f-541d-486f-821e-2583b5466325","name":" WonderCoffee汪森市","city":"taoyuan","wifi":5,"seat":5,"quiet":5,"tasty":4,"cheap":5,"music":5,"url":"https://www.facebook.com/WonderCoffee%E6%B1%AA%E6%A3%AE%E5%B8%82-297939741159621/","address":"桃園市桃園區延壽街162號","latitude":"24.99423700","longitude":"121.28974800","limited_time":"maybe","socket":"maybe","standing_desk":"no","mrt":"","open_time":""},{"id":"af1a425e-5c7b-4b4e-9062-a6cbef6c0223","name":"再再之在 Cafe Here Again 咖啡豆專賣店","city":"taoyuan","wifi":0,"seat":0,"quiet":0,"tasty":0,"cheap":0,"music":0,"url":"","address":"桃園市中壢區新生路二段36號","latitude":"24.97708690","longitude":"121.22296620","limited_time":"","socket":"","standing_desk":"","mrt":"","open_time":""},{"id":"b07689f7-b70f-4b80-972f-943fed2ffd06","name":"6號咖啡館","city":"taoyuan","wifi":5,"seat":4.5,"quiet":3.5,"tasty":5,"cheap":4.5,"music":5,"url":"","address":"桃園市桃園區同德六街154號","latitude":"25.01574720","longitude":"121.29745610","limited_time":"","socket":"","standing_desk":"","mrt":"","open_time":""},{"id":"b08e9598-26b2-4f6f-be42-7bdab5a3c800","name":"豆語精品咖啡烘焙坊","city":"taoyuan","wifi":0,"seat":0,"quiet":0,"tasty":0,"cheap":0,"music":0,"url":"","address":"桃園市桃園區信二街4號","latitude":"24.99556700","longitude":"121.30070500","limited_time":"","socket":"","standing_desk":"","mrt":"","open_time":""},{"id":"b251b975-29ef-46d9-a490-8b307d5cfdc9","name":"養親轅咖啡","city":"taoyuan","wifi":5,"seat":3,"quiet":5,"tasty":5,"cheap":4,"music":5,"url":"https://www.facebook.com/jodie.home.cafe9319/","address":"320桃園市中壢區環中東路二段488號","latitude":"24.94624250","longitude":"121.23195530","limited_time":"no","socket":"no","standing_desk":"no","mrt":"","open_time":""},{"id":"b3132bed-057d-42fe-813e-9a811b63f31a","name":"Rosephils Coffee","city":"taoyuan","wifi":0,"seat":0,"quiet":0,"tasty":0,"cheap":0,"music":0,"url":"https://www.facebook.com/ROSEPHILS.COFFEE/","address":"桃園市中壢區新生路225號","latitude":"24.96266800","longitude":"121.22274400","limited_time":"","socket":"","standing_desk":"","mrt":"","open_time":""},{"id":"b344ef9f-ed2c-44a0-a1b6-93a4b8f1caea","name":"冷杉咖啡 Silver Tree Coffee","city":"taoyuan","wifi":0,"seat":0,"quiet":0,"tasty":0,"cheap":0,"music":0,"url":"https://www.instagram.com/_silvertreecoffee_/","address":"桃園市中壢區慈惠二街56號","latitude":"24.96045900","longitude":"121.22467460","limited_time":"","socket":"","standing_desk":"","mrt":"","open_time":""},{"id":"b4027d57-dabb-4980-9a9d-7fa3bf87a759","name":"日暖咖啡","city":"taoyuan","wifi":5,"seat":4,"quiet":5,"tasty":5,"cheap":5,"music":5,"url":"https://www.facebook.com/rinuancafe/","address":"330桃園市桃園區春日路279號","latitude":"24.99856270","longitude":"121.31487530","limited_time":"","socket":"","standing_desk":"","mrt":"","open_time":""},{"id":"b5e4f0f7-b64a-4d31-9a16-749ff7c1ac45","name":"歐曼","city":"taoyuan","wifi":5,"seat":5,"quiet":5,"tasty":5,"cheap":5,"music":5,"url":"https://www.facebook.com/pg/OhMyCoffee/about/?ref=page_internal","address":" 桃園市龜山區自強東路204號","latitude":"24.99659420","longitude":"121.34434520","limited_time":"no","socket":"maybe","standing_desk":"no","mrt":"","open_time":"12:00~20:00"},{"id":"b65b672a-52f3-4a6e-a398-fa0b24fa3d82","name":"黑瓶咖啡","city":"taoyuan","wifi":5,"seat":5,"quiet":5,"tasty":5,"cheap":5,"music":5,"url":"https://www.facebook.com/blackbottlecafeTW/","address":"桃園市桃園區大興西路二段138號","latitude":"25.01041790","longitude":"121.29627900","limited_time":"no","socket":"no","standing_desk":"yes","mrt":"","open_time":""},{"id":"b9360e78-790c-44ec-8fea-d4990b32809c","name":"酒豆 Chotto","city":"taoyuan","wifi":0,"seat":0,"quiet":0,"tasty":0,"cheap":0,"music":0,"url":"https://www.facebook.com/CHOTTO0938523002/","address":"桃園市中壢區成章一街181號","latitude":"24.97563740","longitude":"121.25467460","limited_time":"","socket":"","standing_desk":"","mrt":"","open_time":""},{"id":"b9a5b618-1f7e-494e-9baa-3895eba685f2","name":"綠沐恬拾","city":"taoyuan","wifi":0,"seat":4,"quiet":3.5,"tasty":3.5,"cheap":3.5,"music":5,"url":"https://www.facebook.com/greenco2291/","address":"桃園市中壢區中央西路二段229-1號","latitude":"24.96090190","longitude":"121.21280200","limited_time":"","socket":"","standing_desk":"","mrt":"","open_time":""},{"id":"ba2d6758-b14f-476f-aa36-02ecc16a1b42","name":"Han's larger 自家烘焙","city":"taoyuan","wifi":5,"seat":4,"quiet":4,"tasty":5,"cheap":4,"music":5,"url":"https://www.facebook.com/hanskaffee777/","address":"桃園市龜山區文化一街十巷41弄8號一樓","latitude":"25.04844790","longitude":"121.38572800","limited_time":"maybe","socket":"maybe","standing_desk":"yes","mrt":"","open_time":"11:00-22:00"},{"id":"ba63943a-caad-4a13-9dc9-f4a2f8e9f65f","name":"快樂天堂義式咖啡館Happy Paradise","city":"taoyuan","wifi":0,"seat":0,"quiet":0,"tasty":0,"cheap":0,"music":0,"url":"https://www.facebook.com/HappyParadiseIllyCafe","address":"桃園市大溪區中正路41號","latitude":"24.88301720","longitude":"121.28610160","limited_time":"","socket":"","standing_desk":"","mrt":"","open_time":""},{"id":"bbac8b94-f9ae-4cf3-966b-017a75682af7","name":" Hidden Dream 嚐夢甜點","city":"taoyuan","wifi":0,"seat":5,"quiet":5,"tasty":5,"cheap":4,"music":5,"url":"https://www.facebook.com/JosCornerCafe/","address":"桃園市桃園區民光路127號","latitude":"25.00335270","longitude":"121.30438180","limited_time":"","socket":"","standing_desk":"","mrt":"","open_time":""},{"id":"bc968773-a21f-4e32-a63f-c05697dcb14f","name":"共坐 Cafe & Work","city":"taoyuan","wifi":5,"seat":5,"quiet":5,"tasty":5,"cheap":4,"music":4,"url":"https://cospacefan.weebly.com/","address":"桃園市中壢區大仁五街35號1樓","latitude":"24.95635910","longitude":"121.24027830","limited_time":"no","socket":"yes","standing_desk":"no","mrt":"","open_time":"偶有更動以google map為準"},{"id":"bd36ed04-294e-457c-8aae-082e175f55db","name":"星海之戀咖啡館","city":"taoyuan","wifi":5,"seat":3,"quiet":2,"tasty":3,"cheap":2,"music":3,"url":"","address":"桃園市蘆竹區南山路三段446號","latitude":"25.08880700","longitude":"121.28738400","limited_time":"","socket":"","standing_desk":"","mrt":"","open_time":""},{"id":"bf91a444-0575-4859-b7d6-9e49dddc610f","name":"Material café 素材日常","city":"taoyuan","wifi":5,"seat":4,"quiet":4,"tasty":5,"cheap":5,"music":5,"url":"https://www.facebook.com/material7761/","address":"桃園市中壢區環中東路桃園區320","latitude":"24.95868060","longitude":"121.25043640","limited_time":"maybe","socket":"maybe","standing_desk":"yes","mrt":"","open_time":""},{"id":"bf9c0fad-9c6f-49ff-bf6a-f4aba2e9527c","name":"OWL Dessert 貓頭鷹法式手工甜點","city":"taoyuan","wifi":0,"seat":2,"quiet":4,"tasty":5,"cheap":3,"music":5,"url":"https://www.facebook.com/koreaowldessert","address":"桃園市八德區東勇街78號","latitude":"24.95908920","longitude":"121.30676970","limited_time":"no","socket":"no","standing_desk":"no","mrt":"","open_time":""},{"id":"bfee4702-4424-4642-a63f-d8d6cb2602e1","name":"MR.DODO自家烘焙咖啡館","city":"taoyuan","wifi":5,"seat":5,"quiet":4,"tasty":4.5,"cheap":4,"music":5,"url":"https://www.facebook.com/MRDODO3606/","address":"桃園市平鎮區北華里振平街3號","latitude":"24.94505110","longitude":"121.21961280","limited_time":"maybe","socket":"maybe","standing_desk":"no","mrt":"","open_time":"AM 11:30~ PM 7:00"},{"id":"c34b9faf-446c-4f4d-b278-10cf1a010223","name":"BUNA CAF'E布納咖啡館藝文店","city":"taoyuan","wifi":4,"seat":3,"quiet":3,"tasty":4,"cheap":3,"music":5,"url":"https://www.facebook.com/bunacafe1061/?ref=br_rs","address":"桃園市桃園區中正路1061號","latitude":"25.01578700","longitude":"121.29849720","limited_time":"no","socket":"maybe","standing_desk":"no","mrt":"","open_time":""},{"id":"c3a7cab2-0794-4cec-8b30-e757c695f00d","name":"年輕的老頭","city":"taoyuan","wifi":5,"seat":3,"quiet":5,"tasty":5,"cheap":5,"music":5,"url":"http://youngoldcoffee.blogspot.com/","address":"桃園市龍潭區聖亭路八德段22號","latitude":"24.87325680","longitude":"121.20251800","limited_time":"","socket":"","standing_desk":"","mrt":"","open_time":""},{"id":"c42de0bb-f6fb-4957-b11e-c3b575bb3fba","name":"羅伯咖啡-桃園中華電信中壢中山門市","city":"taoyuan","wifi":5,"seat":5,"quiet":0,"tasty":5,"cheap":5,"music":0,"url":"https://www.facebook.com/%E7%BE%85%E4%BC%AF%E5%92%96%E5%95%A1-%E6%A1%83%E5%9C%92%E4%B8%AD%E8%8F%AF%E9%9B%BB%E4%BF%A1%E4%B8%AD%E5%A3%A2%E4%B8%AD%E5%B1%B1%E9%96%80%E5%B8%82-1809127882470707/","address":"桃園市中壢區中山路152號","latitude":"24.95630490","longitude":"121.22436000","limited_time":"no","socket":"no","standing_desk":"no","mrt":"","open_time":""},{"id":"c565f052-21dc-4bb4-976d-a1b3215df181","name":"樹舍308 Cafe","city":"taoyuan","wifi":5,"seat":4,"quiet":3,"tasty":5,"cheap":5,"music":4,"url":"https://www.facebook.com/treatortreescafe/?fref=ts","address":"桃園市中壢區復華街308號","latitude":"24.97675590","longitude":"121.24829790","limited_time":"","socket":"no","standing_desk":"no","mrt":"","open_time":""},{"id":"c6112e60-2514-4bea-a589-948810fcb672","name":"Piepai Cafe'","city":"taoyuan","wifi":0,"seat":0,"quiet":0,"tasty":0,"cheap":0,"music":0,"url":"https://www.facebook.com/piepaicafe/","address":"桃園區大興路120巷21號","latitude":"25.01606060","longitude":"121.30973640","limited_time":"","socket":"","standing_desk":"","mrt":"","open_time":""},{"id":"c6514743-55be-4b19-b4ab-63d154817a5d","name":"日福 OH HAPPY DAY","city":"taoyuan","wifi":5,"seat":5,"quiet":5,"tasty":5,"cheap":4,"music":5,"url":"https://www.facebook.com/ohhappydaynow/","address":"桃園市桃園區中埔七街7號","latitude":"25.02062880","longitude":"121.29514710","limited_time":"maybe","socket":"maybe","standing_desk":"no","mrt":"","open_time":""},{"id":"c77d7cd5-23af-4f56-b682-542ef12f1054","name":"散步咖啡 La Promenade Café","city":"taoyuan","wifi":4,"seat":3.5,"quiet":2.5,"tasty":5,"cheap":5,"music":4.5,"url":"https://www.facebook.com/%E6%95%A3%E6%AD%A5%E5%92%96%E5%95%A1-La-Promenade-Caf%C3%A9-288910587876860/","address":"桃園市中壢區三和三街24號","latitude":"24.95430490","longitude":"121.24070300","limited_time":"","socket":"maybe","standing_desk":"no","mrt":"","open_time":"12:00-9:00 (週日公休)"},{"id":"c85bac3e-9eb1-443d-99ea-6d75fc83ec9c","name":"7號公路","city":"taoyuan","wifi":0,"seat":4,"quiet":5,"tasty":4,"cheap":4,"music":4,"url":"","address":"桃園市復興區澤仁里詩朗14-1號","latitude":"24.82575310","longitude":"121.35615630","limited_time":"","socket":"","standing_desk":"","mrt":"","open_time":""},{"id":"c889ccea-fb4b-4d40-92b0-a2f3f8ab1154","name":"月光咖啡廳 ","city":"taoyuan","wifi":0,"seat":0,"quiet":0,"tasty":0,"cheap":0,"music":0,"url":"https://www.facebook.com/moxonlight/","address":"桃園市桃園區民富十一街108號","latitude":"25.01078960","longitude":"121.31436550","limited_time":"no","socket":"maybe","standing_desk":"yes","mrt":"","open_time":"11:00~22:00，週一公休"},{"id":"c97f60b3-92d8-4ea8-a73e-013dde08da4c","name":"芮漢精品咖啡","city":"taoyuan","wifi":0,"seat":0,"quiet":0,"tasty":0,"cheap":0,"music":0,"url":"","address":"桃園市龜山區宏慶街70號","latitude":"25.01876740","longitude":"121.41139130","limited_time":"","socket":"","standing_desk":"","mrt":"","open_time":""},{"id":"cddccc59-03bc-49e5-b49c-7b65427d1887","name":"老窩咖啡烘培館－桃園中平店","city":"taoyuan","wifi":5,"seat":5,"quiet":5,"tasty":5,"cheap":5,"music":5,"url":"https://www.facebook.com/laoozhongping/","address":"宏昌六街256號","latitude":"24.98705110","longitude":"121.29115830","limited_time":"maybe","socket":"no","standing_desk":"no","mrt":"","open_time":""},{"id":"cee188d1-0882-42ce-9878-a3447507c0d9","name":"拾事咖啡","city":"taoyuan","wifi":5,"seat":5,"quiet":5,"tasty":5,"cheap":5,"music":5,"url":"","address":"桃園市中壢區福星六街67號","latitude":"24.96626890","longitude":"121.23283000","limited_time":"no","socket":"yes","standing_desk":"no","mrt":"","open_time":""},{"id":"d09bb3f8-9c40-4aa4-b7b5-b55e1183eb67","name":"SOLO Coffee","city":"taoyuan","wifi":5,"seat":4,"quiet":4,"tasty":5,"cheap":4,"music":5,"url":"https://www.facebook.com/hellosolocoffee/","address":"桃園區莊敬路二段34巷38之一號","latitude":"25.02332200","longitude":"121.29282000","limited_time":"no","socket":"yes","standing_desk":"yes","mrt":"","open_time":"10~17，周四公休"},{"id":"d1fd635f-f3da-4f0d-bf0d-e014bf0e4126","name":"豆趣咖啡","city":"taoyuan","wifi":5,"seat":4,"quiet":4,"tasty":4.5,"cheap":5,"music":5,"url":"https://www.facebook.com/excellentcoffeeshop/","address":"桃園市蘆竹區南山路一段212號","latitude":"25.05480070","longitude":"121.29083330","limited_time":"no","socket":"yes","standing_desk":"no","mrt":"","open_time":"11:00-21:00"},{"id":"d290a611-9494-4860-bd78-1af3751db07e","name":"森鄰水岸景觀咖啡館","city":"taoyuan","wifi":0,"seat":0,"quiet":0,"tasty":0,"cheap":0,"music":0,"url":"","address":"桃園市復興區澤仁里一鄰6號","latitude":"24.81408000","longitude":"121.34617400","limited_time":"","socket":"","standing_desk":"","mrt":"","open_time":""},{"id":"d64319eb-6f31-4e3d-8e97-7d8605fa2df8","name":"亞鷹咖啡館","city":"taoyuan","wifi":0,"seat":0,"quiet":0,"tasty":0,"cheap":0,"music":0,"url":"https://www.facebook.com/ya.eagle.coffee/","address":"桃園市平鎮區中豐路山頂段236號","latitude":"24.89865360","longitude":"121.21086840","limited_time":"","socket":"","standing_desk":"","mrt":"","open_time":""},{"id":"d681c558-931d-4b8b-818a-5cc0497a0abc","name":"倆朵花 two flowers coffee","city":"taoyuan","wifi":0,"seat":0,"quiet":0,"tasty":0,"cheap":0,"music":0,"url":"https://twoflowers.tw/","address":"桃園市桃園區介壽路427號1樓","latitude":"24.97878210","longitude":"121.30419600","limited_time":"","socket":"","standing_desk":"","mrt":"","open_time":""},{"id":"d718220c-2108-4578-92f0-db80b9765781","name":"Sieg cafe","city":"taoyuan","wifi":0,"seat":5,"quiet":5,"tasty":5,"cheap":4,"music":5,"url":"https://m.facebook.com/SiegCafe/","address":"中壢區中和路271號1樓","latitude":"24.95361840","longitude":"121.22271560","limited_time":"no","socket":"","standing_desk":"yes","mrt":"","open_time":"11:00~22:00"},{"id":"d83a6326-d843-4b09-913c-8b7401b712ad","name":"甘日洋食行","city":"taoyuan","wifi":5,"seat":3,"quiet":3,"tasty":4,"cheap":5,"music":4,"url":"https://www.facebook.com/GanRiBrunch/","address":"桃園市桃園區莊二街69號 ","latitude":"25.02388200","longitude":"121.29424510","limited_time":"maybe","socket":"no","standing_desk":"no","mrt":"","open_time":""},{"id":"d9b9a447-5469-4c6d-95be-8a6247bedc4c","name":"祖厝咖啡·gugucoffee","city":"taoyuan","wifi":5,"seat":5,"quiet":4,"tasty":5,"cheap":4,"music":5,"url":"https://www.facebook.com/GUGUCOFFEE/","address":"中壢區吉安街21號","latitude":"24.94905600","longitude":"121.22862690","limited_time":"no","socket":"yes","standing_desk":"yes","mrt":"","open_time":"週三公休"},{"id":"dbe4370d-6d3a-49a0-afdd-426aa7f99436","name":"義點茶複合式餐飲","city":"taoyuan","wifi":5,"seat":5,"quiet":4,"tasty":5,"cheap":5,"music":3,"url":"https://www.facebook.com/APointDrink/","address":"桃園市中壢區龍東路33號","latitude":"24.92856190","longitude":"121.24984500","limited_time":"no","socket":"maybe","standing_desk":"no","mrt":"","open_time":""},{"id":"dbe47ed3-d2a9-40e8-955f-9ca3fdc4d023","name":"豐滿 總匯三明治 桃園站前店","city":"taoyuan","wifi":5,"seat":4,"quiet":4,"tasty":4,"cheap":5,"music":5,"url":"https://www.facebook.com/Plumpsandwich033385756/","address":"桃園市桃園區武陵里長壽街4號","latitude":"24.98912660","longitude":"121.31265070","limited_time":"maybe","socket":"no","standing_desk":"no","mrt":"","open_time":""},{"id":"de889a2e-4259-4b93-8ff1-d2dbc6602d4f","name":"引號inhowcafe","city":"taoyuan","wifi":5,"seat":5,"quiet":5,"tasty":4,"cheap":4,"music":5,"url":"https://www.facebook.com/inhowcafe/","address":"龜山區山鶯路22號","latitude":"24.99127840","longitude":"121.32293740","limited_time":"maybe","socket":"","standing_desk":"","mrt":"","open_time":"10:30-22:00 "},{"id":"df171933-624b-4ec8-a16f-437b70e72cf5","name":"卡爾地咖啡館","city":"taoyuan","wifi":4,"seat":4,"quiet":4,"tasty":5,"cheap":4,"music":3,"url":"https://www.facebook.com/%E5%8D%A1%E7%88%BE%E5%9C%B0%E5%92%96%E5%95%A1%E9%A4%A8-190102937702808/","address":"桃園市桃園區大華五街27號","latitude":"25.00207880","longitude":"121.30807330","limited_time":"maybe","socket":"maybe","standing_desk":"","mrt":"","open_time":""},{"id":"df7f3ecc-dc00-4fa5-870f-d5d61813e1cd","name":"貳拾穗咖啡","city":"taoyuan","wifi":5,"seat":5,"quiet":5,"tasty":5,"cheap":5,"music":5,"url":"","address":"桃園市桃園區樹仁三街145-3號","latitude":"24.97398420","longitude":"121.31979760","limited_time":"no","socket":"yes","standing_desk":"yes","mrt":"","open_time":""},{"id":"dfaaa4e1-69b6-4b4d-be06-cec28a164e17","name":"老窩咖啡桃鶯店","city":"taoyuan","wifi":5,"seat":5,"quiet":4,"tasty":3,"cheap":3,"music":4,"url":"https://www.facebook.com/LAOO.2016.com.tw/?fref=nf","address":"桃園市桃園區桃鶯路384-6號","latitude":"24.97687710","longitude":"121.32275580","limited_time":"","socket":"","standing_desk":"no","mrt":"","open_time":""},{"id":"e18496a3-2b72-44ea-a54f-b435c71821e9","name":"歸 Return - 咖啡、餐食","city":"taoyuan","wifi":0,"seat":0,"quiet":0,"tasty":0,"cheap":0,"music":0,"url":"","address":"桃園市桃園區中山北路198號","latitude":"24.99699100","longitude":"121.30326000","limited_time":"","socket":"","standing_desk":"","mrt":"","open_time":""},{"id":"e190872a-f962-4ea3-af3a-c1d1846380ed","name":"路易莎","city":"taoyuan","wifi":0,"seat":0,"quiet":0,"tasty":0,"cheap":0,"music":0,"url":"","address":"八德區興豐路416號","latitude":"24.92964690","longitude":"121.28913200","limited_time":"","socket":"","standing_desk":"","mrt":"","open_time":""},{"id":"e3ce0331-9a29-44a5-a456-54e25dbe3a36","name":"Cerro希羅精品咖啡","city":"taoyuan","wifi":5,"seat":4,"quiet":4,"tasty":5,"cheap":3,"music":5,"url":"https://www.facebook.com/cerrocoffee/","address":"桃園區同德五街218號","latitude":"25.01336520","longitude":"121.29706030","limited_time":"no","socket":"yes","standing_desk":"no","mrt":"","open_time":""},{"id":"e8728e5f-1d9a-4eaa-b083-d55215bd49bc","name":"客廳 coffee House","city":"taoyuan","wifi":5,"seat":5,"quiet":4,"tasty":5,"cheap":5,"music":4,"url":"https://www.facebook.com/Coffee-House-%E5%AE%A2%E5%BB%B3-The-Living-Room-1404320303181740/","address":"桃園市楊梅區自立街19號","latitude":"24.91121170","longitude":"121.14966020","limited_time":"","socket":"","standing_desk":"","mrt":"","open_time":""},{"id":"e904a130-d967-4def-883d-8c6c560da15c","name":"Habbit coffee","city":"taoyuan","wifi":5,"seat":3.5,"quiet":4,"tasty":5,"cheap":4,"music":5,"url":"https://m.facebook.com/habbit2015/","address":"桃園市中壢區五族二街115號","latitude":"24.95890050","longitude":"121.20577000","limited_time":"","socket":"maybe","standing_desk":"","mrt":"","open_time":""},{"id":"eb43567c-e024-4b25-9cfe-ccdcb4bb51b8","name":"諦風咖啡","city":"taoyuan","wifi":5,"seat":5,"quiet":5,"tasty":5,"cheap":4,"music":5,"url":"https://www.facebook.com/tiffforum/","address":"320桃園市中壢區建國北路9號","latitude":"24.95686510","longitude":"121.22599430","limited_time":"maybe","socket":"no","standing_desk":"no","mrt":"","open_time":""},{"id":"eb58d26a-f6fa-4e7d-9664-149a94af3da4","name":"Mr.Coffee Grano格蕾諾","city":"taoyuan","wifi":5,"seat":5,"quiet":5,"tasty":5,"cheap":5,"music":5,"url":"@Mr.Coffeegrano","address":"桃園市桃園區大興路288號","latitude":"25.01649200","longitude":"121.31530470","limited_time":"no","socket":"maybe","standing_desk":"yes","mrt":"","open_time":""},{"id":"ed2c762d-cce3-4b36-bdf5-3a6c3cb43b70","name":"Lai cafe 賴在家咖啡","city":"taoyuan","wifi":5,"seat":5,"quiet":5,"tasty":5,"cheap":5,"music":5,"url":"","address":"桃園市大園區青昇路一段48巷28號","latitude":"25.01372740","longitude":"121.22414450","limited_time":"no","socket":"yes","standing_desk":"yes","mrt":"","open_time":""},{"id":"ed58eab7-2904-4fb7-95a2-7ca404d21e2c","name":"秋穗","city":"taoyuan","wifi":0,"seat":0,"quiet":0,"tasty":0,"cheap":0,"music":0,"url":"https://www.instagram.com/_ears.of_/","address":"桃園市桃園區慈光街164巷16號","latitude":"25.00800350","longitude":"121.30089420","limited_time":"","socket":"","standing_desk":"","mrt":"","open_time":""},{"id":"f0922e04-f4a4-41b5-899f-b9410cff9006","name":"著手咖啡桃園店","city":"taoyuan","wifi":0,"seat":3,"quiet":4,"tasty":5,"cheap":4,"music":5,"url":"https://www.facebook.com/coffeeintrointaoyuan","address":"桃園市中壢區成功路135號","latitude":"24.97635660","longitude":"121.25978300","limited_time":"","socket":"","standing_desk":"","mrt":"","open_time":""},{"id":"f0b4b542-b9ae-4a8d-9a04-fb4c9bcfd6e5","name":"八塊畫室","city":"taoyuan","wifi":5,"seat":5,"quiet":4,"tasty":5,"cheap":5,"music":5,"url":"https://www.facebook.com/8kuai.atelierkafe/","address":"桃園縣八德市長興路46號","latitude":"24.93045750","longitude":"121.28346030","limited_time":"maybe","socket":"no","standing_desk":"no","mrt":"","open_time":""},{"id":"f386f5e9-7f7f-4e63-b4a2-26f0a3148fe7","name":"at  CAFE","city":"taoyuan","wifi":4.5,"seat":4,"quiet":3.5,"tasty":4,"cheap":4,"music":4,"url":"","address":"桃園市中壢區慈惠三街 157巷14號","latitude":"24.96402180","longitude":"121.22504160","limited_time":"no","socket":"yes","standing_desk":"yes","mrt":"","open_time":""},{"id":"f40f8a28-7290-42cc-a7cd-abd8fd4fc8ee","name":"米諾咖啡館","city":"taoyuan","wifi":0,"seat":0,"quiet":0,"tasty":0,"cheap":0,"music":0,"url":"https://www.facebook.com/%E7%B1%B3%E8%AB%BE%E5%92%96%E5%95%A1%E9%A4%A8-179587068729256/?fref=ts","address":"桃園縣大溪鎮僑愛一街6巷15號","latitude":"24.92130390","longitude":"121.29276220","limited_time":"","socket":"","standing_desk":"","mrt":"","open_time":""},{"id":"f5848e36-3319-40e1-ade9-ce9aed962e71","name":"日不落咖啡","city":"taoyuan","wifi":5,"seat":5,"quiet":4.5,"tasty":5,"cheap":4.5,"music":5,"url":"https://www.facebook.com/White-Nights-coffee-shop%E6%97%A5%E4%B8%8D%E8%90%BD%E5%92%96%E5%95%A1-1115038001915322/","address":"中壢區慈惠三街148號","latitude":"24.96472100","longitude":"121.22598500","limited_time":"no","socket":"maybe","standing_desk":"yes","mrt":"","open_time":""},{"id":"f5b24b21-c830-44ac-bf8b-a28cb84b9f6a","name":"幸福53咖啡","city":"taoyuan","wifi":0,"seat":0,"quiet":0,"tasty":0,"cheap":0,"music":0,"url":"https://www.facebook.com/uncertaincafe/?fref=ts","address":"桃園市八德區建安街53號","latitude":"24.95093590","longitude":"121.31985600","limited_time":"","socket":"","standing_desk":"","mrt":"","open_time":""},{"id":"f757f824-6f06-45a3-acd5-1a5fe48bd631","name":"方亭咖啡 - 中壢興國店","city":"taoyuan","wifi":0,"seat":5,"quiet":5,"tasty":5,"cheap":4,"music":4,"url":"https://www.facebook.com/fountainchungli/?ref=page_internal","address":"桃園市中壢區興國路77號1樓","latitude":"24.95964860","longitude":"121.22074880","limited_time":"","socket":"maybe","standing_desk":"no","mrt":"","open_time":""},{"id":"fa9151c8-5a87-4565-94f9-8b58032620a5","name":"菲拉帖啡","city":"taoyuan","wifi":0,"seat":0,"quiet":0,"tasty":0,"cheap":0,"music":0,"url":"https://website-1708288507471630503128-coffeestore.business.site/","address":"桃園巿桃園區國際路二段555號","latitude":"25.00588270","longitude":"121.28593790","limited_time":"no","socket":"yes","standing_desk":"yes","mrt":"","open_time":"假日不定期會開"},{"id":"fad1227c-9957-471a-b0b6-48d875e111a6","name":"弎咖 θRICA CAFE","city":"taoyuan","wifi":0,"seat":0,"quiet":0,"tasty":0,"cheap":0,"music":0,"url":"https://www.instagram.com/thrica_2020","address":"桃園市中壢區文化二路305號","latitude":"24.97856160","longitude":"121.25017680","limited_time":"","socket":"","standing_desk":"","mrt":"","open_time":""},{"id":"fc926141-b5be-44de-bab5-b1e68017ea73","name":"穀穀咖啡","city":"taoyuan","wifi":5,"seat":5,"quiet":5,"tasty":5,"cheap":4,"music":5,"url":"https://www.facebook.com/goodgoodcoffee/","address":"桃園市龜山區文德路82號","latitude":"25.05764350","longitude":"121.38231790","limited_time":"no","socket":"yes","standing_desk":"yes","mrt":"","open_time":"10:00-19:00"},{"id":"fcc250fb-8625-43f6-a0c8-c62b70487e16","name":"迴憶咖啡","city":"taoyuan","wifi":5,"seat":5,"quiet":5,"tasty":5,"cheap":5,"music":5,"url":"https://www.facebook.com/memoriescafee/?fref=ts","address":"桃園縣中壢市延平路廟前31號","latitude":"24.96336320","longitude":"121.23290920","limited_time":"maybe","socket":"maybe","standing_desk":"no","mrt":"","open_time":"10:00~21:00"},{"id":"fd47fed0-ddf2-440c-bad2-8613619e0e1e","name":"Backdoor Cafe","city":"taoyuan","wifi":4,"seat":3.5,"quiet":3.5,"tasty":3,"cheap":3,"music":3.5,"url":"https://www.facebook.com/backdoorcafe","address":"桃園市中壢區中央路216巷9號","latitude":"24.96448990","longitude":"121.19118520","limited_time":"no","socket":"yes","standing_desk":"yes","mrt":"","open_time":""},{"id":"ff345107-9fa8-4f33-87d7-697204680acb","name":"油田咖啡","city":"taoyuan","wifi":0,"seat":4,"quiet":4,"tasty":5,"cheap":5,"music":3,"url":"https://www.facebook.com/pg/yotencoffee","address":"桃園市八德區介壽路二段393號","latitude":"24.94731430","longitude":"121.29756590","limited_time":"","socket":"","standing_desk":"","mrt":"","open_time":""},{"id":"ff558399-7ba6-4119-9a95-ab3e02411a66","name":"黑色公寓藝文咖啡","city":"taoyuan","wifi":5,"seat":5,"quiet":3,"tasty":5,"cheap":4,"music":5,"url":"https://www.facebook.com/blackapartment","address":"桃園市楊梅區新農街4巷10號","latitude":"24.90881700","longitude":"121.14608700","limited_time":"maybe","socket":"maybe","standing_desk":"no","mrt":"","open_time":""},{"id":"ffb44614-8a0c-41d1-a201-d84eb3409ca4","name":"鹿點咖啡","city":"taoyuan","wifi":3,"seat":4,"quiet":3,"tasty":3.5,"cheap":2.5,"music":4.5,"url":"https://www.facebook.com/caffepromisedlandsince2013/","address":"桃園市中壢區建國北路15號","latitude":"24.95692290","longitude":"121.22610420","limited_time":"","socket":"","standing_desk":"","mrt":"","open_time":"11~21，無公休"}]