[{"id":"00647eb2-1248-4af7-9c8a-409c5e0371da","name":"CAFÉ SLOW TRAIN 小火車咖啡館","city":"yilan","wifi":4,"seat":4,"quiet":4,"tasty":4,"cheap":4,"music":4,"url":"https://www.facebook.com/cafeslowtrain","address":"260宜蘭縣宜蘭市和睦路6巷23號","latitude":"24.75360900","longitude":"121.75674100","limited_time":"","socket":"yes","standing_desk":"yes","mrt":"","open_time":""},{"id":"033728b5-37f1-4dab-943c-3774403cea04","name":"Jessica kafa","city":"yilan","wifi":5,"seat":4.5,"quiet":4.5,"tasty":5,"cheap":5,"music":5,"url":"https://www.facebook.com/Jessica-Kafa-669446293115311/","address":"宜蘭市女中路二段516號","latitude":"24.74480130","longitude":"121.74909230","limited_time":"no","socket":"","standing_desk":"no","mrt":"","open_time":"13:00~21:00"},{"id":"03afe2ec-2d55-4570-b1f1-5dc7eb6ce76e","name":"昀頂咖啡坊","city":"yilan","wifi":5,"seat":5,"quiet":4.5,"tasty":5,"cheap":5,"music":4.5,"url":"https://www.facebook.com/coolandy0402/","address":"宜蘭縣宜蘭市文化路11號","latitude":"24.74927510","longitude":"121.74793000","limited_time":"no","socket":"maybe","standing_desk":"no","mrt":"","open_time":""},{"id":"056a997a-ca5a-43a2-a5bd-c56d035794eb","name":"日臻咖啡 Zhen's Cafe","city":"yilan","wifi":4.5,"seat":4.5,"quiet":4.5,"tasty":4.5,"cheap":4,"music":4.5,"url":"https://www.facebook.com/zhenscafe0402/","address":"宜蘭市嵐峰路一段290號","latitude":"24.74219860","longitude":"121.74870170","limited_time":"no","socket":"yes","standing_desk":"no","mrt":"","open_time":"★重要公告★ 闆娘要開始準備搬家和成立新工作室, 無法待在店面一整天, 因此…  10/21~12/10 小店改為預約制, 時間皆可配合, 但需提前2~5天預訂, 預約制期間全品項85折, 鬆餅和輕食請提前2天預訂。  *註：預約制期間也提供單純場地使用 (教學. 開會. 桌遊...)  人數最多10人, 100元/人 (場地費+清潔費, 可消費折抵飲品)  #詳情請參閱粉絲頁服務內容  12/11~12/31 咖啡館休息。 -------------- #很重要  1/1起日臻珈琲將改變經營模式, 嵐峰"},{"id":"06f03baf-1654-4f49-84bc-6e359c6d1cc9","name":"Cherry 經典咖啡","city":"yilan","wifi":5,"seat":5,"quiet":4.5,"tasty":4.5,"cheap":4,"music":4.5,"url":"https://www.facebook.com/CherryCafe.Yilan/","address":"宜蘭縣宜蘭市中華路8號","latitude":"24.74447480","longitude":"121.75484710","limited_time":"no","socket":"no","standing_desk":"no","mrt":"","open_time":""},{"id":"08d9bd4f-3e0b-4470-90f0-456558be3320","name":"歆窩『sing‧cafe』","city":"yilan","wifi":5,"seat":5,"quiet":4,"tasty":4,"cheap":4,"music":4,"url":"https://www.facebook.com/%E6%AD%86%E7%AA%A9SingCafe-844062925712181/","address":"宜蘭市健康路二段59號","latitude":"24.74670340","longitude":"121.75169930","limited_time":"no","socket":"maybe","standing_desk":"no","mrt":"","open_time":""},{"id":"0bcd5ba2-0796-4e04-8aa9-050ec35addfb","name":"瑪德琳 café de madeleine","city":"yilan","wifi":0,"seat":0,"quiet":0,"tasty":0,"cheap":0,"music":0,"url":"","address":"宜蘭縣礁溪鄉茅埔路17號","latitude":"24.79837060","longitude":"121.78713350","limited_time":"","socket":"","standing_desk":"","mrt":"","open_time":""},{"id":"100a5e2d-b287-4487-9a59-d2455c746f64","name":"禾子咖啡","city":"yilan","wifi":5,"seat":5,"quiet":5,"tasty":5,"cheap":4,"music":4,"url":"https://www.facebook.com/hzcoffee/","address":"宜蘭市農權路三段197巷1弄2號 Yilan City","latitude":"24.74894920","longitude":"121.73751190","limited_time":"no","socket":"","standing_desk":"no","mrt":"","open_time":""},{"id":"13ede237-555c-4dbf-a793-c9be8beecb10","name":"GOROGORO","city":"yilan","wifi":4.5,"seat":4,"quiet":5,"tasty":4,"cheap":4,"music":4,"url":"http://gorogoro187.pixnet.net/blog","address":"宜蘭縣宜蘭市中山路二段187巷25號","latitude":"24.75008210","longitude":"121.75291360","limited_time":"no","socket":"maybe","standing_desk":"no","mrt":"","open_time":""},{"id":"16857a35-054c-4d03-892f-32c3c76072de","name":"哥倫布咖啡","city":"yilan","wifi":0,"seat":5,"quiet":5,"tasty":4,"cheap":4,"music":0,"url":"https://www.facebook.com/pages/%E5%93%A5%E5%80%AB%E5%B8%83%E5%92%96%E5%95%A1%E5%BB%B3/109254592490721","address":"宜蘭縣宜蘭市中華路56號","latitude":"24.74631800","longitude":"121.75418510","limited_time":"no","socket":"no","standing_desk":"no","mrt":"","open_time":""},{"id":"16908944-6f01-426e-a7ad-5a4618095bb3","name":"GK Coffee（平安居咖啡民宿）","city":"yilan","wifi":5,"seat":5,"quiet":5,"tasty":5,"cheap":4,"music":4,"url":"http://www.gkcoffee.com.tw","address":"宜蘭縣冬山鄉復興路166號","latitude":"24.67308510","longitude":"121.74758130","limited_time":"maybe","socket":"maybe","standing_desk":"yes","mrt":"","open_time":"10:00-20:00"},{"id":"1edabf40-9dd8-4a8e-89fa-d0d48983536b","name":"豐咖啡五結店","city":"yilan","wifi":0,"seat":5,"quiet":5,"tasty":5,"cheap":4,"music":5,"url":"","address":"宜蘭縣五結鄉中興路3段115號","latitude":"24.69274480","longitude":"121.77027770","limited_time":"","socket":"","standing_desk":"","mrt":"","open_time":""},{"id":"235065e9-d2a3-47fd-9df6-73487bad5271","name":"語後咖啡 Ameagari Cafe","city":"yilan","wifi":5,"seat":5,"quiet":5,"tasty":5,"cheap":5,"music":5,"url":"https://www.facebook.com/AmeagariCafe/","address":"宜蘭市延平路42巷6號","latitude":"24.75488100","longitude":"121.76406300","limited_time":"no","socket":"yes","standing_desk":"no","mrt":"","open_time":""},{"id":"23cb017d-6d35-4ca1-a11a-3adde3f00601","name":"郁見幸福","city":"yilan","wifi":5,"seat":4,"quiet":4,"tasty":4,"cheap":5,"music":3,"url":"https://www.facebook.com/yubakingstudio/","address":"宜蘭市健康路二段117號","latitude":"24.74816090","longitude":"121.75116550","limited_time":"no","socket":"no","standing_desk":"no","mrt":"","open_time":""},{"id":"30b39380-5a20-42c2-81fa-9547712a2ba7","name":"海神咖啡 Poseidon Cafe","city":"yilan","wifi":5,"seat":5,"quiet":4.5,"tasty":5,"cheap":4.5,"music":4.5,"url":"https://www.facebook.com/poseidoncafe.2018/","address":"270宜蘭縣蘇澳鎮造船路106號","latitude":"24.57910710","longitude":"121.87236000","limited_time":"maybe","socket":"maybe","standing_desk":"no","mrt":"","open_time":""},{"id":"32882a8c-a93c-4f6c-b765-a645f9652c5b","name":"灆咖啡Seaview Coffee","city":"yilan","wifi":5,"seat":4,"quiet":5,"tasty":4,"cheap":4,"music":4,"url":"https://www.facebook.com/seaviewcoffee2017/","address":"宜蘭縣頭城鎮協天路636巷36-2號","latitude":"24.85635000","longitude":"121.83195600","limited_time":"no","socket":"no","standing_desk":"no","mrt":"","open_time":""},{"id":"3c716d57-5475-40e7-a4ec-2b602c3a29d2","name":"夏至咖啡","city":"yilan","wifi":5,"seat":5,"quiet":4,"tasty":4,"cheap":4,"music":4,"url":"https://www.facebook.com/gesicafe","address":"宜蘭市中華路48號1樓","latitude":"24.74565400","longitude":"121.75459500","limited_time":"no","socket":"no","standing_desk":"no","mrt":"","open_time":""},{"id":"3fae93c2-bfb3-4b94-857e-c639f32f3ec7","name":"平安居民宿 + GK coffee自家烘焙咖啡","city":"yilan","wifi":0,"seat":0,"quiet":0,"tasty":0,"cheap":0,"music":0,"url":"","address":"宜蘭縣冬山鄉復興路166號","latitude":"24.67290820","longitude":"121.74752110","limited_time":"","socket":"","standing_desk":"","mrt":"","open_time":""},{"id":"4038e542-25be-4f40-8a90-cd2de5a108e6","name":"探險家咖啡","city":"yilan","wifi":0,"seat":0,"quiet":0,"tasty":0,"cheap":0,"music":0,"url":"https://www.facebook.com/explorers2015","address":"宜蘭縣蘇澳鎮新榮路13巷33號","latitude":"24.62001210","longitude":"121.83386370","limited_time":"","socket":"","standing_desk":"","mrt":"","open_time":""},{"id":"4292cb1d-ad51-49a7-a191-b0c9138822a1","name":"對的咖啡學遊工場 THE COFFEE CENTER","city":"yilan","wifi":0,"seat":3,"quiet":4,"tasty":4,"cheap":4,"music":2,"url":"","address":"宜蘭縣宜蘭市東港路5-7號","latitude":"24.74841210","longitude":"121.78044680","limited_time":"","socket":"","standing_desk":"","mrt":"","open_time":""},{"id":"482e174c-7a26-4e19-bdb3-25586bb4e0ad","name":"小眼睛．手作．咖啡館","city":"yilan","wifi":5,"seat":5,"quiet":5,"tasty":5,"cheap":5,"music":5,"url":"https://www.facebook.com/Smalleyescafe/","address":"宜蘭縣員山鄉枕山村坡城路5-5號","latitude":"24.77356710","longitude":"121.70975000","limited_time":"no","socket":"no","standing_desk":"no","mrt":"","open_time":""},{"id":"4939eff6-9684-44e3-99d6-21708ac567b6","name":"鳴草咖啡","city":"yilan","wifi":5,"seat":3,"quiet":3,"tasty":4,"cheap":4,"music":4,"url":"https://www.facebook.com/thesoundofgrass/","address":"宜蘭市碧霞街20-1號","latitude":"24.75976110","longitude":"121.75142900","limited_time":"no","socket":"no","standing_desk":"no","mrt":"","open_time":""},{"id":"4c30f27b-5731-4f48-8fcb-237013ddce39","name":"No.100咖啡隨行吧","city":"yilan","wifi":4,"seat":3,"quiet":3,"tasty":4,"cheap":4,"music":4,"url":"https://www.facebook.com/NO.100cafe/","address":"265 宜蘭縣羅東鎮中正南路100號","latitude":"24.66994300","longitude":"121.77155900","limited_time":"no","socket":"no","standing_desk":"yes","mrt":"","open_time":""},{"id":"4d48c951-e7ec-4f79-8e7b-a9d213d1f2c9","name":"HaoHaoKaffe(行口文旅店)","city":"yilan","wifi":4.5,"seat":4.5,"quiet":4,"tasty":4.5,"cheap":3.5,"music":4,"url":"","address":"宜蘭縣宜蘭市康樂路14號","latitude":"24.75567740","longitude":"121.75758790","limited_time":"no","socket":"maybe","standing_desk":"yes","mrt":"","open_time":"16:30之後部分品項未供應"},{"id":"4db108b9-f037-4fb7-84cf-bb92e4aaf57c","name":"啡Style義式咖啡推廣中心","city":"yilan","wifi":0,"seat":0,"quiet":0,"tasty":0,"cheap":0,"music":0,"url":"","address":"268宜蘭縣五結鄉五結路三段一號","latitude":"24.68427040","longitude":"121.79496770","limited_time":"","socket":"","standing_desk":"","mrt":"","open_time":""},{"id":"51ffe071-f7ce-46ec-8f70-bc4da90b6c65","name":"合盛太平咖啡","city":"yilan","wifi":0,"seat":0,"quiet":0,"tasty":0,"cheap":0,"music":0,"url":"","address":"宜蘭縣宜蘭市中山路三段145號","latitude":"24.75929070","longitude":"121.75285870","limited_time":"","socket":"","standing_desk":"","mrt":"","open_time":""},{"id":"5c8fc6fe-911a-45ce-8454-6c202f6c21ae","name":"隱藏版小咖啡","city":"yilan","wifi":5,"seat":5,"quiet":5,"tasty":5,"cheap":4,"music":4,"url":"https://www.facebook.com/lil.secretcafe/","address":"宜蘭縣羅東鎮安平路100號","latitude":"24.67600520","longitude":"121.77273250","limited_time":"no","socket":"maybe","standing_desk":"yes","mrt":"","open_time":""},{"id":"5dec1642-6cbf-4d9e-b9ff-021f7dd9ce1e","name":"esencia cafe 艾聖席亞咖啡屋","city":"yilan","wifi":5,"seat":4,"quiet":5,"tasty":5,"cheap":5,"music":5,"url":"https://www.facebook.com/esenciacafe/","address":"宜蘭縣宜蘭市民權新路281號","latitude":"24.75164300","longitude":"121.74490900","limited_time":"no","socket":"maybe","standing_desk":"no","mrt":"","open_time":""},{"id":"6604d080-499c-41e9-b25e-16158ab3b212","name":"老房子咖啡","city":"yilan","wifi":0,"seat":0,"quiet":0,"tasty":0,"cheap":0,"music":0,"url":"","address":"羅東鎮文化街53號","latitude":"24.67176800","longitude":"121.77010500","limited_time":"","socket":"","standing_desk":"","mrt":"","open_time":""},{"id":"67b4e52c-e359-4bba-9e4f-5e5dfcc3fe41","name":"巷光咖啡 to light coffee roasters","city":"yilan","wifi":0,"seat":4,"quiet":5,"tasty":5,"cheap":3,"music":5,"url":"https://www.facebook.com/weTLCR/","address":"265 宜蘭縣羅東鎮公正街22號","latitude":"24.67737530","longitude":"121.77118820","limited_time":"maybe","socket":"no","standing_desk":"no","mrt":"","open_time":""},{"id":"68ae98ae-e8ad-4581-800d-a84b8e82cead","name":"香草景觀咖啡 Vanilla Cafe-宜蘭頭城店","city":"yilan","wifi":0,"seat":0,"quiet":0,"tasty":0,"cheap":0,"music":0,"url":"","address":"宜蘭縣頭城鎮北宜路一段398號","latitude":"24.85411950","longitude":"121.79647630","limited_time":"","socket":"","standing_desk":"","mrt":"","open_time":""},{"id":"696408a5-ed3c-4e48-8820-2cb43152f758","name":"立歐廚房 leo's cafe","city":"yilan","wifi":0,"seat":0,"quiet":0,"tasty":0,"cheap":0,"music":0,"url":"https://www.facebook.com/Leos-Cafe-立歐廚房-110450210468262/","address":"宜蘭縣宜蘭市農權路三段一號一樓","latitude":"24.74880010","longitude":"121.74273910","limited_time":"maybe","socket":"no","standing_desk":"no","mrt":"","open_time":""},{"id":"6c0f6d02-cedf-40a9-a619-dc4c830039a4","name":"南澳好糧食堂 Good Eats Cafe","city":"yilan","wifi":5,"seat":4,"quiet":5,"tasty":3,"cheap":4,"music":3,"url":"https://www.facebook.com/goodeatscafe/","address":"蘇澳鎮南澳路13-1號","latitude":"24.46422340","longitude":"121.80490920","limited_time":"","socket":"","standing_desk":"","mrt":"","open_time":""},{"id":"740200e9-eaa6-47ba-91b4-672c1070c968","name":"Pocafes波咖啡","city":"yilan","wifi":5,"seat":5,"quiet":4,"tasty":5,"cheap":4,"music":4,"url":"https://www.facebook.com/Pocafes/","address":"宜蘭縣羅東鎮純精路一段192號","latitude":"24.67316990","longitude":"121.76402620","limited_time":"no","socket":"maybe","standing_desk":"yes","mrt":"","open_time":"公休日通常為禮拜一，確切時間公布在粉專"},{"id":"74898d91-0dbd-4089-bfab-67510ac7f948","name":"舒室咖啡","city":"yilan","wifi":4,"seat":5,"quiet":4,"tasty":4,"cheap":5,"music":4,"url":"https://www.facebook.com/ShuZoom/","address":"宜蘭市慈安路61號","latitude":"24.75989390","longitude":"121.76314300","limited_time":"no","socket":"maybe","standing_desk":"no","mrt":"","open_time":""},{"id":"7509c810-3a15-4306-92ea-90dbe5dba74f","name":"ZeraCafe 頭城站舍","city":"yilan","wifi":0,"seat":0,"quiet":0,"tasty":0,"cheap":0,"music":0,"url":"","address":"宜蘭縣頭城鎮站舍巷1號","latitude":"24.85797390","longitude":"121.82249720","limited_time":"","socket":"","standing_desk":"","mrt":"","open_time":""},{"id":"76f77c16-b544-4673-a9ce-21ed6f098ee7","name":"九號咖啡音樂廣場","city":"yilan","wifi":0,"seat":5,"quiet":3,"tasty":4,"cheap":4,"music":4,"url":"https://www.facebook.com/NO9cofee/","address":"宜蘭縣礁溪鄉溫泉路85號","latitude":"24.82878170","longitude":"121.77333360","limited_time":"","socket":"","standing_desk":"","mrt":"","open_time":"10:30 - 23:00"},{"id":"7a84b5bd-14aa-435f-87d8-f5e85bafa432","name":"禮物咖啡","city":"yilan","wifi":0,"seat":5,"quiet":5,"tasty":4,"cheap":4,"music":4,"url":"https://www.facebook.com/pages/%E7%A6%AE%E7%89%A9%E5%92%96%E5%95%A1/240856706059892?rf=437026456382427","address":"宜蘭縣羅東鎮復興路一段6號","latitude":"24.68218410","longitude":"121.77110390","limited_time":"no","socket":"no","standing_desk":"no","mrt":"","open_time":""},{"id":"7d02ca70-7be7-4ae7-9858-24c31701ee5d","name":"跑馬咖啡 Paoma Cafe","city":"yilan","wifi":0,"seat":0,"quiet":0,"tasty":0,"cheap":0,"music":0,"url":"","address":"宜蘭縣礁溪鄉健康一街116號","latitude":"24.83075200","longitude":"121.77313040","limited_time":"","socket":"","standing_desk":"","mrt":"","open_time":""},{"id":"81c6158e-a677-49d7-b552-5bc91152f074","name":"Deer's Café 鹿 咖啡工坊","city":"yilan","wifi":0,"seat":0,"quiet":0,"tasty":0,"cheap":0,"music":0,"url":"","address":"265宜蘭縣羅東鎮林森路105號","latitude":"24.67975600","longitude":"121.76845000","limited_time":"","socket":"yes","standing_desk":"","mrt":"","open_time":""},{"id":"82b82cb4-3190-4039-9966-93a2ae848c76","name":"藏酒酒莊","city":"yilan","wifi":5,"seat":5,"quiet":4.5,"tasty":3.5,"cheap":4,"music":3.5,"url":"","address":"宜蘭縣頭城鎮更新路126-50號","latitude":"24.90714720","longitude":"121.84946790","limited_time":"no","socket":"maybe","standing_desk":"no","mrt":"","open_time":""},{"id":"886a5e92-9e49-4df9-934c-c76e556a345f","name":"集咖啡","city":"yilan","wifi":0,"seat":0,"quiet":0,"tasty":0,"cheap":0,"music":0,"url":"","address":"宜蘭縣宜蘭市聖後街177號","latitude":"24.75886540","longitude":"121.75321060","limited_time":"","socket":"","standing_desk":"","mrt":"","open_time":""},{"id":"904c5a82-d64a-4346-90f6-e7375b5dd1a9","name":"破布烏咖啡 Popuwoo Cafe","city":"yilan","wifi":5,"seat":5,"quiet":5,"tasty":5,"cheap":5,"music":5,"url":"https://www.facebook.com/%E7%A0%B4%E5%B8%83%E7%83%8F%E5%92%96%E5%95%A1-Popuwoo-Cafe-1176803449112932/","address":"宜蘭縣三星鄉三星路六段465號","latitude":"24.66341100","longitude":"121.63665200","limited_time":"no","socket":"maybe","standing_desk":"no","mrt":"","open_time":""},{"id":"93f2ae9d-50f3-452b-9dc7-190dfa3264e7","name":"NORIMORI Shop & House","city":"yilan","wifi":0,"seat":0,"quiet":0,"tasty":0,"cheap":0,"music":0,"url":"","address":"宜蘭縣冬山鄉丸山五路60巷13號","latitude":"24.64263230","longitude":"121.75677390","limited_time":"","socket":"","standing_desk":"","mrt":"","open_time":""},{"id":"94e6bbee-cec2-4727-a5a2-f9c8fa4079a9","name":"光覺咖啡 Lighten Cafe","city":"yilan","wifi":4.5,"seat":5,"quiet":4,"tasty":5,"cheap":5,"music":5,"url":"https://www.facebook.com/lightenCafe/","address":" 宜蘭蘇澳鎮中原路228號","latitude":"0.00000000","longitude":"0.00000000","limited_time":"no","socket":"maybe","standing_desk":"yes","mrt":"","open_time":""},{"id":"96439313-5b67-4cf4-8155-33f3cf1a710c","name":"Ori","city":"yilan","wifi":0,"seat":0,"quiet":0,"tasty":0,"cheap":0,"music":0,"url":"","address":"宜蘭市東港路二段441號","latitude":"24.75590150","longitude":"121.76158370","limited_time":"","socket":"","standing_desk":"","mrt":"","open_time":""},{"id":"99a7cfc5-f2ef-47ca-a374-d6752b8d3bb9","name":"PonPon 乓乓雜貨咖啡","city":"yilan","wifi":0,"seat":0,"quiet":0,"tasty":0,"cheap":0,"music":0,"url":"","address":"宜蘭縣礁溪鄉信義路71號","latitude":"24.82677810","longitude":"121.76988350","limited_time":"","socket":"","standing_desk":"","mrt":"","open_time":""},{"id":"a51e8a50-3247-4eb8-83f4-88d5fc541aca","name":"虎咖啡","city":"yilan","wifi":5,"seat":4.5,"quiet":4.5,"tasty":5,"cheap":4,"music":4.5,"url":"https://www.facebook.com/whocafe/","address":"宜蘭縣宜蘭市國榮路104號","latitude":"24.75320810","longitude":"121.74711700","limited_time":"maybe","socket":"yes","standing_desk":"no","mrt":"","open_time":""},{"id":"a965e583-6a47-4032-9ebb-4dca56dc76c3","name":"好森咖啡x 註書店","city":"yilan","wifi":5,"seat":5,"quiet":5,"tasty":3,"cheap":5,"music":5,"url":"https://www.facebook.com/TREE.GIII/","address":"宜蘭縣羅東鎮林森路117-1號","latitude":"24.67982010","longitude":"121.76814800","limited_time":"no","socket":"yes","standing_desk":"no","mrt":"","open_time":""},{"id":"b293b180-81ea-442e-9fad-05070e12a960","name":" 玩逗樹桌遊咖啡","city":"yilan","wifi":5,"seat":4,"quiet":4,"tasty":4,"cheap":5,"music":5,"url":"https://www.facebook.com/pg/oldmajorcoffee/about/?ref=page_internal","address":"宜蘭縣羅東鎮中華路154號2F","latitude":"24.68144780","longitude":"121.76819060","limited_time":"no","socket":"maybe","standing_desk":"no","mrt":"","open_time":""},{"id":"b81068ce-daf0-4462-9105-2bd533c95978","name":"小揭商行 Coffee Street CO.","city":"yilan","wifi":5,"seat":4,"quiet":2,"tasty":4,"cheap":5,"music":4,"url":"https://www.facebook.com/CoffeeStreetCo24/","address":"265 宜蘭縣羅東鎮公正街17號","latitude":"24.67745510","longitude":"121.77068670","limited_time":"no","socket":"no","standing_desk":"no","mrt":"","open_time":"營業時間請記得看粉絲團哦"},{"id":"bdb5248a-5782-4b49-ac32-dcd1bcb06f0a","name":"逸境 X 心境","city":"yilan","wifi":5,"seat":5,"quiet":5,"tasty":4,"cheap":4,"music":5,"url":"","address":"宜蘭市七張路117號","latitude":"24.75840200","longitude":"121.78355990","limited_time":"maybe","socket":"yes","standing_desk":"no","mrt":"","open_time":""},{"id":"bde1cb5b-8711-4f8d-ba73-48116757d42c","name":"日吉咖啡gooddaycafe'","city":"yilan","wifi":4,"seat":4,"quiet":4,"tasty":4,"cheap":4,"music":3,"url":"https://www.facebook.com/gooddayDBM/","address":"宜蘭縣宜蘭市東港路59-11號","latitude":"24.75564790","longitude":"121.76176330","limited_time":"no","socket":"maybe","standing_desk":"no","mrt":"","open_time":"如果有拿店家名片,上面時間已經更改為網站為主,打烊時間為18:00整"},{"id":"c1f8b4d0-4bfb-4c4c-b222-9f23e4fb851a","name":"DOG SPACE - 寵物空間","city":"yilan","wifi":5,"seat":5,"quiet":5,"tasty":5,"cheap":4,"music":4.5,"url":"https://www.facebook.com/www.dogspace.com.tw/","address":"宜蘭縣礁溪鄉復興街41號","latitude":"24.82410100","longitude":"121.77146350","limited_time":"no","socket":"yes","standing_desk":"yes","mrt":"","open_time":""},{"id":"c250c327-176f-44eb-8c2e-dd75c0069f46","name":"Stay旅人書店","city":"yilan","wifi":0,"seat":5,"quiet":5,"tasty":0,"cheap":0,"music":5,"url":"https://www.facebook.com/pg/staytravelerbookstore/about/?ref=page_internal","address":"宜蘭市碧霞街14號、宜蘭市康樂路14號行口文旅","latitude":"24.75564600","longitude":"121.75751910","limited_time":"no","socket":"maybe","standing_desk":"yes","mrt":"","open_time":""},{"id":"c3583caf-322a-4b17-9c6f-601d5d2b4494","name":"握咖啡Oh！cafe 宜蘭羅東店","city":"yilan","wifi":5,"seat":4,"quiet":4,"tasty":5,"cheap":5,"music":5,"url":"https://www.facebook.com/pg/ohcafeilan/about/?ref=page_internal","address":"265宜蘭縣羅東鎮純精路三段453號","latitude":"24.68821200","longitude":"121.77025610","limited_time":"no","socket":"maybe","standing_desk":"yes","mrt":"","open_time":""},{"id":"c5fcaf08-335f-405d-a674-a325767e01cc","name":"舊書櫃-二手書 咖啡 輕食","city":"yilan","wifi":4,"seat":4,"quiet":4,"tasty":4,"cheap":4,"music":4,"url":"https://www.facebook.com/yilanbooks/","address":"宜蘭市宜興路一段280號","latitude":"24.75617080","longitude":"121.75824040","limited_time":"","socket":"no","standing_desk":"yes","mrt":"","open_time":"11：00:-21:30 週二休"},{"id":"cc17538e-d5b4-4486-b7f0-4132d71614a9","name":"dew 36 綻露 coffee elite","city":"yilan","wifi":5,"seat":4,"quiet":4,"tasty":4,"cheap":4,"music":4,"url":"https://www.facebook.com/dew36elite/","address":"宜蘭市女中路二段385號","latitude":"24.74508000","longitude":"121.75227910","limited_time":"no","socket":"no","standing_desk":"no","mrt":"","open_time":""},{"id":"cc1b0661-b929-4149-a0a1-d438fd0f29d6","name":"Aqua Cafe 水色咖啡","city":"yilan","wifi":0,"seat":0,"quiet":0,"tasty":0,"cheap":0,"music":0,"url":"","address":"花蓮縣吉安鄉吉祥七街13號","latitude":"23.97385100","longitude":"121.58083890","limited_time":"","socket":"no","standing_desk":"no","mrt":"","open_time":""},{"id":"cd78321f-ce02-463d-8e66-aa41058a8ea0","name":"品品99 咖啡 輕食","city":"yilan","wifi":0,"seat":0,"quiet":0,"tasty":0,"cheap":0,"music":0,"url":"","address":"268宜蘭縣五結鄉鎮安路63巷2號","latitude":"24.70662580","longitude":"121.76735150","limited_time":"","socket":"","standing_desk":"","mrt":"","open_time":""},{"id":"cde192a3-8668-4094-a3c0-ee8a670c946c","name":"逗逗商號","city":"yilan","wifi":5,"seat":4,"quiet":4,"tasty":4,"cheap":4,"music":4,"url":"https://www.facebook.com/DouKafe/","address":"宜蘭縣宜蘭市弘志路81號","latitude":"24.74830690","longitude":"121.75214800","limited_time":"no","socket":"maybe","standing_desk":"no","mrt":"","open_time":""},{"id":"cebc038b-2fa6-4717-a212-a214d25ee2b9","name":"和平街屋","city":"yilan","wifi":0,"seat":3,"quiet":4,"tasty":5,"cheap":3,"music":0,"url":"https://www.facebook.com/%E5%92%8C%E5%B9%B3%E8%A1%97%E5%B1%8B-188237697932692/","address":"宜蘭縣頭城鎮和平街135之2號","latitude":"24.85817300","longitude":"121.82432700","limited_time":"no","socket":"","standing_desk":"","mrt":"","open_time":""},{"id":"ced6ba61-2234-4373-adc7-25214c53b2c8","name":"袋鼠咖啡","city":"yilan","wifi":0,"seat":4.5,"quiet":4,"tasty":5,"cheap":4,"music":4,"url":"","address":"265宜蘭縣羅東鎮忠孝路99號","latitude":"24.67781400","longitude":"121.76523800","limited_time":"","socket":"","standing_desk":"","mrt":"","open_time":""},{"id":"d0f4ba73-c744-457c-b4cf-a8a1a0e29bff","name":"大手小手咖啡屋","city":"yilan","wifi":0,"seat":0,"quiet":0,"tasty":0,"cheap":0,"music":0,"url":"","address":"260宜蘭縣宜蘭市建業路85號","latitude":"24.72729500","longitude":"121.75755310","limited_time":"","socket":"","standing_desk":"","mrt":"","open_time":""},{"id":"d1f38364-bc6c-4d2d-b7e7-0f981cc8d029","name":"散步Cafe Sanpo","city":"yilan","wifi":5,"seat":5,"quiet":4,"tasty":5,"cheap":5,"music":5,"url":"https://www.facebook.com/sanpo2015/","address":"宜蘭縣宜蘭市和睦路2-20號","latitude":"24.75049400","longitude":"121.75502800","limited_time":"no","socket":"maybe","standing_desk":"no","mrt":"","open_time":""},{"id":"d4cac5dc-768d-464e-a47d-f8694c399c9b","name":"Resort Brew Coffee Co.","city":"yilan","wifi":5,"seat":4.5,"quiet":3.5,"tasty":3,"cheap":3,"music":4,"url":"","address":"宜蘭市農權路二段30號","latitude":"24.74721480","longitude":"121.74861370","limited_time":"no","socket":"maybe","standing_desk":"yes","mrt":"","open_time":"一~五10:30-18:30 / 六.日 9:30-18:30"},{"id":"d83b252c-295c-441e-870f-1cd36c271189","name":"歐麟咖啡館","city":"yilan","wifi":4,"seat":4,"quiet":4,"tasty":4,"cheap":4,"music":4,"url":"https://www.facebook.com/oulincoffeeshop/","address":"宜蘭市女中路二段389號1樓","latitude":"24.74505310","longitude":"121.75219270","limited_time":"no","socket":"no","standing_desk":"no","mrt":"","open_time":"營業時間以粉絲團為主"},{"id":"dc365e64-79d3-43de-bb30-ec976cc37813","name":"定邦咖啡","city":"yilan","wifi":0,"seat":0,"quiet":0,"tasty":0,"cheap":0,"music":0,"url":"","address":"宜蘭縣礁溪鄉白雲二路173號","latitude":"24.83068530","longitude":"121.78475710","limited_time":"","socket":"","standing_desk":"","mrt":"","open_time":""},{"id":"dd65c9c1-cf82-44d0-a472-f45ef5eb6d83","name":"一弄咖啡","city":"yilan","wifi":5,"seat":5,"quiet":5,"tasty":4,"cheap":4,"music":3,"url":"https://www.facebook.com/%E4%B8%80%E5%BC%84%E5%92%96%E5%95%A1-747592638662867/","address":"宜蘭縣宜蘭市進士路151巷1弄2號","latitude":"24.74413750","longitude":"121.74736750","limited_time":"no","socket":"no","standing_desk":"no","mrt":"","open_time":""},{"id":"e20a777a-d43c-45f7-a3ab-0d492e3d21e6","name":"文鳥公寓","city":"yilan","wifi":5,"seat":4,"quiet":4,"tasty":5,"cheap":4,"music":4,"url":"https://www.facebook.com/buncho.apartment","address":"新北市板橋區國泰街120號","latitude":"0.00000000","longitude":"0.00000000","limited_time":"no","socket":"maybe","standing_desk":"yes","mrt":"","open_time":"臨時公休會於粉絲專頁公告"},{"id":"e2a42637-3120-4201-a5c0-0d47b4c448ae","name":"Full House Coffee","city":"yilan","wifi":0,"seat":5,"quiet":5,"tasty":5,"cheap":3,"music":5,"url":"https://www.facebook.com/FullHouseCoffee/","address":"宜蘭縣宜蘭市擺厘路9-8號","latitude":"24.74266920","longitude":"121.75255260","limited_time":"","socket":"no","standing_desk":"yes","mrt":"","open_time":""},{"id":"e526bfd5-abc6-4667-bf27-a14fafc02ac1","name":"之間；","city":"yilan","wifi":5,"seat":5,"quiet":5,"tasty":5,"cheap":5,"music":5,"url":"https://www.facebook.com/zhijianbookscafe","address":"宜蘭縣宜蘭市武營街72號一樓","latitude":"24.75701720","longitude":"121.75036690","limited_time":"no","socket":"no","standing_desk":"no","mrt":"","open_time":"（每週五為公休日，偶會有臨時店休。）"},{"id":"ea989c8d-b177-4ac7-bf9a-9e24a93a2688","name":"里海咖啡","city":"yilan","wifi":0,"seat":0,"quiet":0,"tasty":0,"cheap":0,"music":0,"url":"","address":"宜蘭縣礁溪鄉和平路107號","latitude":"24.82320430","longitude":"121.76652390","limited_time":"","socket":"","standing_desk":"","mrt":"","open_time":""},{"id":"eea24637-a454-4067-9771-5393a93b0839","name":"Café SoDavid","city":"yilan","wifi":4,"seat":5,"quiet":5,"tasty":4.5,"cheap":4,"music":5,"url":"","address":"宜蘭縣羅東鎮中華路255號","latitude":"24.68608290","longitude":"121.76946880","limited_time":"no","socket":"maybe","standing_desk":"yes","mrt":"","open_time":"14:00-19:00"},{"id":"eef9222f-0210-48c9-872d-46bd65828a79","name":"Link88","city":"yilan","wifi":5,"seat":5,"quiet":4.5,"tasty":4.5,"cheap":4.5,"music":4.5,"url":"","address":"宜蘭縣蘇澳鎮中山路一段88號","latitude":"24.59604630","longitude":"121.85082100","limited_time":"","socket":"maybe","standing_desk":"no","mrt":"","open_time":""},{"id":"f4d501f2-71a9-4de8-a1f7-c477c9c684f1","name":"登出咖啡","city":"yilan","wifi":4,"seat":5,"quiet":5,"tasty":4.5,"cheap":4.5,"music":4.5,"url":"https://www.facebook.com/Logout_workshop-106581557628671/","address":"260宜蘭縣宜蘭市民權路二段7號","latitude":"24.75310300","longitude":"121.75107580","limited_time":"no","socket":"maybe","standing_desk":"yes","mrt":"","open_time":"營業時間參考店家粉絲團"},{"id":"fab4d0b8-114a-4459-b5cf-f415ab35a1bf","name":"熊來了","city":"yilan","wifi":5,"seat":4,"quiet":4,"tasty":4,"cheap":4.5,"music":4.5,"url":"https://www.facebook.com/wemacafe/","address":"宜蘭縣宜蘭市民權路二段178號","latitude":"24.75662020","longitude":"121.74747140","limited_time":"no","socket":"no","standing_desk":"no","mrt":"","open_time":""}]