[{"id":"06044732-8a40-4487-b0dc-6f848bc0dd9e","name":"Easy Coffee 現烘手沖咖啡店","city":"yunlin","wifi":0,"seat":0,"quiet":0,"tasty":0,"cheap":0,"music":0,"url":"","address":"雲林縣麥寮鄉中正路89號","latitude":"23.74858400","longitude":"120.25359000","limited_time":"","socket":"","standing_desk":"","mrt":"","open_time":""},{"id":"12af0fb3-2b5f-4ef2-be45-f2c7d022151e","name":"AJ CAFE","city":"yunlin","wifi":5,"seat":5,"quiet":4.5,"tasty":4.5,"cheap":4.5,"music":5,"url":"https://www.facebook.com/pages/AJ-Cafe/155461324567731?fref=ts","address":"632雲林縣虎尾鎮民主路18-7號","latitude":"23.70453620","longitude":"120.43163400","limited_time":"no","socket":"maybe","standing_desk":"no","mrt":"","open_time":""},{"id":"176c71a3-fb15-4bc2-b1be-29a2ab42aab2","name":"樺鄉咖啡莊園","city":"yunlin","wifi":5,"seat":4,"quiet":5,"tasty":5,"cheap":3,"music":5,"url":"http://blog.xuite.net/mr.coffee/cafe","address":"雲林縣古坑鄉桃源1-5號","latitude":"23.59949540","longitude":"120.60394740","limited_time":"no","socket":"yes","standing_desk":"","mrt":"","open_time":"老闆出國旅行就沒營業"},{"id":"23bb15d0-47a9-4dbe-8645-d0d3d2d3e470","name":"吾愛吾家","city":"yunlin","wifi":5,"seat":5,"quiet":4,"tasty":5,"cheap":4,"music":5,"url":"","address":"雲林縣斗六市大同路59號","latitude":"23.70964540","longitude":"120.54321310","limited_time":"no","socket":"yes","standing_desk":"no","mrt":"","open_time":""},{"id":"2c486934-7d1a-459f-bdd4-e0a9bf26987e","name":"海宴休閒農莊","city":"yunlin","wifi":3,"seat":4,"quiet":3,"tasty":5,"cheap":5,"music":4,"url":"http://www.hiya218.com.tw","address":"雲林縣古坑鄉桂林村桃源路1-8好","latitude":"23.59874640","longitude":"120.60302850","limited_time":"no","socket":"maybe","standing_desk":"no","mrt":"","open_time":"10:00-21:00"},{"id":"2fcbe1e1-ab3e-4923-854f-c214b2cdda81","name":"丸咖啡","city":"yunlin","wifi":0,"seat":3,"quiet":5,"tasty":5,"cheap":5,"music":5,"url":"https://www.facebook.com/%E4%B8%B8%E5%92%96%E5%95%A1%E5%A4%96%E5%B8%B6%E5%90%A7-1040503635980174/","address":"斗南鎮南昌路104號","latitude":"23.67325240","longitude":"120.47957740","limited_time":"no","socket":"maybe","standing_desk":"yes","mrt":"","open_time":""},{"id":"376398c1-42d2-4501-a503-4abd1afbd7a5","name":"騷咖啡","city":"yunlin","wifi":4.5,"seat":4.5,"quiet":1.5,"tasty":2,"cheap":4,"music":2,"url":"","address":"雲林縣斗六市文化路15號","latitude":"23.71098410","longitude":"120.54390840","limited_time":"","socket":"","standing_desk":"","mrt":"","open_time":""},{"id":"49427378-6178-4e1f-9be9-8a9f8b9725b7","name":"Homescrew Bistro","city":"yunlin","wifi":0,"seat":0,"quiet":0,"tasty":0,"cheap":0,"music":0,"url":"https://www.facebook.com/Home158/","address":"雲林縣斗六市武昌街158號","latitude":"23.67492290","longitude":"120.47252400","limited_time":"maybe","socket":"maybe","standing_desk":"no","mrt":"","open_time":"如遇連續假期，粉絲頁為主"},{"id":"4e24cc72-7ab3-41b4-bf39-9916142e225b","name":"AOKI咖啡","city":"yunlin","wifi":0,"seat":0,"quiet":0,"tasty":0,"cheap":0,"music":0,"url":"","address":"雲林縣北港鎮太平路89號","latitude":"23.57952400","longitude":"120.30580220","limited_time":"","socket":"","standing_desk":"","mrt":"","open_time":""},{"id":"4e52bb1f-c9b9-4583-a832-d01976ede1b2","name":"魔術帽自家烘焙咖啡","city":"yunlin","wifi":5,"seat":5,"quiet":5,"tasty":5,"cheap":4,"music":4,"url":"https://m.facebook.com/magichatcafe/?locale2=zh_TW","address":"雲林縣北港鎮興隆街56號","latitude":"23.58172400","longitude":"120.30312290","limited_time":"maybe","socket":"yes","standing_desk":"no","mrt":"","open_time":"不定時公休須參考粉絲團"},{"id":"55ea33ce-e2b6-424c-9dcf-6f49b497df0d","name":"57 Coffee Roasting","city":"yunlin","wifi":0,"seat":0,"quiet":0,"tasty":0,"cheap":0,"music":0,"url":"http://57.liteshop.tw","address":"雲林縣北港鎮中正路130號","latitude":"23.57027660","longitude":"120.30045640","limited_time":"","socket":"","standing_desk":"no","mrt":"","open_time":"精品咖啡豆零售批發，無內用"},{"id":"68a86d0c-5c4a-405e-a035-ebda486133ef","name":"貳月 February Drink&Food","city":"yunlin","wifi":0,"seat":0,"quiet":0,"tasty":0,"cheap":0,"music":0,"url":"","address":"雲林縣虎尾鎮中山里新興路30號","latitude":"23.70793000","longitude":"120.43542060","limited_time":"","socket":"","standing_desk":"","mrt":"","open_time":""},{"id":"6cc61c66-dc59-43ae-b291-4c8b28ea3da2","name":"兔子の窩 Coffee House","city":"yunlin","wifi":0,"seat":5,"quiet":5,"tasty":5,"cheap":5,"music":4,"url":"https://www.facebook.com/%E5%85%94%E5%AD%90%E3%81%AE%E7%AA%A9-Coffee-House-1390857114468380/","address":"雲林縣虎尾鎮新興路23號","latitude":"23.70758470","longitude":"120.43550780","limited_time":"","socket":"no","standing_desk":"","mrt":"","open_time":""},{"id":"6cd8ea22-803e-463a-9a57-046e253c46cf","name":"原域咖啡","city":"yunlin","wifi":5,"seat":4.5,"quiet":4.5,"tasty":5,"cheap":4,"music":4.5,"url":"https://www.facebook.com/cafeoriginalzone/?fref=ts","address":"雲林縣斗六市府前街103號","latitude":"23.70550880","longitude":"120.54189990","limited_time":"no","socket":"maybe","standing_desk":"yes","mrt":"","open_time":""},{"id":"8334a2bb-6708-4a95-a7c5-4fe6a8a263d0","name":"隨興沖。咖啡","city":"yunlin","wifi":5,"seat":5,"quiet":3,"tasty":5,"cheap":5,"music":3,"url":"https://m.facebook.com/Casual0314/","address":"雲林縣古坑鄉永昌村永興路38號","latitude":"23.62624820","longitude":"120.55218940","limited_time":"no","socket":"yes","standing_desk":"","mrt":"","open_time":""},{"id":"8e28a373-64a2-4a7b-98fc-587a4e233d9a","name":"布里吉咖啡","city":"yunlin","wifi":5,"seat":5,"quiet":5,"tasty":5,"cheap":5,"music":5,"url":"","address":"651雲林縣北港鎮民主路120-122號","latitude":"23.56892270","longitude":"120.30094570","limited_time":"no","socket":"","standing_desk":"","mrt":"","open_time":""},{"id":"973d2de3-daa5-4bd0-ab54-a55fbb016df5","name":"芒果咖啡 莿桐本店","city":"yunlin","wifi":5,"seat":5,"quiet":5,"tasty":4.5,"cheap":3.5,"music":4.5,"url":"https://www.facebook.com/mango5841987/?fref=ts","address":"雲林縣莿桐鄉中山路114號","latitude":"23.75779140","longitude":"120.50014870","limited_time":"no","socket":"maybe","standing_desk":"yes","mrt":"","open_time":""},{"id":"a2372763-8000-4d72-8c85-5d0f6158bdcf","name":"Maimenla Café","city":"yunlin","wifi":4,"seat":5,"quiet":4.5,"tasty":4.5,"cheap":4,"music":4.5,"url":"","address":"雲林縣斗六市警民街38-1號","latitude":"23.71324600","longitude":"120.55303400","limited_time":"no","socket":"yes","standing_desk":"no","mrt":"","open_time":""},{"id":"a2d3d54c-3637-4ea9-ba57-bb1ea2ea97ae","name":"村上慢步陶藝咖啡館","city":"yunlin","wifi":5,"seat":5,"quiet":5,"tasty":3,"cheap":4,"music":4,"url":"https://m.facebook.com/slowvillagetime/","address":"雲林縣斗六市嘉東里嘉欣路22號2F","latitude":"23.68405100","longitude":"120.55376910","limited_time":"maybe","socket":"maybe","standing_desk":"yes","mrt":"","open_time":"如遇國定假日正常營業"},{"id":"a77d8f92-2fce-470c-8bbd-6a9d429fb379","name":"春天曉鋪 客製烘焙咖啡","city":"yunlin","wifi":5,"seat":5,"quiet":3,"tasty":4,"cheap":4,"music":5,"url":"https://www.facebook.com/%E6%98%A5%E5%A4%A9%E6%9B%89%E9%8B%AA-%E5%AE%A2%E8%A3%BD%E7%83%98%E7%84%99%E5%92%96%E5%95%A1-1578035342417708/","address":"雲林縣虎尾鎮永安街57號","latitude":"23.70575950","longitude":"120.43455700","limited_time":"","socket":"","standing_desk":"","mrt":"","open_time":""},{"id":"ace5a2a3-2d6e-46b7-abfb-7891c5424ccc","name":"手厚商號 / Soohome ","city":"yunlin","wifi":5,"seat":5,"quiet":5,"tasty":5,"cheap":5,"music":5,"url":"https://www.facebook.com/SooHomeCafe","address":"雲林縣北港鎮華興街41號","latitude":"23.57375370","longitude":"120.30137500","limited_time":"no","socket":"maybe","standing_desk":"yes","mrt":"","open_time":""},{"id":"ad0b2726-0f06-4042-8e4b-1fd211178226","name":"原域咖啡館雲科二店","city":"yunlin","wifi":5,"seat":4,"quiet":3,"tasty":4,"cheap":4,"music":4,"url":"https://www.facebook.com/cafeoriginalzone/","address":"雲林縣斗六市龍潭路3-1號","latitude":"23.69238390","longitude":"120.53136580","limited_time":"","socket":"","standing_desk":"","mrt":"","open_time":""},{"id":"b5ece7f5-488e-4689-bceb-b5846112cdfb","name":"Kohimomento-一瞬咖啡(已歇業)","city":"yunlin","wifi":5,"seat":5,"quiet":5,"tasty":5,"cheap":5,"music":5,"url":"https://www.facebook.com/Kohimomento/","address":"雲林縣斗六市中堅西路270號","latitude":"23.70126740","longitude":"120.53399490","limited_time":"no","socket":"maybe","standing_desk":"no","mrt":"","open_time":"1300～2200"},{"id":"b9c65d59-c16b-4fd4-969d-0eeb396b1b70","name":"西螺老街鐘樓","city":"yunlin","wifi":4,"seat":5,"quiet":4,"tasty":5,"cheap":4,"music":5,"url":"https://www.facebook.com/%E8%A5%BF%E8%9E%BA%E8%80%81%E8%A1%97%E9%90%98%E6%A8%93-469228256502278/","address":"雲林縣西螺鎮延平路76號","latitude":"23.80203830","longitude":"120.46279580","limited_time":"no","socket":"maybe","standing_desk":"","mrt":"","open_time":"周四～周一/ am:11:00～pm18:00.  周二，周三/公休 "},{"id":"c3ffd7e5-f544-4f02-a55b-7e22c6ac763b","name":"Mr. Lobby Coffee Project","city":"yunlin","wifi":3,"seat":3,"quiet":3,"tasty":5,"cheap":5,"music":5,"url":"https://www.facebook.com/lobbyhandmade/?fref=ts","address":"雲林縣斗六市雲中街18號","latitude":"23.70850220","longitude":"120.53998320","limited_time":"maybe","socket":"maybe","standing_desk":"yes","mrt":"","open_time":"11:00~21:00,Monday Off"},{"id":"db490895-824b-44e8-8d77-41d09048d0ec","name":"斗南尚豆咖啡","city":"yunlin","wifi":5,"seat":5,"quiet":5,"tasty":5,"cheap":5,"music":4,"url":"","address":"雲林縣斗南鎮新生三路128號","latitude":"23.67598120","longitude":"120.47406240","limited_time":"no","socket":"maybe","standing_desk":"yes","mrt":"","open_time":""},{"id":"e461f62d-090f-440e-b399-1ffde391c2a8","name":"紅果精品咖啡","city":"yunlin","wifi":5,"seat":4.5,"quiet":4.5,"tasty":5,"cheap":3,"music":4,"url":"","address":"雲林縣斗六市府中街13號","latitude":"23.69891690","longitude":"120.52798320","limited_time":"no","socket":"maybe","standing_desk":"no","mrt":"","open_time":""},{"id":"ee81c5f4-2d0b-4111-8d23-0aaeaffd49a2","name":"芒果咖啡 斗六店","city":"yunlin","wifi":4,"seat":5,"quiet":4.5,"tasty":4,"cheap":3.5,"music":5,"url":"http://www.mangocafegroup.com/","address":"雲林縣斗六市大學路三段310號","latitude":"23.69517700","longitude":"120.52439850","limited_time":"maybe","socket":"maybe","standing_desk":"no","mrt":"","open_time":""},{"id":"f29cb3d0-ce07-4dce-accf-03efcf3c9b4e","name":"睦咖啡","city":"yunlin","wifi":5,"seat":5,"quiet":5,"tasty":5,"cheap":5,"music":5,"url":"https://www.facebook.com/pages/%E7%9D%A6-%E5%92%96%E5%95%A1/1551835121809040?pnref=story","address":"雲林縣斗六市安和街73號","latitude":"23.70205200","longitude":"120.53418100","limited_time":"no","socket":"maybe","standing_desk":"yes","mrt":"","open_time":"Mon~Fri. 13:30-21:00 Sat.Sun 10:00-21:00"},{"id":"f68bfb75-b52a-4a0e-8e19-bed9c19416a7","name":"Wow cafe 窩斗六咖啡烘豆所","city":"yunlin","wifi":0,"seat":0,"quiet":0,"tasty":0,"cheap":0,"music":0,"url":"","address":"雲林縣斗六市民生南路雲林溪美食廣場2號 ","latitude":"23.70615200","longitude":"120.53838730","limited_time":"","socket":"","standing_desk":"","mrt":"","open_time":""},{"id":"f9fb54ec-d208-48ae-870b-0707ab8b17b8","name":"Mishka Coffee & Antique 咖啡 古董傢俱","city":"yunlin","wifi":0,"seat":0,"quiet":0,"tasty":0,"cheap":0,"music":0,"url":"","address":"雲林縣虎尾鎮光明路111號","latitude":"23.70757570","longitude":"120.44506930","limited_time":"","socket":"","standing_desk":"","mrt":"","open_time":""},{"id":"fbed1424-d5d4-4be9-ba65-6fcc8d37986d","name":"後街咖啡","city":"yunlin","wifi":5,"seat":5,"quiet":3,"tasty":4,"cheap":0,"music":2,"url":"","address":"雲林縣麥寮鄉中山路279號","latitude":"23.74925300","longitude":"120.25333830","limited_time":"no","socket":"maybe","standing_desk":"no","mrt":"","open_time":""}]