[{"id":"0236e2db-6597-41a9-aaf5-f53fe7539611","name":"Eye Cafe","city":"hualien","wifi":0,"seat":5,"quiet":2,"tasty":5,"cheap":5,"music":3,"url":"https://www.facebook.com/eye.cafe2015/?fref=ts","address":"иҠұи“®еёӮдёӯиҸҜи·Ҝ70иҷҹ","latitude":"23.97610990","longitude":"121.60720770","limited_time":"","socket":"no","standing_desk":"no","mrt":"","open_time":"Am12:00~Pm9:00"},{"id":"05ac2c81-b167-43ba-a890-52cbb246ad01","name":"Cabra Coffee","city":"hualien","wifi":0,"seat":5,"quiet":3,"tasty":4,"cheap":0,"music":4,"url":"","address":"970иҠұи“®зёЈиҠұи“®еёӮдёӯеұұи·Ҝ416-6иҷҹ 970","latitude":"23.98544490","longitude":"121.60280910","limited_time":"no","socket":"maybe","standing_desk":"yes","mrt":"","open_time":""},{"id":"0f42727c-c285-4c37-a3d1-b9a165c7f2c0","name":"з„ЎиЁӯйҷҗе’–е•Ў Unconditional Coffee","city":"hualien","wifi":5,"seat":5,"quiet":3.5,"tasty":5,"cheap":2.5,"music":5,"url":"https://www.facebook.com/unconditionalcoffee","address":"иҠұи“®еёӮжһ—ж”ҝиЎ—44иҷҹ","latitude":"23.97860220","longitude":"121.59621370","limited_time":"maybe","socket":"maybe","standing_desk":"no","mrt":"","open_time":""},{"id":"10cbb92a-29aa-46e5-9bb1-4f429f91559d","name":"еӣһжҳҘе·ҘдҪңе®Ө","city":"hualien","wifi":5,"seat":5,"quiet":5,"tasty":5,"cheap":3,"music":5,"url":"https://www.facebook.com/еӣһжҳҘе·ҘдҪңе®Ө-850842031609095/","address":"иҠұи“®еёӮе…үеҫ©иЎ—91-1иҷҹ","latitude":"23.97927020","longitude":"121.60553400","limited_time":"maybe","socket":"","standing_desk":"no","mrt":"","open_time":""},{"id":"1a7b507f-d8df-482f-b599-4e4f7de21716","name":"иҠұи“®з§ҳеҜҶжө·е’–е•Ў","city":"hualien","wifi":5,"seat":5,"quiet":4,"tasty":5,"cheap":4,"music":5,"url":"https://www.facebook.com/secretseacoffee/?fref=ts","address":"иҠұи“®зёЈиҠұи“®еёӮжө·жҝұиЎ—66иҷҹ","latitude":"23.97312560","longitude":"121.61496740","limited_time":"","socket":"","standing_desk":"","mrt":"","open_time":""},{"id":"1eb93783-85a9-4184-aa74-3b0baf54939d","name":"Caffe Fiore зҸҲзҗІиҠұ","city":"hualien","wifi":4,"seat":3,"quiet":4,"tasty":4,"cheap":3,"music":5,"url":"https://www.facebook.com/profile.php?id=100076840345347","address":"иҠұи“®еёӮеҝ еӯқиЎ—79иҷҹ","latitude":"23.97497620","longitude":"121.60556760","limited_time":"maybe","socket":"","standing_desk":"no","mrt":"","open_time":"д»ҘжҜҸжңҲе…¬еёғи©ІжңҲеә—дј‘ж—ҘзӮәдё»"},{"id":"397c217c-bb35-4325-b8a9-cc342b92d0e9","name":"жңЁеӯҗе®¶е’–е•Ўж°‘е®ҝ (е’–е•Ўе–қеҲ°йЈҪ)","city":"hualien","wifi":0,"seat":0,"quiet":0,"tasty":0,"cheap":0,"music":0,"url":"","address":"иҠұи“®зёЈиҠұи“®еёӮж°‘ж¬Ҡд№қиЎ—1е··5иҷҹ","latitude":"23.98834810","longitude":"121.62771750","limited_time":"","socket":"","standing_desk":"no","mrt":"","open_time":"йҡЁз·ЈпјҢзңӢиҖҒй—Ҷеҝғжғ…зҮҹжҘӯ"},{"id":"4f322786-44e7-4630-9aa3-324a11d2e98f","name":"OliTree","city":"hualien","wifi":0,"seat":5,"quiet":5,"tasty":0,"cheap":0,"music":5,"url":"https://m.facebook.com/loveolitree/?locale2=zh_TW","address":"иҠұи“®еёӮзҜҖзҙ„иЎ—19иҷҹ","latitude":"23.97827500","longitude":"121.60666260","limited_time":"no","socket":"maybe","standing_desk":"no","mrt":"","open_time":"13:30~22:00"},{"id":"54424e5b-8cda-4874-9dc1-e88d33e9090f","name":"еӨӘйӯҜй–Је…үиҰә Lighten Cafe Taroko","city":"hualien","wifi":0,"seat":4,"quiet":4,"tasty":5,"cheap":4.5,"music":5,"url":"https://www.facebook.com/Tarokocafe","address":"иҠұи“®зёЈз§Җжһ—й„үеҙҮеҫ·жқ‘159иҷҹ","latitude":"24.15145620","longitude":"121.64872790","limited_time":"no","socket":"yes","standing_desk":"yes","mrt":"","open_time":""},{"id":"565f9e9b-7790-4b59-869d-9f82a44e2dcd","name":"дјҠи«ҫе’–е•ЎйӨЁ","city":"hualien","wifi":5,"seat":5,"quiet":4,"tasty":4,"cheap":5,"music":4,"url":"https://www.facebook.com/%E4%BC%8A%E8%AB%BE%E5%92%96%E5%95%A1%E9%A4%A8-112011755504621/","address":"иҠұи“®еёӮе…үеҫ©иЎ—130иҷҹ","latitude":"23.98061650","longitude":"121.60471870","limited_time":"no","socket":"maybe","standing_desk":"no","mrt":"","open_time":""},{"id":"57546594-eaee-4938-8e29-33f61c48127c","name":"е®үеЁңе’–е•Ў","city":"hualien","wifi":5,"seat":5,"quiet":5,"tasty":5,"cheap":5,"music":5,"url":"https://www.facebook.com/cafeanna","address":"иҠұи“®еёӮеңӢиҒҜ5и·Ҝ137иҷҹ","latitude":"23.99310510","longitude":"121.60486440","limited_time":"no","socket":"maybe","standing_desk":"no","mrt":"","open_time":""},{"id":"59033f51-068d-4c67-990a-c3194c2a328e","name":"еӨҸжҜ”е®үе’–е•Ў","city":"hualien","wifi":4,"seat":4.5,"quiet":5,"tasty":4.5,"cheap":4,"music":5,"url":"","address":"иҠұи“®зёЈе…үеҫ©й„үж°‘жІ»иЎ—15е··28иҷҹ","latitude":"23.64383060","longitude":"121.42101830","limited_time":"no","socket":"maybe","standing_desk":"no","mrt":"","open_time":""},{"id":"60a3c32c-5011-48c1-8ad0-31e0395a840f","name":"дәһз‘ҹзҡ„зҺӢеә§","city":"hualien","wifi":0,"seat":0,"quiet":0,"tasty":0,"cheap":0,"music":0,"url":"https://www.facebook.com/arthursthrone","address":"иҠұи“®еёӮдёӯиҲҲи·Ҝ81иҷҹ","latitude":"23.99322500","longitude":"121.62916780","limited_time":"no","socket":"yes","standing_desk":"no","mrt":"","open_time":""},{"id":"7070f1eb-a497-40e7-8706-c346176f8fdf","name":"ж–—е®…гҖӮжҸҖиҢ¶иҲҚ","city":"hualien","wifi":0,"seat":0,"quiet":0,"tasty":0,"cheap":0,"music":0,"url":"https://www.facebook.com/ShibaInuCafeRoasters","address":"иҠұи“®еёӮдёүж°‘иЎ—23иҷҹ(иҠұи“®зёЈзёЈе®ҡеҸӨи№ҹжӘўеҜҹй•·е®ҝиҲҚ)","latitude":"23.97989620","longitude":"121.60907720","limited_time":"","socket":"","standing_desk":"","mrt":"","open_time":""},{"id":"72838829-ec7a-46f4-97ea-0de4a32a2d9d","name":"е°Ҹе®ӨйӣҶеҗҲз©әй–“","city":"hualien","wifi":0,"seat":0,"quiet":0,"tasty":0,"cheap":0,"music":0,"url":"https://www.facebook.com/иҠұи“®-е’–е•Ў-е°Ҹе®ӨйӣҶеҗҲз©әй–“-1605452359481678","address":"иҠұи“®еёӮжңүжҒҶиЎ—3иҷҹ","latitude":"23.97598190","longitude":"121.60322330","limited_time":"no","socket":"yes","standing_desk":"no","mrt":"","open_time":""},{"id":"7b351894-7351-4f50-b643-9fa8097caf71","name":"йҳҝиҺ«е’–е•Ў A-more Coffee","city":"hualien","wifi":5,"seat":5,"quiet":4.5,"tasty":5,"cheap":5,"music":5,"url":"https://www.facebook.com/amore168/","address":"иҠұи“®еёӮеңӢж°‘дёҖиЎ—46иҷҹ","latitude":"23.98759700","longitude":"121.60196400","limited_time":"no","socket":"maybe","standing_desk":"yes","mrt":"","open_time":"10:00AM - 8:00PM йҖұдёүе…¬дј‘"},{"id":"7e2604e2-0bd1-42bc-9c4d-6893fe75fe5f","name":"е’–е•ЎиҲҚ Seven Beans","city":"hualien","wifi":0,"seat":0,"quiet":0,"tasty":0,"cheap":0,"music":0,"url":"https://www.facebook.com/LeoSpaceCafeBar","address":"иҠұи“®еёӮе»әжһ—иЎ—132иҷҹ","latitude":"23.98104050","longitude":"121.60052650","limited_time":"no","socket":"maybe","standing_desk":"no","mrt":"","open_time":""},{"id":"7ea3887d-ade8-4adc-8b7a-0c1e1b4a90e1","name":"9803","city":"hualien","wifi":5,"seat":4.5,"quiet":4.5,"tasty":4.5,"cheap":4,"music":4.5,"url":"https://www.facebook.com/9803cafe/","address":"иҠұи“®зёЈеЈҪиұҗй„үеҝ—еӯёжқ‘жҰ®е…үиЎ—22иҷҹ","latitude":"23.90685000","longitude":"121.53449610","limited_time":"no","socket":"maybe","standing_desk":"no","mrt":"","open_time":"12:00 - 00:00пјҢеҜ’жҡ‘еҒҮдј‘жҒҜ"},{"id":"816bfc49-e3e1-476a-b562-3b224f2ce426","name":"жӯЈз•¶еҶ°","city":"hualien","wifi":5,"seat":4,"quiet":3,"tasty":4.5,"cheap":3,"music":4,"url":"https://www.facebook.com/JusticeIceCream.FanClub/","address":"иҠұи“®еёӮдёӯзҰҸи·Ҝ147иҷҹ ","latitude":"23.97214640","longitude":"121.60178880","limited_time":"maybe","socket":"maybe","standing_desk":"no","mrt":"","open_time":""},{"id":"84edc540-0242-4dad-8f37-5d6fcb4a1f00","name":"жғҰжғҰ lab:tiamtiam","city":"hualien","wifi":0,"seat":0,"quiet":0,"tasty":0,"cheap":0,"music":0,"url":"https://www.facebook.com/2015tiamtiam","address":"иҠұи“®зёЈеҗүе®үй„үдёӯиҲҲи·Ҝ345иҷҹ","latitude":"23.97395490","longitude":"121.56486840","limited_time":"","socket":"","standing_desk":"no","mrt":"","open_time":""},{"id":"852b4fa3-8427-4b04-80e3-b598237916a4","name":"дј—е’–е•Ў","city":"hualien","wifi":5,"seat":5,"quiet":5,"tasty":5,"cheap":4,"music":4,"url":"https://www.facebook.com/peopleofcoffee","address":"иҠұи“®еёӮдёӯеұұи·Ҝ624иҷҹ","latitude":"23.99337100","longitude":"121.59689800","limited_time":"no","socket":"yes","standing_desk":"yes","mrt":"","open_time":"9~20"},{"id":"8a4cae29-2410-48fd-b4d2-769d84c25e34","name":"е’–е•ЎжңҲпјҲжө…йҮҺпјү","city":"hualien","wifi":0,"seat":3,"quiet":3,"tasty":3,"cheap":3,"music":2,"url":"https://www.facebook.com/%E5%92%96%E5%95%A1%E6%9C%88%E6%B5%85%E9%87%8E-577269992304115","address":"иҠұи“®зёЈиҠұи“®еёӮеҫ©иҲҲиЎ—65-2иҷҹ","latitude":"23.98129530","longitude":"121.60685540","limited_time":"","socket":"","standing_desk":"no","mrt":"","open_time":""},{"id":"a6cbb007-50f4-4a3c-911b-bb6269f85dde","name":"зңҹжҫӨCoffee пјҶ Ice cream","city":"hualien","wifi":0,"seat":0,"quiet":0,"tasty":0,"cheap":0,"music":0,"url":"https://www.facebook.com/%E7%9C%9F%E6%BE%A4%E5%92%96%E5%95%A1Ice-cream-127441087972698","address":"970иҠұи“®зёЈиҠұи“®еёӮдёӯиҸҜи·Ҝ325-9иҷҹ","latitude":"23.97486320","longitude":"121.59831020","limited_time":"","socket":"","standing_desk":"no","mrt":"","open_time":""},{"id":"a6df7233-5a3b-4ee7-9feb-50fe64e73f6f","name":"иүІйҰҷиІ“зІҫе“Ғе’–е•Ў","city":"hualien","wifi":0,"seat":0,"quiet":0,"tasty":0,"cheap":0,"music":0,"url":"https://www.facebook.com/SHE.XIANG.MAO.COFFEE/?fref=ts","address":"иҠұи“®еёӮе»әеңӢи·Ҝ75е··16еј„19иҷҹ","latitude":"23.98192950","longitude":"121.60243110","limited_time":"","socket":"","standing_desk":"no","mrt":"","open_time":""},{"id":"b6aab84f-a2de-4aa5-9fa6-e188dbe36e5b","name":"KЕҢHIе®… (зҸҲзҗІе®…)","city":"hualien","wifi":4.5,"seat":4,"quiet":5,"tasty":5,"cheap":3.5,"music":4.5,"url":"https://www.facebook.com/kohi.rejidensu","address":"иҠұи“®зёЈиҠұи“®еёӮжҲҗеҠҹиЎ—298иҷҹ","latitude":"23.97450840","longitude":"121.60785350","limited_time":"no","socket":"no","standing_desk":"no","mrt":"","open_time":""},{"id":"b74299e5-2387-4d5d-81c1-9fa2e90cdf7b","name":"giocareзҫ©ејҸ.жүӢжІ–е’–е•Ў","city":"hualien","wifi":2,"seat":4,"quiet":3.5,"tasty":5,"cheap":4,"music":4,"url":"https://www.facebook.com/giocare.cafe/","address":"иҠұи“®зёЈиҠұи“®еёӮжЁ№дәәиЎ—7иҷҹ","latitude":"23.97628550","longitude":"121.61301910","limited_time":"no","socket":"","standing_desk":"no","mrt":"","open_time":""},{"id":"bc937057-a552-48b8-a0da-d1d3b0bfb62c","name":"Choco Choco жүӢе·Ҙе·§е…ӢеҠӣе’–е•ЎйӨЁ","city":"hualien","wifi":5,"seat":5,"quiet":5,"tasty":5,"cheap":3,"music":5,"url":"http://choco2.com.tw/","address":"иҠұи“®еёӮеҝ еӯқиЎ—70иҷҹ","latitude":"23.97514600","longitude":"121.60571140","limited_time":"maybe","socket":"maybe","standing_desk":"no","mrt":"","open_time":""},{"id":"bdb16a4d-1275-4781-b745-e94a20f33ed9","name":" з§Ӣжңқе’–е•ЎйӨЁ","city":"hualien","wifi":0,"seat":0,"quiet":0,"tasty":0,"cheap":0,"music":0,"url":"https://www.facebook.com/QiuChaocafe","address":"970иҠұи“®зёЈиҠұи“®еёӮиҠұеҙ—иЎ—5иҷҹ","latitude":"23.97474050","longitude":"121.61208330","limited_time":"maybe","socket":"maybe","standing_desk":"no","mrt":"","open_time":""},{"id":"c451e1c0-2f8c-4cbe-a038-5e89f98c2781","name":"еҗүйҮҺзІҫе“Ғе’–е•Ўзғҳз„ҷе®Ө","city":"hualien","wifi":5,"seat":5,"quiet":5,"tasty":5,"cheap":5,"music":3,"url":"https://www.coffeeman.com.tw/","address":"970иҠұи“®зёЈиҠұи“®еёӮжҲҗеҠҹиЎ—206иҷҹ","latitude":"23.97301980","longitude":"121.60559400","limited_time":"","socket":"","standing_desk":"no","mrt":"","open_time":""},{"id":"c7554ef5-2eff-4c4c-a002-a3cf9dd6ebbb","name":"зҫ…дјҜе’–е•ЎеңӢиҒҜеә—","city":"hualien","wifi":5,"seat":5,"quiet":5,"tasty":3,"cheap":3,"music":3,"url":"http://www.rob-cafe.com.tw","address":"иҠұи“®еёӮеңӢиҒҜдә”и·Ҝ69иҷҹ","latitude":"23.99075370","longitude":"121.60535630","limited_time":"no","socket":"maybe","standing_desk":"no","mrt":"","open_time":""},{"id":"cb5cf5a7-f45e-49b6-a4fa-14c5bbd00b05","name":"йҖұе…ӯйғҠеҚҖ","city":"hualien","wifi":0,"seat":5,"quiet":5,"tasty":5,"cheap":5,"music":5,"url":"йҖұе…ӯйғҠеҚҖ","address":"иҠұи“®еёӮж°‘ж¬Ҡ7иЎ—22иҷҹ","latitude":"23.98830020","longitude":"121.62253760","limited_time":"no","socket":"yes","standing_desk":"no","mrt":"","open_time":""},{"id":"cda7ad4b-3f1a-4a7e-8417-bfdb071f6e9d","name":"жқҜй»һе’–е•Ў Bad Day Coffee","city":"hualien","wifi":4.5,"seat":5,"quiet":4.5,"tasty":4.5,"cheap":4.5,"music":5,"url":"https://www.facebook.com/baddaycoffee/","address":"иҠұи“®еёӮеҜҢзҘҘиЎ—58иҷҹ","latitude":"23.99291520","longitude":"121.59324150","limited_time":"no","socket":"yes","standing_desk":"no","mrt":"","open_time":"ж°ёд№…еҒңжҘӯ"},{"id":"d4c5194c-9a6b-4e68-9d3c-17475a798b26","name":"еҚҠеҜ“е’–е•Ўgiocare 1еә—","city":"hualien","wifi":4,"seat":5,"quiet":5,"tasty":5,"cheap":4,"music":5,"url":"https://www.facebook.com/apartment.giocare/","address":"иҠұи“®еёӮжҲҗеҠҹиЎ—316иҷҹ","latitude":"23.97465010","longitude":"121.60813270","limited_time":"maybe","socket":"maybe","standing_desk":"no","mrt":"","open_time":"14пјҡ00пҪһ20пјҡ00"},{"id":"d8834684-2728-46e4-830d-b3b15bf1c323","name":"жіҘе·ҙе’–е•Ў","city":"hualien","wifi":5,"seat":4,"quiet":5,"tasty":3,"cheap":3,"music":4,"url":"https://www.facebook.com/cafemud","address":"иҠұи“®зёЈиҠұи“®еёӮдёӯжӯЈи·Ҝ561иҷҹ","latitude":"23.97752970","longitude":"121.60760560","limited_time":"no","socket":"maybe","standing_desk":"no","mrt":"","open_time":""},{"id":"d8d852c7-73cd-4d8a-a674-87d85712a55f","name":"дјҜжҸҡе’–е•Ўеҗүе®үзёҪеә—","city":"hualien","wifi":4,"seat":5,"quiet":5,"tasty":5,"cheap":5,"music":0,"url":"https://www.facebook.com/BoYangCafe/","address":"еҗүе®үй„үж°ёиҲҲ7иЎ—72иҷҹ","latitude":"23.95457820","longitude":"121.56795580","limited_time":"no","socket":"no","standing_desk":"no","mrt":"","open_time":"12:30 - 20:30"},{"id":"dcd0a7e1-a10a-4e0c-8511-e13064ec6cc7","name":"й»‘йҜЁе’–е•Ў","city":"hualien","wifi":5,"seat":5,"quiet":5,"tasty":5,"cheap":5,"music":5,"url":"https://www.facebook.com/%E9%BB%91%E9%AF%A8%E5%92%96%E5%95%A1%E9%A4%A8-Black-Whale-Cafe-225521334305344/","address":"иҠұи“®еёӮжһ—жЈ®и·Ҝ255д№Ӣ1иҷҹ","latitude":"23.97895950","longitude":"121.60152690","limited_time":"no","socket":"yes","standing_desk":"yes","mrt":"","open_time":"е№іж—Ҙ9:00~19:00,еҒҮж—Ҙ12:00~22:00"},{"id":"dd4dca91-7f4a-4910-a2f9-2d14ec1b2a77","name":"жіўзұіе’–е•Ў","city":"hualien","wifi":5,"seat":4,"quiet":4,"tasty":5,"cheap":4,"music":5,"url":"https://www.facebook.com/Pommecafe/","address":"иҠұи“®еёӮж°‘еңӢи·Ҝ 45 иҷҹ","latitude":"23.97705160","longitude":"121.60278190","limited_time":"","socket":"no","standing_desk":"no","mrt":"","open_time":"е‘ЁдёҖе…¬дј‘ 10:00AM - 2:30PM, 5:00PM - 9:00PM"},{"id":"df53e2af-dad1-4c29-a4f7-76d94b648399","name":"жӯЈеҫ·ж„ӣеҝғе’–е•ЎйӨЁ","city":"hualien","wifi":0,"seat":0,"quiet":0,"tasty":0,"cheap":0,"music":0,"url":"https://www.facebook.com/pages/%E6%AD%A3%E5%BE%B7%E6%84%9B%E5%BF%83%E5%92%96%E5%95%A1%E9%A4%A8/106142295324633/","address":"иҠұи“®еёӮжө·еІёи·Ҝ9иҷҹ","latitude":"23.98775310","longitude":"121.62787340","limited_time":"","socket":"maybe","standing_desk":"yes","mrt":"","open_time":""},{"id":"dfd85d0f-5ca6-4e16-ab5c-ffa32b7ff456","name":"зҸҲзҗІйӢӘеӯҗ (е’–е•ЎйӢӘеӯҗ)","city":"hualien","wifi":0,"seat":0,"quiet":0,"tasty":0,"cheap":0,"music":0,"url":"https://www.facebook.com/gabepuze","address":"иҠұи“®еёӮзҜҖзҙ„иЎ—8иҷҹ","latitude":"23.97757220","longitude":"121.60589630","limited_time":"no","socket":"maybe","standing_desk":"no","mrt":"","open_time":""},{"id":"e0f7dd8f-3152-47e0-85be-3992f5298dfa","name":"еҚЎжң¬зү№","city":"hualien","wifi":0,"seat":0,"quiet":0,"tasty":0,"cheap":0,"music":0,"url":"https://www.facebook.com/hualiencarpenter","address":"иҠұи“®еёӮиҠұи“®еёӮе°ҡеҝ—и·Ҝ5-2иҷҹ","latitude":"23.98678780","longitude":"121.60996090","limited_time":"","socket":"","standing_desk":"no","mrt":"","open_time":""},{"id":"e1af95d8-9d07-483f-86df-56ca0bd1156b","name":"Koukouvagia е’•е’•зҷјиҠҪе’–е•Ўй©ӣжЈ§","city":"hualien","wifi":5,"seat":5,"quiet":4,"tasty":5,"cheap":5,"music":5,"url":"https://www.facebook.com/koukouvagiacafe/","address":"иҠұи“®зёЈзҺүйҮҢйҺ®еӨ§еҗҢи·Ҝ58иҷҹ","latitude":"23.32674060","longitude":"121.31427020","limited_time":"","socket":"maybe","standing_desk":"yes","mrt":"","open_time":""},{"id":"e433a385-ce45-4778-a23f-2280febb0c8c","name":"жңҲиҚ·еЎҳй„үжқ‘е»ҡжҲҝ","city":"hualien","wifi":5,"seat":5,"quiet":4,"tasty":3,"cheap":4,"music":4,"url":"https://www.facebook.com/lsmoon39/","address":"иҠұи“®зёЈеҜҢйҮҢй„ү983иҠұи“®зёЈеҜҢйҮҢй„үзҫ…еұұжқ‘жқұж№–39иҷҹ","latitude":"23.20164250","longitude":"121.27590360","limited_time":"no","socket":"maybe","standing_desk":"yes","mrt":"","open_time":""},{"id":"e6a61a0f-63a6-4476-8473-b1428968b512","name":"жө®е®Ө soave plan","city":"hualien","wifi":5,"seat":4.5,"quiet":5,"tasty":5,"cheap":4.5,"music":5,"url":"https://www.facebook.com/soaveplan/","address":"иҠұи“®зёЈиҠұи“®еёӮжҲҗеҠҹиЎ—280иҷҹ","latitude":"23.97424770","longitude":"121.60733620","limited_time":"no","socket":"maybe","standing_desk":"no","mrt":"","open_time":""},{"id":"ec611d48-7dcb-41d8-a919-619005a8a94e","name":"ж–—гҖӮе®…е•ҶзӨҫ Cafe & Bar","city":"hualien","wifi":0,"seat":0,"quiet":0,"tasty":0,"cheap":0,"music":0,"url":"https://www.facebook.com/Shibainu159.7","address":"иҠұи“®еёӮзҰҸе»әиЎ—460иҷҹ (йҗөйҒ“ж–ҮеҢ–ең’еҚҖдәҢйӨЁе…§)","latitude":"23.97443230","longitude":"121.60984350","limited_time":"no","socket":"yes","standing_desk":"no","mrt":"","open_time":""},{"id":"eeaaf76a-f16f-4ca9-ac4b-93579cbcacae","name":"йҮ‘ж№ҜйҒ”дәәе’–е•ЎйӨЁ","city":"hualien","wifi":2,"seat":4,"quiet":4,"tasty":5,"cheap":2,"music":5,"url":"https://www.facebook.com/kingtangcafe","address":"иҠұи“®еёӮдёӯеұұи·Ҝ431иҷҹ","latitude":"23.98258580","longitude":"121.60492030","limited_time":"no","socket":"maybe","standing_desk":"no","mrt":"","open_time":"жҜҸж—Ҙ8:00AM - 7:00PM"},{"id":"fb3cbf38-b7ad-43d0-9453-2451d3a4c7fa","name":"иҠұи“®жҒ©е…ёе’–е•Ў","city":"hualien","wifi":0,"seat":0,"quiet":0,"tasty":0,"cheap":0,"music":0,"url":"https://www.facebook.com/%E8%8A%B1%E8%93%AE%E6%81%A9%E5%85%B8%E5%92%96%E5%95%A1-748440858570985/?fref=ts","address":"иҠұи“®зёЈиҠұи“®еёӮж°‘йҒӢйҮҢдёӯзҫҺдёҖиЎ—74иҷҹ","latitude":"23.99474490","longitude":"121.63077700","limited_time":"","socket":"","standing_desk":"","mrt":"","open_time":""},{"id":"fc702163-13f9-4bdf-81cd-dd50979106cf","name":"Cafe Copita","city":"hualien","wifi":0,"seat":5,"quiet":3,"tasty":3.5,"cheap":3,"music":3,"url":"https://www.facebook.com/Cafe-Copita-259896267771364","address":"иҠұи“®еёӮеҚҡж„ӣиЎ—105иҷҹ","latitude":"23.97464140","longitude":"121.60838540","limited_time":"","socket":"","standing_desk":"no","mrt":"","open_time":""}]