[{"id":"02333e1c-c7ab-4cd1-8797-10e20a8c2be0","name":"ARTROOM14藝室","city":"hsinchu","wifi":0,"seat":0,"quiet":0,"tasty":0,"cheap":0,"music":0,"url":"","address":"300新竹市北區勝利路300號","latitude":"24.80210080","longitude":"120.96378070","limited_time":"","socket":"","standing_desk":"","mrt":"","open_time":""},{"id":"040bbb17-b33a-497a-8241-51344a536140","name":"Mr.Moon 月亮先生咖啡館","city":"hsinchu","wifi":0,"seat":0,"quiet":0,"tasty":0,"cheap":0,"music":0,"url":"https://www.facebook.com/mr.mooncoffee/","address":"新竹縣竹北市嘉豐五路二段29號","latitude":"24.81005100","longitude":"121.02684600","limited_time":"","socket":"","standing_desk":"","mrt":"","open_time":""},{"id":"04668a7f-9bef-43f3-83aa-662725bd2045","name":"About cafe ","city":"hsinchu","wifi":5,"seat":4,"quiet":4,"tasty":5,"cheap":4,"music":4,"url":"https://www.facebook.com/AboutCafe869/","address":"新竹市東區中正路30-1號","latitude":"24.80343040","longitude":"120.97144710","limited_time":"yes","socket":"maybe","standing_desk":"yes","mrt":"","open_time":"週日公休"},{"id":"0556dad9-1487-4c94-8736-13342ead0e65","name":"KURUMI哭哭咖啡二店","city":"hsinchu","wifi":5,"seat":3,"quiet":3,"tasty":4,"cheap":3,"music":5,"url":"https://m.facebook.com/kurumi2021/","address":"新竹縣竹北市嘉豐六路二段88號","latitude":"24.80741070","longitude":"121.02734180","limited_time":"maybe","socket":"maybe","standing_desk":"no","mrt":"","open_time":""},{"id":"068bde72-3e54-4e06-9ab3-ef79385b98eb","name":"橋恩咖啡竹北店","city":"hsinchu","wifi":4,"seat":3,"quiet":3,"tasty":4,"cheap":3,"music":3,"url":"https://cafe-20146.business.site/","address":"新竹縣竹北市文信路297號","latitude":"24.83182340","longitude":"121.01272510","limited_time":"","socket":"","standing_desk":"","mrt":"","open_time":""},{"id":"06e678fd-17cc-43f6-8bbd-f5cf9605de3c","name":"HILA BASECAMP","city":"hsinchu","wifi":3,"seat":3,"quiet":4,"tasty":5,"cheap":5,"music":4.5,"url":"https://www.facebook.com/HILA.BASECAMP","address":"新竹市北區新竹市長安街107號","latitude":"24.80752560","longitude":"120.96489710","limited_time":"no","socket":"no","standing_desk":"no","mrt":"","open_time":"8:00 - 17:00 週一公休"},{"id":"075eb467-5231-483f-a774-2af1fdb8a10f","name":"一天咖啡ONEDAY","city":"hsinchu","wifi":5,"seat":5,"quiet":5,"tasty":5,"cheap":5,"music":5,"url":"https://mybzplus.tw/om3qoq27.html","address":"新竹市東區東門街27號","latitude":"24.80414240","longitude":"120.97353230","limited_time":"no","socket":"no","standing_desk":"yes","mrt":"","open_time":""},{"id":"097c4c4d-0dd8-48ed-8c91-4b9dfea07b4b","name":"咖啡．候機室The Departure Lounge新竹光復店","city":"hsinchu","wifi":0,"seat":0,"quiet":0,"tasty":0,"cheap":0,"music":0,"url":"","address":"新竹市東區光復路一段360-8號","latitude":"24.78347290","longitude":"121.01767200","limited_time":"","socket":"","standing_desk":"","mrt":"","open_time":""},{"id":"0e7ed56e-c572-4625-a657-7202c1c71890","name":"客棧咖啡日式早午餐","city":"hsinchu","wifi":5,"seat":5,"quiet":5,"tasty":5,"cheap":5,"music":5,"url":"https://www.facebook.com/%E5%AE%A2%E6%A3%A7%E5%92%96%E5%95%A1%E6%97%A5%E5%BC%8F%E6%97%A9%E5%8D%88%E9%A4%90-%E3%82%B3%E3%83%BC%E3%83%92%E3%83%BC%E3%83%96%E3%83%A9%E3%83%B3%E3%83%81-616179038555121/","address":"新竹市信義街82號","latitude":"24.80336420","longitude":"120.97060660","limited_time":"no","socket":"maybe","standing_desk":"yes","mrt":"","open_time":"11:00～17:00"},{"id":"0f43df3d-d859-4aba-b2f5-15f8ac2de64c","name":"咖啡的家","city":"hsinchu","wifi":5,"seat":5,"quiet":4,"tasty":5,"cheap":5,"music":4,"url":"https://www.coffeehome.com.tw","address":"新竹科學園路72號","latitude":"24.78506540","longitude":"121.01041550","limited_time":"no","socket":"no","standing_desk":"no","mrt":"","open_time":"開門時間常常遲到"},{"id":"0f550e0e-0c28-496a-b500-64fedf552b9a","name":"木耳生活藝術之Family Pizza","city":"hsinchu","wifi":0,"seat":4,"quiet":3,"tasty":4,"cheap":3,"music":0,"url":"","address":"新竹縣竹北市高鐵二路65號","latitude":"24.80565040","longitude":"121.03692550","limited_time":"no","socket":"maybe","standing_desk":"yes","mrt":"","open_time":"11:00~20:00"},{"id":"0f8c100a-4d43-44ba-a06e-d279d751b944","name":"SUSUMU","city":"hsinchu","wifi":5,"seat":4,"quiet":4,"tasty":4,"cheap":3,"music":5,"url":"https://instagram.com/susumu_240?utm_medium=copy_link","address":"300032新竹市東區西大路240號","latitude":"24.79847370","longitude":"120.96846590","limited_time":"maybe","socket":"maybe","standing_desk":"yes","mrt":"","open_time":""},{"id":"103a0b62-0e24-449e-8c5a-dfe6227cb511","name":"謐謐甜點","city":"hsinchu","wifi":5,"seat":4,"quiet":3,"tasty":3,"cheap":3,"music":4,"url":"https://www.facebook.com/SecretPatisserie/","address":"新竹市民富街151號","latitude":"24.80715850","longitude":"120.96031020","limited_time":"no","socket":"yes","standing_desk":"yes","mrt":"","open_time":""},{"id":"11741de6-c6e6-4c7d-b795-10d8886fd168","name":"沐咖啡","city":"hsinchu","wifi":5,"seat":5,"quiet":5,"tasty":5,"cheap":4.5,"music":5,"url":"https://www.facebook.com/mu.cafe131/","address":"300新竹市東區光復路一段89巷131號","latitude":"24.77851310","longitude":"121.02522900","limited_time":"","socket":"","standing_desk":"","mrt":"","open_time":""},{"id":"11cb3652-13fa-4494-9976-818fbfe85738","name":"Cafe On Air","city":"hsinchu","wifi":0,"seat":4,"quiet":3.5,"tasty":5,"cheap":5,"music":4.5,"url":"","address":"新竹市東區民族路33巷55號","latitude":"24.80538130","longitude":"120.97145150","limited_time":"no","socket":"maybe","standing_desk":"yes","mrt":"","open_time":"營業時間看老闆機動調整"},{"id":"1404a9b1-d017-4704-99f4-3f8568846f07","name":"I'mmat cafe 小墊子","city":"hsinchu","wifi":5,"seat":4,"quiet":3,"tasty":3.5,"cheap":4,"music":4,"url":"https://www.facebook.com/CafeImMat","address":"新竹市東區三民路154號","latitude":"24.80984400","longitude":"120.97914500","limited_time":"no","socket":"maybe","standing_desk":"yes","mrt":"","open_time":"13:00 - 23:00, 週一公休"},{"id":"149b58e9-a9cf-49b2-955b-ff674fe1e456","name":"握咖啡 OH cafe - 新竹金山店","city":"hsinchu","wifi":4,"seat":5,"quiet":4.5,"tasty":5,"cheap":4.5,"music":4,"url":"https://www.facebook.com/ohcafe.Hsinchu/","address":"新竹市東區金山八街48號","latitude":"24.77781610","longitude":"121.02032500","limited_time":"","socket":"","standing_desk":"","mrt":"","open_time":""},{"id":"17ec1927-10cb-41e5-b7f7-688d909336ab","name":"見域Kendama","city":"hsinchu","wifi":5,"seat":5,"quiet":3,"tasty":5,"cheap":5,"music":4,"url":"www.facebook.com/kendamahsinchu/","address":"新竹市北門街74號","latitude":"24.80653410","longitude":"120.96607000","limited_time":"no","socket":"maybe","standing_desk":"no","mrt":"","open_time":""},{"id":"1a16858b-75a6-49ff-be89-b4bb3b4cad31","name":"綠禾塘。翔頂咖啡","city":"hsinchu","wifi":5,"seat":4,"quiet":4,"tasty":5,"cheap":4,"music":4,"url":"https://www.facebook.com/綠禾塘翔頂咖啡-332162806915678","address":"新竹縣竹北市文興路一段123-12號","latitude":"24.81176790","longitude":"121.02625310","limited_time":"no","socket":"no","standing_desk":"no","mrt":"","open_time":"10:00 - 19:00, 週一公休 "},{"id":"1d715a3c-24a1-45e6-ba10-8844b43998ef","name":" Hollatte馥拿鐵","city":"hsinchu","wifi":4,"seat":3,"quiet":3,"tasty":5,"cheap":5,"music":5,"url":"https://www.facebook.com/Hollatte/?ref=ts&fref=ts","address":"新竹市東區金山七街70號","latitude":"24.77732800","longitude":"121.01988500","limited_time":"no","socket":"maybe","standing_desk":"yes","mrt":"","open_time":"Hours 9:00 - 18:00"},{"id":"1f29c528-7df4-49e9-8be8-580bdc7f0445","name":"甘木赤水咖啡館","city":"hsinchu","wifi":5,"seat":5,"quiet":5,"tasty":5,"cheap":4,"music":4,"url":"","address":"新竹市東區食品路177巷43號","latitude":"24.79586240","longitude":"120.97664780","limited_time":"no","socket":"maybe","standing_desk":"yes","mrt":"","open_time":""},{"id":"204498f6-ba66-4a66-90ef-c85b08a1a8dd","name":"布蕾咖啡 Cafe Brûlée","city":"hsinchu","wifi":4.5,"seat":3,"quiet":3,"tasty":4,"cheap":3.5,"music":4,"url":"https://www.facebook.com/BruLeeCafe/","address":"新竹市東區長春街64巷2號","latitude":"24.78612860","longitude":"121.01502910","limited_time":"maybe","socket":"maybe","standing_desk":"no","mrt":"","open_time":"9:00 - 21:00"},{"id":"22288c61-4cc3-4d79-b64d-466a48d92e8d","name":"Piccolo Coffee","city":"hsinchu","wifi":5,"seat":4,"quiet":5,"tasty":5,"cheap":5,"music":5,"url":"https://www.facebook.com/Piccolo-Coffee-151877254822450/?fref=ts","address":"新竹市東區建中路101號","latitude":"24.80321890","longitude":"120.99609480","limited_time":"yes","socket":"maybe","standing_desk":"no","mrt":"","open_time":"9:00~21:30 六日公休"},{"id":"244c0247-1b9b-44a9-b728-570fc3752476","name":"Cafe De La Fleur 十畝香手作烘培","city":"hsinchu","wifi":5,"seat":5,"quiet":5,"tasty":4,"cheap":4,"music":4,"url":"https://cafe-de-la-fleur.business.site/","address":"Cafe De La Fleur 十畝香手作烘培","latitude":"24.80326300","longitude":"121.03327360","limited_time":"no","socket":"maybe","standing_desk":"yes","mrt":"","open_time":""},{"id":"255c3c3b-c691-4513-8d7c-93e97bafcd0e","name":"歐客佬咖啡農場竹北店","city":"hsinchu","wifi":0,"seat":0,"quiet":0,"tasty":0,"cheap":0,"music":0,"url":"","address":"新竹縣竹北市光明一路367號","latitude":"24.83299140","longitude":"121.00716090","limited_time":"","socket":"","standing_desk":"","mrt":"","open_time":""},{"id":"25801a20-c09d-49f2-a6f0-c46fb3d294a6","name":"HILA STEP COFFEE TAKE OUT","city":"hsinchu","wifi":2.5,"seat":3,"quiet":3.5,"tasty":4.5,"cheap":5,"music":5,"url":"https://www.facebook.com/hilastep","address":"300新竹市東區光復路二段382號","latitude":"24.79642550","longitude":"120.99767010","limited_time":"no","socket":"no","standing_desk":"no","mrt":"","open_time":"8:00 - 17:00"},{"id":"26bf266b-ec6d-4a32-800d-2e616e0271c4","name":"Oh！樂咖啡","city":"hsinchu","wifi":0,"seat":4,"quiet":3,"tasty":4.5,"cheap":4.5,"music":3.5,"url":"Oh！caffe樂咖啡","address":"新竹縣湖口鄉中華路26號","latitude":"24.87242310","longitude":"121.01023540","limited_time":"no","socket":"maybe","standing_desk":"yes","mrt":"","open_time":""},{"id":"2757ea6f-ec5c-4bf8-82e6-4f2afc10d66f","name":"KNOCK KNOCK COFFEE","city":"hsinchu","wifi":5,"seat":5,"quiet":4,"tasty":4,"cheap":3,"music":4,"url":"https://instagram.com/knockknockcoffeebar?utm_medium=copy_link","address":"300新竹市東區南大路375號","latitude":"24.79661700","longitude":"120.96867200","limited_time":"maybe","socket":"maybe","standing_desk":"yes","mrt":"","open_time":""},{"id":"292f8829-e823-4207-9565-d8f570af9a21","name":"Laid Back Cafe","city":"hsinchu","wifi":5,"seat":5,"quiet":4.5,"tasty":4,"cheap":4,"music":4.5,"url":"https://www.facebook.com/LAIDBACKCAFESTUDIO","address":"新竹市東區關新東路321號","latitude":"24.78686440","longitude":"121.02065510","limited_time":"no","socket":"maybe","standing_desk":"yes","mrt":"","open_time":""},{"id":"2b3ae3eb-1e5e-4f08-a2ee-963ed4219ded","name":"三羊所在","city":"hsinchu","wifi":4,"seat":4,"quiet":3,"tasty":3.5,"cheap":3.5,"music":3,"url":"https://www.facebook.com/WhereGoats/","address":"新竹市北區勝利路223號","latitude":"24.80207890","longitude":"120.96354490","limited_time":"","socket":"","standing_desk":"","mrt":"","open_time":""},{"id":"2c5eb795-a9a5-4629-943e-5befd7ab93f0","name":"泥巴水","city":"hsinchu","wifi":5,"seat":4,"quiet":4,"tasty":4,"cheap":4,"music":4,"url":"https://instagram.com/muddywater118","address":"300新竹市東區建中路118號","latitude":"24.80247780","longitude":"120.99583280","limited_time":"maybe","socket":"maybe","standing_desk":"yes","mrt":"","open_time":""},{"id":"2ce0247a-bd03-4576-a043-e85b816a8519","name":"Oven Coffee sisi竹北店","city":"hsinchu","wifi":0,"seat":0,"quiet":0,"tasty":0,"cheap":0,"music":0,"url":"","address":"新竹縣竹北市勝利八街一段185號","latitude":"24.82636370","longitude":"121.02607520","limited_time":"","socket":"","standing_desk":"","mrt":"","open_time":""},{"id":"2d1152ea-aa03-4173-be4e-b5182b731db7","name":"巷弄田園休閒農村廚房","city":"hsinchu","wifi":0,"seat":0,"quiet":0,"tasty":0,"cheap":0,"music":0,"url":"https://www.facebook.com/farmcoffee.tw/","address":"新竹市北區東大路二段605巷50號","latitude":"24.82128170","longitude":"120.95756600","limited_time":"","socket":"","standing_desk":"","mrt":"","open_time":""},{"id":"2db081ec-b943-4077-889f-689b98c97356","name":"somewhere cafe","city":"hsinchu","wifi":0,"seat":0,"quiet":0,"tasty":0,"cheap":0,"music":0,"url":"","address":"30041新竹市東區中央路310號","latitude":"24.81017730","longitude":"120.97804910","limited_time":"","socket":"","standing_desk":"","mrt":"","open_time":""},{"id":"2df69f82-4f41-4a53-a6ad-6059c7c0cc7e","name":"日遲DIDcoffee","city":"hsinchu","wifi":0,"seat":0,"quiet":0,"tasty":0,"cheap":0,"music":0,"url":"","address":"302新竹縣竹北市嘉豐六路一段62號","latitude":"24.81261400","longitude":"121.03080890","limited_time":"","socket":"","standing_desk":"","mrt":"","open_time":""},{"id":"2e245509-12e4-4103-ac92-38510caa56dc","name":"客美多咖啡-新竹公道店","city":"hsinchu","wifi":5,"seat":5,"quiet":4,"tasty":4,"cheap":4,"music":4,"url":"https://komeda.com.tw/","address":"新竹市東區公道五路三段1號","latitude":"24.80551830","longitude":"120.99154180","limited_time":"maybe","socket":"yes","standing_desk":"no","mrt":"","open_time":"試營運期間開到5pm"},{"id":"31cda686-3d0f-46e1-b272-1c139558a468","name":"abrazamoslavida cafe歲月靜好咖啡館","city":"hsinchu","wifi":0,"seat":0,"quiet":0,"tasty":0,"cheap":0,"music":0,"url":"","address":"302新竹縣竹北市嘉興路239號","latitude":"24.81788710","longitude":"121.02863390","limited_time":"","socket":"","standing_desk":"","mrt":"","open_time":""},{"id":"3265c123-f5be-4ef7-89f8-291986718f57","name":"六十一巷咖啡","city":"hsinchu","wifi":3.5,"seat":3,"quiet":4,"tasty":5,"cheap":5,"music":4,"url":"https://www.facebook.com/61巷咖啡工房河馬咖啡-503882569699697/","address":"新竹市東區東山街61巷7號","latitude":"24.79694450","longitude":"120.97871620","limited_time":"no","socket":"no","standing_desk":"no","mrt":"","open_time":"11:00-18:00"},{"id":"340832b8-6eb9-463c-9ea6-5197d8bf7f74","name":"果子咖啡清大店","city":"hsinchu","wifi":4,"seat":4,"quiet":3,"tasty":3,"cheap":4,"music":3,"url":"http://www.gozcafe.com/","address":"新竹市東區大學路1001號（國立清華大學南校區創新育成大樓1樓）","latitude":"24.78629900","longitude":"120.98894800","limited_time":"no","socket":"no","standing_desk":"no","mrt":"","open_time":""},{"id":"34507d23-3e0c-4903-9e89-8c4d7ffe2ea4","name":"喜歡咖啡","city":"hsinchu","wifi":4,"seat":3,"quiet":3,"tasty":2,"cheap":3,"music":3,"url":"","address":"新竹市北區和福街115號","latitude":"24.80269720","longitude":"120.96415760","limited_time":"yes","socket":"no","standing_desk":"no","mrt":"","open_time":"限時2小時，假日限時1.5小時"},{"id":"34e2d865-01bb-4385-a9d0-4c8f003c3edb","name":"結構咖啡所（目前為工作室型態，請來電預約）","city":"hsinchu","wifi":5,"seat":5,"quiet":3.5,"tasty":5,"cheap":5,"music":4,"url":"https://www.facebook.com/thepeoplecoffee/","address":"新竹市延平路二段447巷13弄27號","latitude":"24.80665700","longitude":"120.93302000","limited_time":"no","socket":"maybe","standing_desk":"yes","mrt":"","open_time":"14:00~21:00"},{"id":"378fac13-3761-48a6-8de1-107b52eea249","name":"轉角726、手工咖啡","city":"hsinchu","wifi":3,"seat":5,"quiet":5,"tasty":5,"cheap":5,"music":5,"url":"https://www.facebook.com/726cape/","address":"新竹市東區明湖路726號","latitude":"24.77228010","longitude":"120.96673530","limited_time":"maybe","socket":"","standing_desk":"","mrt":"","open_time":"10:30–21:00"},{"id":"386c4e7c-b3be-4a08-88e0-3691c0818707","name":"亞爾咖啡 Café d'Arles","city":"hsinchu","wifi":0,"seat":0,"quiet":0,"tasty":0,"cheap":0,"music":0,"url":"","address":"新竹市東區東大路一段81巷6號","latitude":"24.80450100","longitude":"120.97446640","limited_time":"","socket":"","standing_desk":"","mrt":"","open_time":""},{"id":"38c9cfbf-6032-48e0-9b0d-4c61497a3b97","name":"Pain de mie 胖多米咖啡館","city":"hsinchu","wifi":4,"seat":4,"quiet":4,"tasty":4,"cheap":5,"music":4,"url":"http://www.facebook.com/paindemiecafe","address":"新竹市北區世界街148號2樓","latitude":"24.80730130","longitude":"120.96690790","limited_time":"no","socket":"yes","standing_desk":"no","mrt":"","open_time":"13:00 - 19:00"},{"id":"38d8f98a-6aca-4ff6-8583-d526bf7796db","name":"森川咖啡","city":"hsinchu","wifi":4.5,"seat":5,"quiet":4,"tasty":4.5,"cheap":5,"music":4.5,"url":"","address":"302新竹縣竹北市光明六路東一段245號","latitude":"24.82072920","longitude":"121.02661430","limited_time":"","socket":"","standing_desk":"","mrt":"","open_time":""},{"id":"3a0280bd-7375-455d-b920-9ac9e4c24c4b","name":"春芽豆逗 自家烘焙咖啡","city":"hsinchu","wifi":0,"seat":0,"quiet":0,"tasty":0,"cheap":0,"music":0,"url":"","address":"302新竹縣竹北市新光街230號","latitude":"24.83719770","longitude":"121.00026000","limited_time":"","socket":"","standing_desk":"","mrt":"","open_time":""},{"id":"3b5340f4-ea6a-4373-b0f2-6939e7813820","name":"ca va 小日和","city":"hsinchu","wifi":4,"seat":5,"quiet":5,"tasty":4,"cheap":4,"music":4,"url":"https://m.facebook.com/cava0811/","address":"300新竹市北區江山街17巷之4號","latitude":"24.80478830","longitude":"120.96443610","limited_time":"no","socket":"maybe","standing_desk":"no","mrt":"","open_time":""},{"id":"3dca8c93-eb4b-4e67-933b-9562d1ff9cce","name":"Lambkin Cafe","city":"hsinchu","wifi":5,"seat":3,"quiet":3,"tasty":3,"cheap":3,"music":5,"url":"https://m.facebook.com/Lambkincafe2011/","address":"302新竹縣竹北市嘉豐七街143號","latitude":"24.81032620","longitude":"121.03157300","limited_time":"no","socket":"no","standing_desk":"no","mrt":"","open_time":""},{"id":"3f1ea453-6ecc-4eab-bbe8-61bdc632713e","name":"Over the moon璽月咖啡-北大館","city":"hsinchu","wifi":0,"seat":5,"quiet":5,"tasty":4,"cheap":5,"music":4,"url":"https://www.facebook.com/LU.Coffee184","address":"300新竹市北區北大路184號","latitude":"24.80894100","longitude":"120.96624900","limited_time":"no","socket":"maybe","standing_desk":"no","mrt":"","open_time":""},{"id":"3f1f08ac-91e6-4ccf-9239-2f46a0034035","name":"江山藝改所 Jiang Shan Yi Gai Suo","city":"hsinchu","wifi":5,"seat":4,"quiet":4,"tasty":4,"cheap":4,"music":5,"url":"https://www.jsygs-artcafe.com/","address":"新竹市東區興達街1號","latitude":"24.79919700","longitude":"120.96589000","limited_time":"no","socket":"yes","standing_desk":"no","mrt":"","open_time":"不定休"},{"id":"40288b7f-94d0-490f-8a3b-d5618c0f2df0","name":"李宅Not Only Café","city":"hsinchu","wifi":5,"seat":4,"quiet":4,"tasty":3,"cheap":3,"music":3,"url":"https://www.facebook.com/notonlycafe.bar/","address":"300新竹市東區金山九街29號","latitude":"24.77800400","longitude":"121.02107700","limited_time":"no","socket":"","standing_desk":"","mrt":"","open_time":""},{"id":"40a02125-a93d-41db-ab98-4b2ec4396b31","name":"Shmily cafe","city":"hsinchu","wifi":5,"seat":5,"quiet":4,"tasty":3,"cheap":3,"music":3,"url":"https://www.facebook.com/shmilycafe/","address":"302新竹縣竹北市六家五路一段147號","latitude":"24.80915440","longitude":"121.02620040","limited_time":"","socket":"","standing_desk":"","mrt":"","open_time":""},{"id":"40c924fb-6b2d-42fb-b511-fb1cb21c493d","name":"海米咖啡HIMI COFFEE","city":"hsinchu","wifi":0,"seat":5,"quiet":5,"tasty":4,"cheap":5,"music":4,"url":"https://www.facebook.com/HimiCoffee183/","address":"30061新竹市東區西大路183號","latitude":"24.79777270","longitude":"120.96848050","limited_time":"yes","socket":"maybe","standing_desk":"yes","mrt":"","open_time":"星期一至五為公告營業"},{"id":"4198306a-311e-4482-ad38-e75a7384dec2","name":"Coffee SHOT 珈琲夏特","city":"hsinchu","wifi":0,"seat":5,"quiet":3,"tasty":5,"cheap":4,"music":5,"url":"https://www.facebook.com/Coffee-SHOT-%E7%8F%88%E7%90%B2%E5%A4%8F%E7%89%B9-131973000635960/","address":"新竹市中正路67巷內 / 東門市場1樓1049室 ","latitude":"24.81382870","longitude":"120.96747980","limited_time":"no","socket":"no","standing_desk":"yes","mrt":"","open_time":""},{"id":"43d999ef-ee21-495f-97c7-c7271aa9634e","name":"依日咖啡","city":"hsinchu","wifi":3.5,"seat":4.5,"quiet":5,"tasty":4.5,"cheap":3,"music":4.5,"url":"https://www.facebook.com/easygabee/","address":"新竹市東區仁愛街73號","latitude":"24.80828470","longitude":"120.97028040","limited_time":"","socket":"","standing_desk":"","mrt":"","open_time":""},{"id":"467ec2f6-a19c-4606-8eac-70a893c44682","name":"石尚自然探索屋【綠世界店】","city":"hsinchu","wifi":5,"seat":3,"quiet":3,"tasty":5,"cheap":0,"music":5,"url":"https://www.facebook.com/shishangGW/","address":"新竹縣北埔鄉大湖村7鄰20號","latitude":"24.69881010","longitude":"121.07110860","limited_time":"","socket":"","standing_desk":"","mrt":"","open_time":""},{"id":"4ac12cf3-2809-42a5-8ff9-c3b7616deb64","name":"馬雅咖啡烘焙館","city":"hsinchu","wifi":5,"seat":4,"quiet":4,"tasty":5,"cheap":4,"music":4,"url":"http://mayaroast.pixnet.net/blog","address":"新竹市北區中正路485巷4號","latitude":"24.81572720","longitude":"120.95818480","limited_time":"no","socket":"maybe","standing_desk":"no","mrt":"","open_time":"8:00 - 18:00, 週一公休"},{"id":"4c3668f9-9d65-4764-9c79-934262051ac3","name":"Lei Lei Cafe (蕾蕾咖啡館)","city":"hsinchu","wifi":4,"seat":4,"quiet":3,"tasty":3,"cheap":3,"music":3,"url":"https://www.facebook.com/leileicafe/","address":"新竹市世界街154號1樓","latitude":"24.80718770","longitude":"120.96664220","limited_time":"","socket":"","standing_desk":"","mrt":"","open_time":""},{"id":"4cd23e3a-d1ae-45bf-bee5-b8872cfa2f12","name":"城市精品咖啡Hold Mind Coffee","city":"hsinchu","wifi":0,"seat":0,"quiet":0,"tasty":0,"cheap":0,"music":0,"url":"","address":"302新竹縣竹北市嘉豐六路一段59號","latitude":"24.81269050","longitude":"121.03127250","limited_time":"","socket":"","standing_desk":"","mrt":"","open_time":""},{"id":"4f44f366-28f8-42bc-95ca-605f71352676","name":"井井","city":"hsinchu","wifi":4,"seat":4,"quiet":3,"tasty":4,"cheap":3.5,"music":3,"url":"https://www.facebook.com/%E4%BA%95%E4%BA%95-294605067379718/","address":"新竹市新源街136號","latitude":"24.80214800","longitude":"120.99308600","limited_time":"","socket":"","standing_desk":"","mrt":"","open_time":""},{"id":"4fa1488b-0b08-4b6c-b3bf-ff32612f28b0","name":"風徐徐 homebibi","city":"hsinchu","wifi":0,"seat":5,"quiet":5,"tasty":5,"cheap":4,"music":5,"url":"https://www.facebook.com/homebibicafe/","address":"新竹市東區民權路102號","latitude":"24.80786100","longitude":"120.97554700","limited_time":"","socket":"","standing_desk":"","mrt":"","open_time":""},{"id":"51b26e23-e1ca-4439-8461-2a71d3517f43","name":"辛志平校長故居","city":"hsinchu","wifi":5,"seat":5,"quiet":5,"tasty":4,"cheap":4,"music":5,"url":"https://www.facebook.com/AK.museum/","address":"新竹市東區東門街32號","latitude":"24.80437710","longitude":"120.97392600","limited_time":"","socket":"","standing_desk":"no","mrt":"","open_time":""},{"id":"52fe23f1-993c-4964-ba0b-72ca7c9ce429","name":"Hollatte馥拿鐵 自烘咖啡 竹北店","city":"hsinchu","wifi":5,"seat":5,"quiet":5,"tasty":5,"cheap":5,"music":5,"url":"https://m.facebook.com/hollatte5","address":"30264新竹縣竹北市勝利三街150號","latitude":"24.82258670","longitude":"121.02861340","limited_time":"no","socket":"yes","standing_desk":"yes","mrt":"","open_time":"例假日另行公告於粉絲專頁"},{"id":"5339e84c-b063-414f-8610-0f4464b55802","name":"過日子 宅咖啡","city":"hsinchu","wifi":3,"seat":3,"quiet":2,"tasty":5,"cheap":4,"music":5,"url":"","address":"新竹縣竹北市新泰路10-2號","latitude":"24.84155200","longitude":"121.00590500","limited_time":"","socket":"","standing_desk":"","mrt":"","open_time":""},{"id":"53d98b33-4648-4c46-badf-8ff4df2a5267","name":"福星咖啡","city":"hsinchu","wifi":0,"seat":0,"quiet":0,"tasty":0,"cheap":0,"music":0,"url":"","address":"300新竹市東區武昌街11號","latitude":"24.80090300","longitude":"120.96830480","limited_time":"","socket":"","standing_desk":"","mrt":"","open_time":""},{"id":"54f12803-a1bc-49fd-82e4-bf86f3bab6b4","name":"Daily Ping 平日","city":"hsinchu","wifi":0,"seat":0,"quiet":0,"tasty":0,"cheap":0,"music":0,"url":"","address":"300新竹市東區民權路269號","latitude":"24.81344200","longitude":"120.97067630","limited_time":"","socket":"","standing_desk":"","mrt":"","open_time":""},{"id":"57506a59-b89c-4143-8b11-cf6018c05eb1","name":"barback cafe","city":"hsinchu","wifi":0,"seat":0,"quiet":0,"tasty":0,"cheap":0,"music":0,"url":"https://www.instagram.com/bar_barback_cafe/","address":"新竹市民權路111巷1號","latitude":"24.80766700","longitude":"120.97506100","limited_time":"","socket":"","standing_desk":"no","mrt":"","open_time":""},{"id":"5808979d-8e8d-43d8-bc87-72a2708d8ce0","name":"鐵道87","city":"hsinchu","wifi":4,"seat":5,"quiet":5,"tasty":5,"cheap":5,"music":4,"url":"https://www.facebook.com/railway87cafe/","address":"新竹市北區鐵道路2段87號","latitude":"24.81685500","longitude":"120.97852110","limited_time":"no","socket":"maybe","standing_desk":"no","mrt":"","open_time":""},{"id":"5809ebac-04a3-4fe4-9c86-fed72e457fd3","name":"慕溪園 Mercy Cafe","city":"hsinchu","wifi":5,"seat":4,"quiet":5,"tasty":4,"cheap":5,"music":5,"url":"https://www.facebook.com/mercycafe.asthedeer/","address":"新竹縣竹北市復興三路二段82號","latitude":"24.80876440","longitude":"121.03541380","limited_time":"no","socket":"yes","standing_desk":"no","mrt":"","open_time":""},{"id":"585a5caf-097f-4d9a-b1be-095ce2860a5c","name":"H cafe","city":"hsinchu","wifi":3,"seat":4,"quiet":5,"tasty":5,"cheap":3,"music":4,"url":"https://www.facebook.com/Hcafe035335350?mibextid=LQQJ4d","address":"新竹市民族路43號1樓","latitude":"24.80630300","longitude":"120.97424900","limited_time":"maybe","socket":"yes","standing_desk":"yes","mrt":"","open_time":""},{"id":"58844abf-cef4-4eac-85d6-4c8457424e6e","name":"152cafe","city":"hsinchu","wifi":3.5,"seat":4,"quiet":4,"tasty":5,"cheap":5,"music":4,"url":"https://www.facebook.com/lisa.152cafe/?fref=ts","address":"新竹市東區埔頂路17號","latitude":"24.79324000","longitude":"121.00747800","limited_time":"no","socket":"no","standing_desk":"yes","mrt":"","open_time":""},{"id":"59010828-9322-43d3-b877-c71c59575595","name":"三角咖啡館 Café Triangle","city":"hsinchu","wifi":5,"seat":4,"quiet":2,"tasty":4,"cheap":3,"music":3,"url":"","address":"新竹縣竹北市莊敬北路286號","latitude":"24.82947400","longitude":"121.02648530","limited_time":"maybe","socket":"yes","standing_desk":"no","mrt":"","open_time":""},{"id":"5956a750-7725-4697-81d1-2a4ba7e6c296","name":"歐爹 全日早午餐 簡餐","city":"hsinchu","wifi":0,"seat":0,"quiet":0,"tasty":0,"cheap":0,"music":0,"url":"https://www.facebook.com/adlmeals/","address":"300新竹市北區中華路三段88號","latitude":"24.79694630","longitude":"120.96125500","limited_time":"no","socket":"no","standing_desk":"yes","mrt":"","open_time":"24小時營業"},{"id":"5ad62caa-0cf1-4ff4-bb78-1569f99035c3","name":"Coffee SHOT 珈琲夏特","city":"hsinchu","wifi":0,"seat":4,"quiet":4,"tasty":4,"cheap":4,"music":4,"url":"https://www.facebook.com/Coffee-SHOT-%E7%8F%88%E7%90%B2%E5%A4%8F%E7%89%B9-131973000635960/","address":"新竹市中正路67巷內 / 東門市場1樓1049室 (影像博物館旁巷內)","latitude":"24.80469200","longitude":"120.96890300","limited_time":"no","socket":"no","standing_desk":"yes","mrt":"","open_time":""},{"id":"5b06cde0-5ad7-43dc-9f3a-3a269e8246d2","name":"百分之二咖啡 （2/100 Café）","city":"hsinchu","wifi":4,"seat":3,"quiet":4,"tasty":3,"cheap":3,"music":4,"url":"https://www.facebook.com/2.100Cafe/","address":" 北區石坊街14號","latitude":"24.80312560","longitude":"120.96431140","limited_time":"","socket":"","standing_desk":"","mrt":"","open_time":""},{"id":"5caa87c7-61a2-418f-ad85-da4b5a24523a","name":"Bisou Bisou Pâtisserie café","city":"hsinchu","wifi":4,"seat":3,"quiet":3,"tasty":4,"cheap":3,"music":4,"url":"https://www.facebook.com/BISOUBISOU018/","address":"新竹縣竹北市嘉豐五路二段18號","latitude":"24.81076860","longitude":"121.02689820","limited_time":"","socket":"","standing_desk":"","mrt":"","open_time":""},{"id":"5cd42620-7259-4551-a808-0c602a94f5aa","name":"一想一響ReEcho Coffee ","city":"hsinchu","wifi":5,"seat":4.5,"quiet":4,"tasty":5,"cheap":3.5,"music":5,"url":"https://www.facebook.com/reecho.coffee/","address":"300新竹市東區民生路58巷8號","latitude":"24.80851300","longitude":"120.97905430","limited_time":"no","socket":"yes","standing_desk":"no","mrt":"","open_time":""},{"id":"5dd20a54-8f53-472c-9583-49c4fce9f07a","name":"藍豆咖啡","city":"hsinchu","wifi":5,"seat":4,"quiet":5,"tasty":4,"cheap":3,"music":5,"url":"https://www.facebook.com/bluebeanscafe/","address":"新竹縣竹北市文興路205號","latitude":"24.81562610","longitude":"121.01930810","limited_time":"no","socket":"no","standing_desk":"yes","mrt":"","open_time":""},{"id":"5edec626-ebe6-4f1c-9ffd-b1def0bd3cca","name":"萃萃咖啡TsuiCafe","city":"hsinchu","wifi":5,"seat":5,"quiet":5,"tasty":4,"cheap":4,"music":5,"url":"https://www.facebook.com/TsuiCafe2020/","address":"313新竹縣尖石鄉三鄰151號","latitude":"24.57606670","longitude":"121.30840880","limited_time":"no","socket":"maybe","standing_desk":"yes","mrt":"","open_time":""},{"id":"60ebaafb-af51-49e1-87ef-e78e904e799a","name":"HILA FOOLS 咖啡外帶吧","city":"hsinchu","wifi":0,"seat":0,"quiet":0,"tasty":0,"cheap":0,"music":0,"url":"","address":"300新竹市東區光復路一段89巷95號","latitude":"24.77928100","longitude":"121.02493700","limited_time":"","socket":"","standing_desk":"","mrt":"","open_time":""},{"id":"61674645-ed9a-4e4b-900d-1dc30a5a9252","name":"三島sum:dao","city":"hsinchu","wifi":5,"seat":4,"quiet":4,"tasty":4,"cheap":4,"music":4.5,"url":"https://instagram.com/sum_dao?utm_medium=copy_link","address":"302新竹縣竹北市科大一路185號","latitude":"99.99999999","longitude":"24.82052160","limited_time":"maybe","socket":"maybe","standing_desk":"no","mrt":"","open_time":""},{"id":"617f6ae4-a1b2-4fd7-8fef-1ed80316d62b","name":"飛行樹屋咖啡","city":"hsinchu","wifi":4,"seat":4,"quiet":4,"tasty":5,"cheap":5,"music":5,"url":"www.flytreehouse.com","address":"新竹市東區光復路二段18巷17號","latitude":"24.79230630","longitude":"121.00455130","limited_time":"maybe","socket":"yes","standing_desk":"no","mrt":"","open_time":""},{"id":"61b254e6-13cb-4143-a957-d708865bca8b","name":"Choccy Metal Cafe' 敲敲金工","city":"hsinchu","wifi":5,"seat":5,"quiet":5,"tasty":5,"cheap":5,"music":5,"url":"https://www.facebook.com/choccymetal/","address":"新竹市大同路140號","latitude":"24.80633610","longitude":"120.96766600","limited_time":"","socket":"yes","standing_desk":"no","mrt":"","open_time":""},{"id":"62997e0d-a462-45cf-8335-dd65e1d2bf32","name":"fikarast coffee啡卡瑞斯 北歐咖啡館","city":"hsinchu","wifi":4.5,"seat":5,"quiet":4.5,"tasty":4,"cheap":3,"music":4,"url":"http://www.fikarast.com.tw","address":"新竹市北大路166巷1弄5號1F","latitude":"24.80985150","longitude":"120.96705730","limited_time":"no","socket":"maybe","standing_desk":"yes","mrt":"","open_time":"原地址已經變成另外一間咖啡店.......臉書上的地址也找不到"},{"id":"630d1a48-f514-4d9f-8403-d009022fed33","name":"三角咖啡館 貳店 Café Triangle 2","city":"hsinchu","wifi":0,"seat":0,"quiet":0,"tasty":0,"cheap":0,"music":0,"url":"","address":"新竹縣竹北市嘉豐南路二段11號1樓","latitude":"24.80789380","longitude":"121.03260540","limited_time":"","socket":"","standing_desk":"","mrt":"","open_time":""},{"id":"6353e7ab-9838-442b-b734-60a68bfe5512","name":"九慕手烘咖啡 Mooor coffee","city":"hsinchu","wifi":4,"seat":4,"quiet":3,"tasty":4,"cheap":4,"music":4.5,"url":"https://www.facebook.com/mooorcoffee/","address":"東區中正路60號","latitude":"24.80523900","longitude":"120.96979600","limited_time":"no","socket":"yes","standing_desk":"no","mrt":"","open_time":""},{"id":"637fc6b0-2433-4f9f-8a19-d3bfca68b0ce","name":"BEANSTORE COFFEE 好豆咖啡","city":"hsinchu","wifi":5,"seat":5,"quiet":5,"tasty":5,"cheap":3,"music":5,"url":"http://www.beanstore.com.tw/","address":"新竹市北區林森路279號","latitude":"24.79761100","longitude":"120.96205410","limited_time":"no","socket":"maybe","standing_desk":"yes","mrt":"","open_time":"10:00~22:00"},{"id":"65aa47e0-b1ea-4918-9356-1e5c307eda2d","name":"城咖URBAN TRIBE","city":"hsinchu","wifi":5,"seat":5,"quiet":5,"tasty":5,"cheap":5,"music":5,"url":"https://www.facebook.com/urbantribetw/","address":"新竹市北區武陵路22號號 1 樓","latitude":"24.81588730","longitude":"120.96306630","limited_time":"no","socket":"maybe","standing_desk":"yes","mrt":"","open_time":""},{"id":"65d1a672-b23c-47e9-9dc9-52b965cc41b8","name":"咖啡木","city":"hsinchu","wifi":4,"seat":4,"quiet":4,"tasty":3,"cheap":3,"music":3,"url":"https://zh-tw.facebook.com/CoffeeWood%E5%92%96%E5%95%A1%E6%9C%A8-1544539172479717/?ref=page_internal","address":"300新竹市東區三民路148號","latitude":"24.81009910","longitude":"120.97924640","limited_time":"","socket":"maybe","standing_desk":"no","mrt":"","open_time":""},{"id":"65f48c66-6b84-4ae3-aed2-adf34a6732d3","name":"Deer Nana cafe","city":"hsinchu","wifi":5,"seat":5,"quiet":4,"tasty":5,"cheap":4,"music":4,"url":"https://www.facebook.com/pg/Deernanacafe/about/?ref=page_internal","address":"304新竹縣新豐鄉崁頭5鄰81-6號","latitude":"24.90876920","longitude":"121.01056770","limited_time":"maybe","socket":"maybe","standing_desk":"no","mrt":"","open_time":"假日限時3小時"},{"id":"67a3ccb4-8f78-4667-b7a7-0831393e2e16","name":"咖喀角甜點","city":"hsinchu","wifi":5,"seat":5,"quiet":4,"tasty":4,"cheap":4,"music":4,"url":"","address":"304新竹縣新豐鄉坪頂三街88號","latitude":"24.86538330","longitude":"120.98548110","limited_time":"","socket":"","standing_desk":"","mrt":"","open_time":""},{"id":"67b2c27e-6b9d-41ca-9d70-0621f15c7b69","name":"怡客咖啡 新竹光復店","city":"hsinchu","wifi":3,"seat":4.5,"quiet":2,"tasty":3.5,"cheap":4,"music":3,"url":"http://www.ikari.com.tw","address":"新竹市光復路二段738號1樓","latitude":"24.80050240","longitude":"120.98890580","limited_time":"no","socket":"maybe","standing_desk":"no","mrt":"","open_time":"7:00~21:00"},{"id":"685678e2-b6b4-4891-bccc-758f50fa1329","name":"墨咖啡","city":"hsinchu","wifi":4,"seat":4,"quiet":3.5,"tasty":5,"cheap":3,"music":4,"url":"https://www.facebook.com/inkcoffee99/","address":"新竹市東區林森路180號","latitude":"24.79915600","longitude":"120.96433550","limited_time":"no","socket":"maybe","standing_desk":"no","mrt":"","open_time":""},{"id":"68cb26bc-c2eb-411d-a0ae-334ad63c9f33","name":"23 Coffee Roasters","city":"hsinchu","wifi":5,"seat":4,"quiet":5,"tasty":5,"cheap":4,"music":5,"url":"https://www.facebook.com/23cafe23/","address":"新竹市北區西門街152號","latitude":"24.80121300","longitude":"120.96260900","limited_time":"no","socket":"yes","standing_desk":"yes","mrt":"","open_time":""},{"id":"69160df8-f490-48c8-a048-12a3b659c602","name":"Coffee onwer","city":"hsinchu","wifi":5,"seat":3.5,"quiet":4.5,"tasty":5,"cheap":3.5,"music":4.5,"url":"","address":"新竹縣竹北市福興東路二段109號","latitude":"24.81462900","longitude":"121.02868280","limited_time":"no","socket":"yes","standing_desk":"yes","mrt":"","open_time":""},{"id":"6972dc77-48b2-48e6-be71-93fd6fc9e40c","name":"Funk Sugar 放ㄎ糖","city":"hsinchu","wifi":5,"seat":5,"quiet":3,"tasty":3,"cheap":5,"music":5,"url":"https://www.facebook.com/funksugar1983/","address":"310新竹縣竹東鎮北興路二段81巷2號","latitude":"24.73928940","longitude":"121.09264610","limited_time":"no","socket":"yes","standing_desk":"yes","mrt":"","open_time":""},{"id":"69c21b4b-4dc9-4637-afc1-809c0467c04e","name":"達利自家烘焙精品咖啡館","city":"hsinchu","wifi":4,"seat":4,"quiet":3.5,"tasty":4,"cheap":3,"music":3,"url":"https://www.facebook.com/DALI.Specialty.Cafe/","address":"竹北市建國街37號","latitude":"24.83242820","longitude":"121.01235380","limited_time":"","socket":"","standing_desk":"","mrt":"","open_time":""},{"id":"6aeca9d4-8792-4deb-b71b-55276b7b7883","name":"家族咖啡café de famille","city":"hsinchu","wifi":4,"seat":4,"quiet":4,"tasty":5,"cheap":3,"music":3,"url":"https://www.facebook.com/cafedefamillekazoku/","address":"新竹縣竹北市嘉興路456號","latitude":"24.82361550","longitude":"121.03393460","limited_time":"no","socket":"maybe","standing_desk":"","mrt":"","open_time":""},{"id":"6b49cf20-bda0-4d7f-92be-71cc285fba17","name":"J.eat caf'e","city":"hsinchu","wifi":5,"seat":4,"quiet":4,"tasty":4,"cheap":5,"music":5,"url":"https://www.facebook.com/j.eat.cafe/","address":"新竹縣竹北市成功8路285號","latitude":"24.81616800","longitude":"121.02203940","limited_time":"","socket":"","standing_desk":"","mrt":"","open_time":""},{"id":"706ac44c-bfb1-4e44-bfbc-e658740133c3","name":"This Cafe","city":"hsinchu","wifi":0,"seat":0,"quiet":0,"tasty":0,"cheap":0,"music":0,"url":"","address":"新竹縣竹東鎮三民街61號","latitude":"24.73990730","longitude":"121.08797630","limited_time":"maybe","socket":"maybe","standing_desk":"no","mrt":"","open_time":""},{"id":"71ebabe1-0725-40f1-ab94-262c5f3b1b5d","name":"馥 Fu Cafe","city":"hsinchu","wifi":0,"seat":0,"quiet":0,"tasty":0,"cheap":0,"music":0,"url":"https://www.facebook.com/fucafes/","address":"新竹縣竹北市十興三街75號","latitude":"24.82396900","longitude":"121.03421200","limited_time":"maybe","socket":"maybe","standing_desk":"yes","mrt":"","open_time":""},{"id":"750d1d9c-1775-4528-bdc6-b34a7816b622","name":"招財咖啡","city":"hsinchu","wifi":3,"seat":4,"quiet":4,"tasty":3,"cheap":3,"music":4,"url":"https://www.facebook.com/successcafe21","address":"300新竹市北區英明街6-1號","latitude":"24.80692430","longitude":"120.96746850","limited_time":"maybe","socket":"maybe","standing_desk":"no","mrt":"","open_time":""},{"id":"7926daa6-565e-47d0-9f25-79c553eab598","name":"拾穗咖啡","city":"hsinchu","wifi":5,"seat":5,"quiet":5,"tasty":5,"cheap":5,"music":5,"url":"https://www.facebook.com/GleanerCoffee/","address":"新竹市東區長春街105巷1號","latitude":"24.78722840","longitude":"121.01545270","limited_time":"no","socket":"yes","standing_desk":"yes","mrt":"","open_time":""},{"id":"7964bd2c-88f1-4cc4-8a20-0ec58a0cf66d","name":"李克承博士故居 a-moom","city":"hsinchu","wifi":4,"seat":4,"quiet":4,"tasty":5,"cheap":3,"music":5,"url":"","address":"300新竹市東區勝利路199號","latitude":"24.80127040","longitude":"120.96412040","limited_time":"","socket":"","standing_desk":"","mrt":"","open_time":""},{"id":"7b3217ac-b92d-4654-b649-723cbed3c25a","name":"月之耀咖啡","city":"hsinchu","wifi":0,"seat":4,"quiet":4,"tasty":4,"cheap":3,"music":2,"url":"https://www.facebook.com/yesyoucafe/","address":"30056新竹市北區新竹市延平路1段161巷24號","latitude":"24.80296510","longitude":"120.96169200","limited_time":"no","socket":"","standing_desk":"yes","mrt":"","open_time":""},{"id":"7c4b4459-f867-436b-bb89-126fa63dd5a5","name":"GB5 用心的咖啡","city":"hsinchu","wifi":5,"seat":4,"quiet":4.5,"tasty":5,"cheap":3.5,"music":4.5,"url":"https://www.facebook.com/GB5-%E7%94%A8%E5%BF%83%E7%9A%84%E5%92%96%E5%95%A1-104962639583557/","address":"新竹市東區興學街96號","latitude":"24.79752330","longitude":"120.96610480","limited_time":"no","socket":"no","standing_desk":"no","mrt":"","open_time":"週二至週六12PM-9PM；週日12PM-6PM；週一公休"},{"id":"7d8c423d-9c8e-4bf5-b0aa-54d4a5d8f8a9","name":"小南瓜咖啡館 Little Pumpkin Cafe","city":"hsinchu","wifi":5,"seat":5,"quiet":5,"tasty":4,"cheap":4,"music":4,"url":"https://www.facebook.com/littlepumpkincafe/","address":"302054新竹縣竹北市六家五路一段207號","latitude":"24.80839570","longitude":"121.02810670","limited_time":"no","socket":"maybe","standing_desk":"no","mrt":"","open_time":"一個月只開幾天看官網公告"},{"id":"7f397bb6-b61c-45da-b08c-9d4d154df97a","name":"逆勢咖啡","city":"hsinchu","wifi":0,"seat":0,"quiet":0,"tasty":5,"cheap":5,"music":0,"url":"","address":"新竹市國華街61號","latitude":"24.81596190","longitude":"120.97060790","limited_time":"no","socket":"no","standing_desk":"no","mrt":"","open_time":""},{"id":"810a0a7a-a0fc-4889-886a-5640050cbec5","name":"二十四分之一早午餐 手作麵包","city":"hsinchu","wifi":5,"seat":2,"quiet":3,"tasty":4,"cheap":3,"music":4,"url":"","address":"302新竹縣竹北市文興路51號","latitude":"24.81753000","longitude":"121.01572630","limited_time":"","socket":"","standing_desk":"","mrt":"","open_time":""},{"id":"8193cc54-6022-4624-ac8d-d2bf75770396","name":"花神咖啡","city":"hsinchu","wifi":5,"seat":5,"quiet":4,"tasty":5,"cheap":5,"music":4,"url":"https://cafedeflore95.mymy.tw/","address":"新竹市東區東門街95號","latitude":"24.80403830","longitude":"120.96948830","limited_time":"maybe","socket":"maybe","standing_desk":"no","mrt":"","open_time":"10:00~19:00，週二公休"},{"id":"836cf978-1b67-4648-b1e8-ede05a11b122","name":"Titta Cafe提塔咖啡","city":"hsinchu","wifi":5,"seat":5,"quiet":5,"tasty":4,"cheap":3,"music":4,"url":"","address":"300新竹市東區民族路158-3號","latitude":"24.80872280","longitude":"120.97875470","limited_time":"no","socket":"yes","standing_desk":"yes","mrt":"","open_time":""},{"id":"83d2cfea-b484-4474-bf08-5e90d6412c47","name":"UEUE 鬱鬱","city":"hsinchu","wifi":5,"seat":5,"quiet":5,"tasty":4,"cheap":4,"music":5,"url":"","address":"新竹市東區民權路96巷8號","latitude":"24.80773070","longitude":"120.97583810","limited_time":"no","socket":"maybe","standing_desk":"","mrt":"","open_time":""},{"id":"86dad326-f9fe-462a-9584-b209e670074a","name":"Coffee Owner","city":"hsinchu","wifi":5,"seat":5,"quiet":4,"tasty":5,"cheap":4,"music":5,"url":"https://www.facebook.com/CoffeeOwner109/","address":"新竹縣竹北市福興東路二段109號1樓","latitude":"24.81766150","longitude":"121.02556040","limited_time":"no","socket":"yes","standing_desk":"yes","mrt":"","open_time":""},{"id":"8728ef04-ed63-4116-acc1-bcd1f15e4732","name":"波斯卡德列日鬆餅","city":"hsinchu","wifi":0,"seat":0,"quiet":0,"tasty":0,"cheap":0,"music":0,"url":"https://www.facebook.com/postcardofrick/","address":"新竹縣竹北市光明九路197號","latitude":"24.82646240","longitude":"121.00746910","limited_time":"","socket":"","standing_desk":"","mrt":"","open_time":""},{"id":"8754a32d-27cf-43b4-b0d0-e36c850f719f","name":"Redness coffee","city":"hsinchu","wifi":5,"seat":5,"quiet":5,"tasty":5,"cheap":4,"music":4,"url":"https://www.facebook.com/rednesscoffee/","address":"新竹市金山12街11號","latitude":"24.77727610","longitude":"121.02234500","limited_time":"maybe","socket":"maybe","standing_desk":"yes","mrt":"","open_time":""},{"id":"89ac2ed7-1707-4c45-80ff-11a48900b9be","name":"Leonana 黎歐娜娜藝廊咖啡","city":"hsinchu","wifi":4,"seat":4,"quiet":4,"tasty":4.5,"cheap":3.5,"music":4,"url":"https://www.facebook.com/leonana.cafe/","address":"新竹縣竹北市光明六路東二段212號","latitude":"24.81455340","longitude":"121.03263240","limited_time":"no","socket":"maybe","standing_desk":"","mrt":"","open_time":""},{"id":"8b28834c-04d7-4108-a861-85c4c8075b57","name":"沒有名字的甜點專賣Noname Dessert","city":"hsinchu","wifi":0,"seat":0,"quiet":0,"tasty":0,"cheap":0,"music":0,"url":"","address":"新竹市香山區中華路六段331巷335號","latitude":"24.74065100","longitude":"120.91000700","limited_time":"","socket":"","standing_desk":"","mrt":"","open_time":""},{"id":"8cc4cfa3-bbe9-453f-8cb8-230521ad079f","name":"Luna Coffee Roaster","city":"hsinchu","wifi":4,"seat":5,"quiet":4,"tasty":4,"cheap":3,"music":4,"url":"https://instagram.com/lunacoffeeroastertw?igshid=YmMyMTA2M2Y=","address":"300新竹市北區興南街59號一樓","latitude":"24.80229510","longitude":"120.96247920","limited_time":"maybe","socket":"maybe","standing_desk":"no","mrt":"","open_time":""},{"id":"8e240d82-4321-4823-8a77-486a2b794701","name":"好日。新竹","city":"hsinchu","wifi":4,"seat":3,"quiet":3,"tasty":3,"cheap":2,"music":3,"url":"https://www.facebook.com/GoodDay0903/","address":" 300新竹市三民路12號","latitude":"24.80724300","longitude":"120.97337850","limited_time":"maybe","socket":"no","standing_desk":"no","mrt":"","open_time":""},{"id":"8e404d97-0695-4c53-a4f4-d49a95baa846","name":"日常咖啡 Le café quotidien","city":"hsinchu","wifi":5,"seat":5,"quiet":4,"tasty":4,"cheap":4,"music":4,"url":"https://www.facebook.com/pg/lecafequotidien/about/?ref=page_internal","address":"新竹市學府路61巷5-1號1樓","latitude":"24.79505350","longitude":"120.97794420","limited_time":"no","socket":"yes","standing_desk":"yes","mrt":"","open_time":"10:30-19:30"},{"id":"8f66d080-d07c-4f4b-abc4-2d1db7b511dd","name":"Tiny House 小房子咖啡","city":"hsinchu","wifi":5,"seat":5,"quiet":5,"tasty":4,"cheap":5,"music":5,"url":"https://www.facebook.com/tinyhousedessert/?locale2=zh_TW","address":"新竹市光復路1段163巷15號","latitude":"24.78117910","longitude":"121.02233000","limited_time":"maybe","socket":"maybe","standing_desk":"yes","mrt":"","open_time":""},{"id":"8fd8fec8-449e-433c-9f87-dd5992ab814f","name":"POLO CAFE","city":"hsinchu","wifi":0,"seat":0,"quiet":0,"tasty":0,"cheap":0,"music":0,"url":"","address":"新竹縣竹北市環北路一段105號","latitude":"24.83824440","longitude":"121.02086660","limited_time":"","socket":"","standing_desk":"","mrt":"","open_time":""},{"id":"90ccd44b-d202-4cd8-ba52-47402d542e1e","name":"Fumi手作烘焙Cafe","city":"hsinchu","wifi":4,"seat":5,"quiet":4.5,"tasty":4,"cheap":3.5,"music":4.5,"url":"https://www.facebook.com/fumicafe035586631/","address":"新竹縣竹北市文義街245號","latitude":"24.83118880","longitude":"121.01339700","limited_time":"no","socket":"maybe","standing_desk":"","mrt":"","open_time":"11:00-20:00"},{"id":"9277e330-b234-452c-96cf-06f98a71be24","name":"野人山丘","city":"hsinchu","wifi":0,"seat":5,"quiet":4,"tasty":5,"cheap":0,"music":0,"url":"","address":"新竹縣橫山鄉內灣村內灣38-2號","latitude":"24.70554230","longitude":"121.18380910","limited_time":"no","socket":"maybe","standing_desk":"","mrt":"","open_time":""},{"id":"92a4c05e-740d-4e59-a3f4-316a19d6e0d9","name":"Migration 遷徙 l 咖啡&民宿","city":"hsinchu","wifi":0,"seat":0,"quiet":4,"tasty":5,"cheap":4,"music":4,"url":"https://www.facebook.com/migrationbb2015/","address":"橫山鄉內灣村和平街18號","latitude":"24.70694700","longitude":"121.18024310","limited_time":"","socket":"","standing_desk":"","mrt":"","open_time":""},{"id":"93251f3d-dbcc-46e4-914f-dc177bf28020","name":"RD Cafe","city":"hsinchu","wifi":4,"seat":5,"quiet":3,"tasty":5,"cheap":5,"music":3,"url":"https://www.facebook.com/rdcafe2015/","address":"台灣新竹市東區光復路二段221號","latitude":"24.79948130","longitude":"120.99123080","limited_time":"","socket":"","standing_desk":"","mrt":"","open_time":""},{"id":"93738233-ab2f-48e2-a0ce-2c0d3a245e64","name":"豆居咖啡","city":"hsinchu","wifi":0,"seat":4,"quiet":4,"tasty":5,"cheap":4,"music":4,"url":"","address":"新竹市新莊街141號","latitude":"24.78743700","longitude":"121.01705300","limited_time":"","socket":"","standing_desk":"","mrt":"","open_time":""},{"id":"939f7682-5994-4b2d-9127-0590993b6ffa","name":"ARVO AVO","city":"hsinchu","wifi":0,"seat":0,"quiet":0,"tasty":0,"cheap":0,"music":0,"url":"","address":"300新竹市東區金山六街8巷8號","latitude":"24.77735290","longitude":"121.01934370","limited_time":"","socket":"","standing_desk":"","mrt":"","open_time":""},{"id":"951992c6-3104-4cbc-a0d2-e83db932066b","name":"小丹咖啡","city":"hsinchu","wifi":0,"seat":0,"quiet":0,"tasty":0,"cheap":0,"music":0,"url":"","address":"北區鐵道路二段95號","latitude":"24.81708210","longitude":"120.97825970","limited_time":"","socket":"","standing_desk":"","mrt":"","open_time":""},{"id":"96654e38-33ba-444c-94fd-bd8f9650749e","name":"樂樂長咖啡","city":"hsinchu","wifi":5,"seat":5,"quiet":5,"tasty":4,"cheap":5,"music":5,"url":"www.facebook.com/everejoice.CAFE/","address":"芎林鄉下山村七鄰82-2號","latitude":"24.81189640","longitude":"121.05447920","limited_time":"","socket":"maybe","standing_desk":"no","mrt":"","open_time":""},{"id":"967b0ccf-275c-4879-b520-d345bc118ae0","name":"暗室微光","city":"hsinchu","wifi":4,"seat":3,"quiet":3,"tasty":4,"cheap":3.5,"music":4,"url":"https://www.facebook.com/%E6%9A%97%E5%AE%A4%E5%BE%AE%E5%85%89-1635926836645979/","address":"新竹市東區勝利路97號","latitude":"24.80025000","longitude":"120.96686800","limited_time":"no","socket":"maybe","standing_desk":"no","mrt":"","open_time":""},{"id":"995960fc-6b94-4fca-b649-033177698dbd","name":"竹科車庫餐廳","city":"hsinchu","wifi":5,"seat":3,"quiet":3,"tasty":5,"cheap":4,"music":5,"url":"https://m.facebook.com/%E7%AB%B9%E7%A7%91%E8%BB%8A%E5%BA%AB%E9%A4%90%E5%BB%B3-1611168985820398/?ref=page_internal&mt_nav=1","address":"新竹市東區新安路2-2號","latitude":"24.78165870","longitude":"121.00590700","limited_time":"","socket":"maybe","standing_desk":"no","mrt":"","open_time":""},{"id":"9a266bb5-9798-4990-aba0-9a337a3e604d","name":"米日客","city":"hsinchu","wifi":5,"seat":5,"quiet":5,"tasty":4.5,"cheap":5,"music":5,"url":"","address":"新竹市北區北大路166巷1弄6","latitude":"24.80998150","longitude":"120.96716180","limited_time":"","socket":"","standing_desk":"","mrt":"","open_time":""},{"id":"9e323d5d-2c86-4adc-8fe1-ea16c1103d14","name":"Jin Coffee","city":"hsinchu","wifi":5,"seat":5,"quiet":5,"tasty":5,"cheap":5,"music":5,"url":"https://zh-tw.facebook.com/JinCoffee0201/","address":"302新竹縣竹北市文采街133號","latitude":"24.83394580","longitude":"121.01863180","limited_time":"no","socket":"maybe","standing_desk":"no","mrt":"","open_time":""},{"id":"9f396814-f26a-4558-9f58-b85f3a11eae1","name":"新銳咖啡竹北縣政店(若木深夜咖啡廳)","city":"hsinchu","wifi":5,"seat":5,"quiet":4,"tasty":4,"cheap":5,"music":5,"url":"https://www.facebook.com/新銳咖啡竹北縣政店-332894730613367/","address":"302新竹縣竹北市縣政二路70號","latitude":"24.82350700","longitude":"121.01460750","limited_time":"no","socket":"maybe","standing_desk":"no","mrt":"","open_time":""},{"id":"9f5fcb65-42b9-46ac-a87a-8e07ebf8389d","name":"那顆桔子 l 瓏之陶咖啡","city":"hsinchu","wifi":5,"seat":5,"quiet":4,"tasty":4,"cheap":4,"music":4,"url":"","address":"300新竹市北區中山路40巷26號","latitude":"24.80692970","longitude":"120.96671690","limited_time":"maybe","socket":"maybe","standing_desk":"yes","mrt":"","open_time":""},{"id":"9f6442a5-f90e-4749-8443-9bd257dfc981","name":"房角石","city":"hsinchu","wifi":5,"seat":5,"quiet":4,"tasty":4,"cheap":5,"music":5,"url":"https://www.facebook.com/GuDao01/","address":"新竹縣竹北市文孝街53號","latitude":"24.83255590","longitude":"121.01952690","limited_time":"","socket":"no","standing_desk":"","mrt":"","open_time":""},{"id":"a1532235-9ec1-4c29-82bb-b49e08726b99","name":"inBush","city":"hsinchu","wifi":5,"seat":4.5,"quiet":4,"tasty":4.5,"cheap":3,"music":4.5,"url":"","address":"300新竹市東區長春街60號","latitude":"24.78596370","longitude":"121.01490050","limited_time":"no","socket":"maybe","standing_desk":"no","mrt":"","open_time":"10am-5:30pm cafe, 6pm-1am bar"},{"id":"a1a39ed4-ff36-4790-a0f2-18a1709211db","name":"MANO MANO","city":"hsinchu","wifi":4,"seat":4,"quiet":4,"tasty":4,"cheap":4,"music":5,"url":"","address":"300新竹市東區長春街77號","latitude":"24.78657510","longitude":"121.01503110","limited_time":"","socket":"","standing_desk":"","mrt":"","open_time":""},{"id":"a2602339-53ec-459c-a742-0c513d080661","name":"愛吃魚的狗","city":"hsinchu","wifi":4,"seat":5,"quiet":5,"tasty":4,"cheap":0,"music":5,"url":"https://www.facebook.com/DogLoveFish/","address":"竹北市東海一街95巷48號","latitude":"24.81009500","longitude":"121.04695610","limited_time":"maybe","socket":"maybe","standing_desk":"yes","mrt":"","open_time":""},{"id":"a28f3128-5ebb-4587-8bbb-d027dee6920a","name":"Kiwi to go","city":"hsinchu","wifi":0,"seat":5,"quiet":4,"tasty":4,"cheap":4,"music":4,"url":"","address":"300新竹市東區竹蓮街115號","latitude":"24.79890120","longitude":"120.96951740","limited_time":"no","socket":"no","standing_desk":"yes","mrt":"","open_time":""},{"id":"a35ed585-7aec-481a-b3db-cf15eb83a827","name":"醜小鴨咖啡","city":"hsinchu","wifi":4,"seat":5,"quiet":4,"tasty":4,"cheap":3,"music":1,"url":"https://www.facebook.com/%E9%86%9C%E5%B0%8F%E9%B4%A8%E5%92%96%E5%95%A1%E5%B8%AB%E8%A8%93%E7%B7%B4%E4%B8%AD%E5%BF%83-158397670840017/","address":"新竹縣新埔鎮上樟路一段291巷6號","latitude":"24.83335900","longitude":"121.08209500","limited_time":"","socket":"","standing_desk":"","mrt":"","open_time":""},{"id":"a3b54447-7388-4fe1-8591-a34b063239b5","name":"台灣水鹿咖啡館 Sambar Café","city":"hsinchu","wifi":5,"seat":4.5,"quiet":3.5,"tasty":4.5,"cheap":5,"music":4.5,"url":"https://www.facebook.com/pg/%E5%8F%B0%E7%81%A3%E6%B0%B4%E9%B9%BF%E5%92%96%E5%95%A1%E9%A4%A8-Sambar-Caf%C3%A9-564813097002379/about/?ref=page_internal","address":"新竹市大同路202號","latitude":"24.80779000","longitude":"120.96661300","limited_time":"no","socket":"no","standing_desk":"no","mrt":"","open_time":"11：00~20：00（周日公休）"},{"id":"a53e1c55-383d-4211-8014-03c40d8190de","name":"Jazz Coffee咖啡師推廣中心Barista Education Center","city":"hsinchu","wifi":5,"seat":5,"quiet":5,"tasty":5,"cheap":4,"music":4,"url":"https://www.facebook.com/JAZZDINER/","address":"新竹縣竹北市嘉豐五路一段179號","latitude":"24.81297100","longitude":"121.02929500","limited_time":"","socket":"","standing_desk":"","mrt":"","open_time":""},{"id":"a6981139-139c-48ed-ba68-c1cd0a858bef","name":"安奕咖啡","city":"hsinchu","wifi":5,"seat":5,"quiet":5,"tasty":5,"cheap":5,"music":5,"url":"","address":"新竹縣竹北市六家五路一段339號","latitude":"24.80673260","longitude":"121.03080520","limited_time":"no","socket":"no","standing_desk":"no","mrt":"","open_time":""},{"id":"a6ee8554-d177-4bb7-8eaa-bb35333e6923","name":"Cama-巨城店","city":"hsinchu","wifi":0,"seat":4,"quiet":3,"tasty":4,"cheap":3,"music":3,"url":"","address":"新竹市東區民生路129號1樓","latitude":"24.81036010","longitude":"120.97677310","limited_time":"","socket":"","standing_desk":"","mrt":"","open_time":""},{"id":"a71b1536-336e-4bbf-ba56-08fd9a245fd4","name":"一百種味道","city":"hsinchu","wifi":5,"seat":2,"quiet":2,"tasty":3,"cheap":3,"music":4,"url":"https://www.facebook.com/100tastes/","address":" 300新竹市北區石坊街36-3號","latitude":"24.80259580","longitude":"120.96397100","limited_time":"maybe","socket":"maybe","standing_desk":"","mrt":"","open_time":"11:00 - 21:00"},{"id":"a8343e56-3916-4d77-8d03-243f6a195b73","name":"凸鼻子現烘咖啡坊","city":"hsinchu","wifi":4.5,"seat":5,"quiet":4,"tasty":5,"cheap":4,"music":4,"url":"https://www.facebook.com/bignosecafe/?fref=ts","address":"台灣新竹市東區中華路二段211號","latitude":"24.80520160","longitude":"120.97737100","limited_time":"no","socket":"maybe","standing_desk":"yes","mrt":"","open_time":""},{"id":"a923a74c-89a9-4ee8-bb49-f51f8da9759d","name":"FOX.CONE coffee & bakes","city":"hsinchu","wifi":4,"seat":4,"quiet":4,"tasty":4,"cheap":5,"music":4,"url":"https://www.facebook.com/foxdotcone","address":"新竹市東區南門街12號","latitude":"24.80035090","longitude":"120.96787570","limited_time":"no","socket":"","standing_desk":"","mrt":"","open_time":""},{"id":"a9c8c631-446f-4a80-b9b0-46b57fac4f33","name":"卡比咖啡Catbii","city":"hsinchu","wifi":0,"seat":0,"quiet":0,"tasty":0,"cheap":0,"music":0,"url":"","address":"300新竹市東區東大路一段232巷6-2號","latitude":"24.81047910","longitude":"120.97097400","limited_time":"","socket":"","standing_desk":"","mrt":"","open_time":""},{"id":"aaa75638-b619-42b1-90d3-9c7d5306bb9a","name":"菡萏咖啡","city":"hsinchu","wifi":5,"seat":4,"quiet":3,"tasty":5,"cheap":5,"music":4,"url":"https://www.facebook.com/菡萏咖啡-46967157198","address":"新竹市東區花園街67號","latitude":"24.80367660","longitude":"120.97697710","limited_time":"no","socket":"maybe","standing_desk":"no","mrt":"","open_time":"14:00 - 22:00 週日公休"},{"id":"ab2075e3-337c-40a1-be32-76ef49cc3338","name":"源典咖啡","city":"hsinchu","wifi":4,"seat":5,"quiet":5,"tasty":3,"cheap":3,"music":3,"url":"https://www.facebook.com/%E6%BA%90%E5%85%B8%E5%92%96%E5%95%A1-419676308237925/","address":"新竹市大同路155號1F","latitude":"24.80681940","longitude":"120.96689800","limited_time":"no","socket":"maybe","standing_desk":"no","mrt":"","open_time":""},{"id":"b0517e6c-b9e2-4109-8446-943b85c21989","name":"蜜糖1990","city":"hsinchu","wifi":4,"seat":3.5,"quiet":3.5,"tasty":2,"cheap":2,"music":2,"url":"https://www.facebook.com/hotsugar1990/","address":"302新竹縣竹北市中華路343號之9號二樓","latitude":"24.80204860","longitude":"120.96607880","limited_time":"no","socket":"maybe","standing_desk":"yes","mrt":"","open_time":""},{"id":"b0733689-8290-4b12-bb2c-2b25ac1f5564","name":"次胃甜點","city":"hsinchu","wifi":4,"seat":3,"quiet":3,"tasty":3,"cheap":3,"music":2.5,"url":"https://www.facebook.com/secondstomachdessert/","address":"300新竹市東區建中路89號","latitude":"24.80283400","longitude":"120.99575500","limited_time":"no","socket":"maybe","standing_desk":"no","mrt":"","open_time":""},{"id":"b0a104d8-985c-4b14-a3e6-5c8eb68c6979","name":"冪 La Miette Cafe","city":"hsinchu","wifi":4,"seat":4,"quiet":3,"tasty":3,"cheap":3,"music":5,"url":"https://www.facebook.com/lamiettecafe/","address":"新竹市經國路二段352號","latitude":"24.80798310","longitude":"120.95786900","limited_time":"no","socket":"yes","standing_desk":"yes","mrt":"","open_time":""},{"id":"b42d6b1b-c3fa-4f4c-a37f-41c140069ad9","name":"Hollatte馥拿鐵 自烘咖啡 竹東店","city":"hsinchu","wifi":5,"seat":4,"quiet":4,"tasty":5,"cheap":5,"music":5,"url":"https://m.facebook.com/hollatte4/?locale2=zh_TW","address":"310新竹縣竹東鎮中興路二段240號","latitude":"24.76186620","longitude":"121.06142330","limited_time":"no","socket":"yes","standing_desk":"yes","mrt":"","open_time":"例假日另行公告於粉絲專頁"},{"id":"b8453ec6-48cc-4b3c-8096-25bc2174d1ac","name":"克蔓莉咖啡館","city":"hsinchu","wifi":4,"seat":3,"quiet":3,"tasty":3,"cheap":4,"music":4,"url":"https://www.facebook.com/k.memory1525/","address":"300新竹市東區林森路2號四樓","latitude":"24.80207500","longitude":"120.97084500","limited_time":"maybe","socket":"maybe","standing_desk":"no","mrt":"","open_time":""},{"id":"b9d6dd1f-b119-48dd-a751-3f1d081e38fb","name":"CAFE!N 硬咖啡 新竹關新店","city":"hsinchu","wifi":5,"seat":5,"quiet":4,"tasty":3,"cheap":3,"music":3,"url":"","address":"300新竹市東區關新二街69號","latitude":"24.78555980","longitude":"121.01810850","limited_time":"","socket":"","standing_desk":"","mrt":"","open_time":""},{"id":"ba2075f3-e749-4547-8e0d-d90863b024d5","name":"Casa Cafe","city":"hsinchu","wifi":5,"seat":5,"quiet":5,"tasty":5,"cheap":5,"music":4,"url":"https://www.facebook.com/Casa-Cafe-364132916954532/","address":"新竹市東區振興路82號","latitude":"24.79512880","longitude":"120.96167580","limited_time":"yes","socket":"no","standing_desk":"no","mrt":"","open_time":""},{"id":"bae727ba-aea7-47e2-a892-bdf8a2f222a9","name":"COFFEE LOVER's PLANET (SOGO新竹Big City館)","city":"hsinchu","wifi":0,"seat":4,"quiet":3,"tasty":5,"cheap":2,"music":4,"url":"https://www.coffee-lovers-planet.com.tw/","address":"新竹市東區中央路239號1樓","latitude":"24.80962490","longitude":"120.97587380","limited_time":"","socket":"no","standing_desk":"","mrt":"","open_time":""},{"id":"bc52f1ad-3d38-4e08-a0b1-77b473579de1","name":" 胖達咖啡Panda Caf'e&Tea","city":"hsinchu","wifi":4,"seat":4,"quiet":3,"tasty":4,"cheap":5,"music":3,"url":"https://www.facebook.com/Panda-CafeTea-%E8%83%96%E9%81%94%E5%92%96%E5%95%A1%E8%8C%B6%E5%B0%88%E8%B3%A3%E5%BA%97-173826559367749/","address":"新竹市東區光復路二段101號水木餐廳二樓","latitude":"24.79231812","longitude":"120.99403024","limited_time":"","socket":"maybe","standing_desk":"no","mrt":"","open_time":""},{"id":"bcb62128-ab39-4913-a2fd-620d82764db0","name":"frontier 13","city":"hsinchu","wifi":5,"seat":5,"quiet":5,"tasty":5,"cheap":4.5,"music":4.5,"url":"https://www.facebook.com/frontier13/?fref=ts","address":"南大路525號","latitude":"24.79147950","longitude":"120.96429410","limited_time":"","socket":"","standing_desk":"","mrt":"","open_time":"1330-2130"},{"id":"bdc0c8db-5633-45a6-bfbf-322f5c40e00c","name":"Hidden off","city":"hsinchu","wifi":3,"seat":4.5,"quiet":4,"tasty":3.5,"cheap":3.5,"music":4.5,"url":"https://m.facebook.com/Hidden-Off-1843364589084833/","address":"300新竹市北區西門街135號","latitude":"24.80107400","longitude":"120.96308990","limited_time":"yes","socket":"no","standing_desk":"no","mrt":"","open_time":"其他公休日會在粉絲頁公告"},{"id":"c0563278-0b3d-495e-ad9a-acb8d91f6491","name":"小稻甜'cafe","city":"hsinchu","wifi":4,"seat":3,"quiet":2,"tasty":3,"cheap":3,"music":3,"url":"https://www.facebook.com/%E5%B0%8F%E7%A8%BB%E7%94%9Ccafe-1759074137656305/","address":"新竹市北區北大路166巷1弄1號","latitude":"24.81006460","longitude":"120.96756800","limited_time":"","socket":"","standing_desk":"","mrt":"","open_time":""},{"id":"c266e207-fff8-450c-9666-178503d0143c","name":"佈拉諾咖啡館","city":"hsinchu","wifi":5,"seat":5,"quiet":5,"tasty":5,"cheap":4,"music":4,"url":"","address":"新竹市東區三民路40號","latitude":"24.80762710","longitude":"120.97400190","limited_time":"no","socket":"maybe","standing_desk":"","mrt":"","open_time":""},{"id":"c2e92077-3b86-426e-818c-cde2bcfe01a9","name":"鹿可咖啡 ","city":"hsinchu","wifi":4.5,"seat":5,"quiet":5,"tasty":4,"cheap":4,"music":4,"url":"https://www.facebook.com/lookcafe/","address":"新竹市南門街96號","latitude":"24.80223910","longitude":"120.96735400","limited_time":"maybe","socket":"maybe","standing_desk":"","mrt":"","open_time":""},{"id":"c558e5c3-6f38-4347-946e-7824558accb2","name":"橘時咖啡新竹關新店","city":"hsinchu","wifi":5,"seat":5,"quiet":4,"tasty":4,"cheap":3,"music":3,"url":"","address":"300新竹市東區關新路45號","latitude":"24.78541710","longitude":"121.01840110","limited_time":"no","socket":"maybe","standing_desk":"yes","mrt":"","open_time":""},{"id":"c5f492bc-e6b9-4c55-89f3-ef84a5ca818c","name":"微生Float Dept.","city":"hsinchu","wifi":5,"seat":3,"quiet":3,"tasty":4,"cheap":4,"music":5,"url":"https://www.facebook.com/Floatdept/","address":"30043新竹市民權路111巷23號","latitude":"24.80733110","longitude":"120.97451600","limited_time":"no","socket":"maybe","standing_desk":"no","mrt":"","open_time":""},{"id":"c8ca9d73-59c9-4e85-8477-3ab390729817","name":"意若思咖啡","city":"hsinchu","wifi":4.5,"seat":4,"quiet":4.5,"tasty":4.5,"cheap":4,"music":4.5,"url":"https://www.facebook.com/pg/erised.coffee","address":"新竹縣竹北市嘉政七街82號","latitude":"24.80530710","longitude":"121.03177800","limited_time":"","socket":"","standing_desk":"","mrt":"","open_time":"9:00-18:00, 週日公休"},{"id":"c958b817-87dd-42dc-8b61-f1356fdc924a","name":"Mr Book Cafe月讀。書咖","city":"hsinchu","wifi":4,"seat":5,"quiet":5,"tasty":5,"cheap":5,"music":5,"url":"https://www.facebook.com/MuMoonReader","address":"新竹市竹北市成功十街105號","latitude":"24.81520500","longitude":"121.02325300","limited_time":"no","socket":"no","standing_desk":"no","mrt":"","open_time":"週二到週日"},{"id":"ca50820d-4a7d-4437-8902-baf4978c38c3","name":"FOXLOVE COFFEE","city":"hsinchu","wifi":5,"seat":5,"quiet":4,"tasty":5,"cheap":4,"music":4,"url":"https://www.facebook.com/profile.php?id=100092210340676","address":"新竹市林森路281號","latitude":"24.79755600","longitude":"120.96215740","limited_time":"no","socket":"maybe","standing_desk":"no","mrt":"","open_time":""},{"id":"cb89a352-d638-44d0-8197-b5e8bf7ce690","name":"最初咖啡","city":"hsinchu","wifi":4,"seat":4,"quiet":3,"tasty":3,"cheap":3,"music":4,"url":"https://www.facebook.com/profile.php?id=100064214495124&mibextid=LQQJ4d","address":"312新竹縣橫山鄉中正路46號","latitude":"24.70597930","longitude":"121.18125210","limited_time":"no","socket":"","standing_desk":"no","mrt":"","open_time":""},{"id":"ccc90eec-d7d2-459c-8c22-f7829623c02b","name":"階段甜點","city":"hsinchu","wifi":4,"seat":3,"quiet":3,"tasty":3,"cheap":3,"music":4,"url":"","address":"新竹市北區長安街89號","latitude":"24.80721020","longitude":"120.96507950","limited_time":"","socket":"","standing_desk":"","mrt":"","open_time":""},{"id":"ce4cc7a3-af3f-497f-96e0-7f5307f1db71","name":"Hollatte馥拿鐵 自烘咖啡 馬階店","city":"hsinchu","wifi":5,"seat":4,"quiet":4,"tasty":5,"cheap":5,"music":5,"url":"https://m.facebook.com/hollatte3/","address":"300新竹市東區忠孝路27巷9號","latitude":"24.80159010","longitude":"120.99009860","limited_time":"no","socket":"maybe","standing_desk":"yes","mrt":"","open_time":"例假日另行公告於粉絲專頁"},{"id":"cecb7299-e95e-4625-9c12-cc06c015c62d","name":"Midori Pastry 綠境甜點工作室","city":"hsinchu","wifi":4,"seat":5,"quiet":4,"tasty":5,"cheap":4,"music":5,"url":"https://www.facebook.com/midoripastry","address":"新竹市中南街45號","latitude":"24.80142202","longitude":"120.96653165","limited_time":"","socket":"","standing_desk":"","mrt":"","open_time":""},{"id":"cf02205c-a730-4261-a84d-d12a7d6abcf2","name":"羅塔仕咖啡","city":"hsinchu","wifi":3.5,"seat":3,"quiet":3,"tasty":3,"cheap":4,"music":3,"url":"https://www.facebook.com/LotusCafeCoffee/","address":"新竹市東區西大路72巷97號","latitude":"24.79791940","longitude":"120.97076680","limited_time":"","socket":"","standing_desk":"","mrt":"","open_time":""},{"id":"cfb4b3ac-054a-427a-b584-3b9288fe3fc2","name":"WIRED CHAYA 茶屋 新竹湳雅店","city":"hsinchu","wifi":0,"seat":0,"quiet":0,"tasty":0,"cheap":0,"music":0,"url":"","address":"300新竹市北區湳雅街91-2號B1","latitude":"24.81942840","longitude":"120.96991910","limited_time":"","socket":"","standing_desk":"","mrt":"","open_time":""},{"id":"d0659595-c6d9-4f24-ba1e-dbe7a3384054","name":"KB kaffe boutique","city":"hsinchu","wifi":5,"seat":5,"quiet":4,"tasty":4,"cheap":3,"music":4,"url":"","address":"300新竹市東區民權路111巷26號","latitude":"24.80759900","longitude":"120.97433000","limited_time":"","socket":"","standing_desk":"","mrt":"","open_time":""},{"id":"d082f8f4-8f8a-4d42-a778-abc9e570437b","name":"十點十分咖啡","city":"hsinchu","wifi":4,"seat":4,"quiet":4,"tasty":4,"cheap":4,"music":4,"url":"https://www.facebook.com/tick1010coffe/","address":"新竹縣關西鎮石光里石岡子76巷3-1號","latitude":"24.81059470","longitude":"121.13657310","limited_time":"","socket":"yes","standing_desk":"no","mrt":"","open_time":""},{"id":"d0c24f86-8c25-4e17-8011-f258cbc4823f","name":"春室 SPRING POOL GLASS STUDIO + The POOL","city":"hsinchu","wifi":0,"seat":0,"quiet":0,"tasty":0,"cheap":0,"music":0,"url":"","address":"300新竹市東區東大路一段2號","latitude":"24.80131340","longitude":"120.97811830","limited_time":"","socket":"","standing_desk":"","mrt":"","open_time":""},{"id":"d1e574b4-2f27-4611-bc0f-9fc97b696ec1","name":"直達咖啡演藝店","city":"hsinchu","wifi":0,"seat":0,"quiet":0,"tasty":0,"cheap":0,"music":0,"url":"","address":"新竹市北區北大路166巷8弄2號1 樓","latitude":"24.81007010","longitude":"120.96772540","limited_time":"","socket":"","standing_desk":"","mrt":"","open_time":""},{"id":"d2658e1b-279d-4c3a-8397-adafd0a05de6","name":"V．cafe 微咖啡 微幸福","city":"hsinchu","wifi":4,"seat":4,"quiet":4,"tasty":3,"cheap":3,"music":5,"url":"https://www.facebook.com/Vcafe.WEhappy?fref=ts","address":"新竹市三民路99號","latitude":"24.80972770","longitude":"120.97793410","limited_time":"","socket":"","standing_desk":"","mrt":"","open_time":""},{"id":"d27a7c0f-0a12-42a7-84eb-d25693b7945b","name":"東風南喃 咖啡 甜點","city":"hsinchu","wifi":5,"seat":4,"quiet":5,"tasty":4,"cheap":4,"music":5,"url":"https://www.facebook.com/eastwindcafe","address":"新竹縣竹東鎮東峰路66巷17弄2號","latitude":"24.72046290","longitude":"121.09553910","limited_time":"yes","socket":"maybe","standing_desk":"no","mrt":"","open_time":"11:00-19:00, 週一公休"},{"id":"d305a1fc-8896-4c12-91a1-9b6005c00926","name":"COCA COFFEE","city":"hsinchu","wifi":5,"seat":4,"quiet":4,"tasty":5,"cheap":5,"music":5,"url":"https://www.facebook.com/cocacoffeeshop/","address":"30264新竹縣竹北市文興路二段300號旁空地","latitude":"24.80541400","longitude":"121.04146000","limited_time":"no","socket":"maybe","standing_desk":"no","mrt":"","open_time":""},{"id":"d3c5eed8-5b72-482b-b075-d9e437cd90e7","name":"MERRY CAFE","city":"hsinchu","wifi":3.5,"seat":4,"quiet":2.5,"tasty":3,"cheap":3,"music":3.5,"url":"https://www.facebook.com/TaiwanMerryCafe/","address":"新竹縣竹北市六家七路6號","latitude":"24.80919810","longitude":"121.02460360","limited_time":"","socket":"","standing_desk":"","mrt":"","open_time":""},{"id":"d3fa794d-04f8-4dbb-9470-b3154e41bb53","name":"Wooli Cafe","city":"hsinchu","wifi":5,"seat":5,"quiet":4,"tasty":5,"cheap":4,"music":5,"url":"https://www.instagram.com/wooli_cafe/","address":"新竹縣新豐鄉康樂路一段416號","latitude":"24.87270570","longitude":"120.98539570","limited_time":"maybe","socket":"maybe","standing_desk":"no","mrt":"","open_time":""},{"id":"d46f6b29-b057-4e89-8027-381796315523","name":" 梧桐貝貝咖啡Brunch—竹北店","city":"hsinchu","wifi":4,"seat":3,"quiet":3,"tasty":4,"cheap":3,"music":3,"url":"https://www.facebook.com/cafe.platane/","address":"新竹縣竹北市縣政七街一號二樓","latitude":"24.82493110","longitude":"121.01063910","limited_time":"","socket":"","standing_desk":"","mrt":"","open_time":""},{"id":"d4b36ea7-9e9a-4545-b7d1-843b9a748d62","name":"貓嶼Cat Island Cafe","city":"hsinchu","wifi":4,"seat":5,"quiet":4,"tasty":3,"cheap":4,"music":4,"url":"https://www.facebook.com/%E8%B2%93%E5%B6%BC-Cat-Island-106064568639381/","address":"300新竹市北區北新街39巷34號","latitude":"24.80175190","longitude":"120.95764540","limited_time":"maybe","socket":"maybe","standing_desk":"no","mrt":"","open_time":""},{"id":"d4c21f3a-c1bc-4544-9ee1-f9c0fcbcbc03","name":"或者咖啡OR Coffee","city":"hsinchu","wifi":5,"seat":4,"quiet":4,"tasty":4,"cheap":3,"music":5,"url":"https://www.facebook.com/ORCoffee.HC","address":"300新竹市北區大同路177號","latitude":"24.80738930","longitude":"120.96655890","limited_time":"","socket":"maybe","standing_desk":"no","mrt":"","open_time":""},{"id":"d7b9df8f-12ea-4d24-beba-211efe50b04d","name":"喜木咖啡","city":"hsinchu","wifi":0,"seat":0,"quiet":0,"tasty":0,"cheap":0,"music":0,"url":"","address":"302新竹縣竹北市鳳岡路二段422號","latitude":"24.86110340","longitude":"120.97371750","limited_time":"","socket":"","standing_desk":"","mrt":"","open_time":""},{"id":"d8011864-6194-449d-9e86-c819f0cec52d","name":"THERE CAFÉ 那家咖啡館","city":"hsinchu","wifi":5,"seat":5,"quiet":4.5,"tasty":5,"cheap":4.5,"music":5,"url":"https://www.facebook.com/%E6%B7%B1%E5%A4%9C%E5%92%96%E5%95%A1%E5%BB%B39014-287136731886974/","address":"300新竹市北區西大路465號","latitude":"24.80476290","longitude":"120.96327940","limited_time":"no","socket":"maybe","standing_desk":"yes","mrt":"","open_time":""},{"id":"d9260058-fd6e-407d-8d3c-baa5ae3fec2a","name":"明日咖啡店","city":"hsinchu","wifi":5,"seat":4.5,"quiet":4,"tasty":2.5,"cheap":4.5,"music":3.5,"url":"https://www.facebook.com/tomorrow303/","address":"新竹市北區東大路三段303號","latitude":"24.83526710","longitude":"120.94511100","limited_time":"yes","socket":"maybe","standing_desk":"yes","mrt":"","open_time":""},{"id":"db17fab7-d9f6-4595-ac7b-8280f8c88d44","name":"咕啵啵咖啡下午茶","city":"hsinchu","wifi":0,"seat":0,"quiet":0,"tasty":0,"cheap":0,"music":0,"url":"","address":"300新竹市北區中和路17號","latitude":"24.80052680","longitude":"120.95736960","limited_time":"","socket":"","standing_desk":"","mrt":"","open_time":""},{"id":"dc294d06-80fe-4877-9fd9-019252297f97","name":"心尚咖啡","city":"hsinchu","wifi":0,"seat":0,"quiet":0,"tasty":0,"cheap":0,"music":0,"url":"","address":"新竹縣竹北市光明六路東二段56號","latitude":"24.81054240","longitude":"121.03921240","limited_time":"","socket":"","standing_desk":"","mrt":"","open_time":""},{"id":"dfad6098-51ac-4b25-a615-b8f3755819b7","name":"赤子 justkids","city":"hsinchu","wifi":0,"seat":4.5,"quiet":4.5,"tasty":4,"cheap":4.5,"music":4.5,"url":"https://www.facebook.com/JUSTKIDS.vintage/","address":"300新竹市東區東前街55號(從武昌街112巷進入)","latitude":"24.80370000","longitude":"120.96741000","limited_time":"no","socket":"no","standing_desk":"no","mrt":"","open_time":""},{"id":"e2584f74-b6b3-4ece-bd12-9101e0f6889c","name":"紫進咖啡","city":"hsinchu","wifi":0,"seat":5,"quiet":5,"tasty":5,"cheap":3,"music":4,"url":"https://www.facebook.com/purplegolden","address":"新竹市東區新竹市三民路9-3號1樓","latitude":"24.80875880","longitude":"120.97454400","limited_time":"","socket":"maybe","standing_desk":"yes","mrt":"","open_time":""},{"id":"e535b107-9ca9-476c-9847-b49e54c1974c","name":"舊是經典咖啡館 Absolut Klassik","city":"hsinchu","wifi":5,"seat":4,"quiet":4.5,"tasty":3,"cheap":3,"music":5,"url":"https://www.facebook.com/ak.healthjam/","address":"新竹市東區建美路5號","latitude":"24.80112790","longitude":"120.99736090","limited_time":"no","socket":"maybe","standing_desk":"yes","mrt":"","open_time":"~18:00"},{"id":"e8ff2e1f-1235-47e8-9b4e-df43c2d1f699","name":"山崎家咖啡","city":"hsinchu","wifi":0,"seat":0,"quiet":0,"tasty":0,"cheap":0,"music":0,"url":"","address":"304新竹縣新豐鄉建興路一段127號","latitude":"24.87339920","longitude":"120.99461110","limited_time":"","socket":"","standing_desk":"","mrt":"","open_time":""},{"id":"e9b22e6d-2688-4af3-8430-f761da556381","name":"11鹿","city":"hsinchu","wifi":3.5,"seat":3,"quiet":3,"tasty":3,"cheap":3,"music":3,"url":"https://www.facebook.com/11deer/","address":"新竹縣竹北市嘉豐十一路二段52號","latitude":"24.80611310","longitude":"121.03400640","limited_time":"","socket":"","standing_desk":"","mrt":"","open_time":""},{"id":"eab8deda-842c-43c6-b60a-8a25b8117303","name":"Louisa Coffee 路易．莎咖啡(新竹武陵店)","city":"hsinchu","wifi":4,"seat":5,"quiet":3,"tasty":2,"cheap":5,"music":3,"url":"","address":"300 新竹市北區武陵路173-3號","latitude":"24.82106830","longitude":"120.96818990","limited_time":"no","socket":"maybe","standing_desk":"no","mrt":"","open_time":""},{"id":"ec324316-e999-4b34-ba60-d716af480d31","name":"踏踏咖啡 x 養憩動物血液中心","city":"hsinchu","wifi":0,"seat":3,"quiet":5,"tasty":5,"cheap":4,"music":4,"url":"https://www.facebook.com/taTAcoffeeroasterxraiserest","address":"新竹縣竹北市嘉興路98號","latitude":"24.81554840","longitude":"121.02572680","limited_time":"","socket":"maybe","standing_desk":"no","mrt":"","open_time":""},{"id":"edebc41d-0a8a-4fab-b0d5-d8d34a22a46c","name":"簡單咖啡","city":"hsinchu","wifi":5,"seat":5,"quiet":5,"tasty":5,"cheap":5,"music":4,"url":"","address":"新竹市東區民權路111巷54號","latitude":"24.80715700","longitude":"120.97353200","limited_time":"no","socket":"maybe","standing_desk":"yes","mrt":"","open_time":"10：00～18：00周六公休"},{"id":"eeb34d41-636e-4e9b-8042-25076d16ce6a","name":"Smile Cafe 斯麥爾咖啡館","city":"hsinchu","wifi":4,"seat":4,"quiet":2,"tasty":2.5,"cheap":2.5,"music":3,"url":"https://www.facebook.com/smilecafetea/","address":"新竹市光復路二段101號清華大學旺宏館","latitude":"24.79544200","longitude":"120.99480800","limited_time":"no","socket":"maybe","standing_desk":"","mrt":"","open_time":""},{"id":"eecda6e8-9848-4294-9fbe-8c56df1c0afa","name":"吉十Godspeed Café ","city":"hsinchu","wifi":1,"seat":4,"quiet":4,"tasty":3,"cheap":1,"music":1,"url":"https://www.facebook.com/godspeedlucky10/","address":"新竹市北門街36號","latitude":"24.80577290","longitude":"120.96615950","limited_time":"yes","socket":"maybe","standing_desk":"no","mrt":"","open_time":""},{"id":"efc9d9ec-0c9b-4b80-88e9-ab534dd2fc0b","name":"Plunge Cafe 墣玉咖啡-新竹高鐵","city":"hsinchu","wifi":4,"seat":3,"quiet":3,"tasty":3,"cheap":3,"music":2,"url":"https://www.facebook.com/plungecafe/","address":"新竹縣竹北市復興二路203號","latitude":"24.80994320","longitude":"121.03750840","limited_time":"","socket":"","standing_desk":"","mrt":"","open_time":""},{"id":"f01c9fa8-e2b5-44d7-bb15-db7fe20c7646","name":"Dig in comfort food&coffee癮 . 舒 .食","city":"hsinchu","wifi":0,"seat":0,"quiet":0,"tasty":0,"cheap":0,"music":0,"url":"","address":"302新竹縣竹北市六家一路一段7號","latitude":"24.81183190","longitude":"121.02488570","limited_time":"","socket":"","standing_desk":"","mrt":"","open_time":""},{"id":"f01dc47e-259e-4eab-99b7-213c1e7f59bb","name":"二街咖啡 2nd St Cafe","city":"hsinchu","wifi":5,"seat":3,"quiet":2,"tasty":3,"cheap":3,"music":4,"url":"https://www.facebook.com/2ndStCafeee/?fref=ts","address":"新竹縣竹北市嘉政二街118號","latitude":"24.80672810","longitude":"121.02834940","limited_time":"no","socket":"maybe","standing_desk":"yes","mrt":"","open_time":""},{"id":"f0525400-dd18-475f-a720-8aae99cb0494","name":"Lim Coffee咖啡館","city":"hsinchu","wifi":0,"seat":0,"quiet":0,"tasty":0,"cheap":0,"music":0,"url":"","address":"300新竹市東區展業一路11號","latitude":"24.78391700","longitude":"121.00132400","limited_time":"","socket":"","standing_desk":"","mrt":"","open_time":""},{"id":"f116f2e8-5ad5-43e0-b9ba-d4e5c0f93ac7","name":"Flow Into","city":"hsinchu","wifi":0,"seat":5,"quiet":5,"tasty":3,"cheap":4,"music":4,"url":"https://www.facebook.com/FLOWINTOcafe/","address":"300新竹市東區八德路196號","latitude":"24.80315430","longitude":"120.98541680","limited_time":"no","socket":"no","standing_desk":"no","mrt":"","open_time":""},{"id":"f1207a33-0ce8-4b7a-b16e-b56da195d844","name":"HILA SPIRIT 咖啡吧","city":"hsinchu","wifi":0,"seat":0,"quiet":0,"tasty":0,"cheap":0,"music":0,"url":"","address":"300新竹市北區光華二街54號","latitude":"24.81850870","longitude":"120.97524420","limited_time":"","socket":"","standing_desk":"","mrt":"","open_time":""},{"id":"f2477678-d15a-4a76-b5c8-1f12a3eebba2","name":"上山喝咖啡","city":"hsinchu","wifi":0,"seat":5,"quiet":4,"tasty":4,"cheap":3,"music":4,"url":"","address":"312新竹縣橫山鄉120號","latitude":"24.71130110","longitude":"121.13667150","limited_time":"","socket":"","standing_desk":"","mrt":"","open_time":""},{"id":"f2d34dcd-4980-446e-bb28-ebefae466121","name":"La Kaffa 六角咖啡","city":"hsinchu","wifi":1,"seat":5,"quiet":1,"tasty":2,"cheap":4,"music":2,"url":"https://www.facebook.com/lakaffa.tw/","address":"新竹縣竹北市自強五路239號1F","latitude":"24.81239640","longitude":"121.02043960","limited_time":"maybe","socket":"maybe","standing_desk":"no","mrt":"","open_time":""},{"id":"f426db8f-9b80-4b14-a00f-380f5ad1bff1","name":"想要分享咖啡","city":"hsinchu","wifi":0,"seat":5,"quiet":1,"tasty":1,"cheap":2,"music":2,"url":"","address":"新竹市北區光華二街6號","latitude":"24.81698620","longitude":"120.97437610","limited_time":"yes","socket":"no","standing_desk":"no","mrt":"","open_time":"7—18"},{"id":"f647dcbb-fd66-4b0f-8d57-d4dae3820147","name":"Moringa 象腳樹","city":"hsinchu","wifi":0,"seat":0,"quiet":0,"tasty":0,"cheap":0,"music":0,"url":"https://www.facebook.com/moringasince2016/","address":"新竹市東區光華街12號","latitude":"24.81355290","longitude":"120.97277540","limited_time":"","socket":"","standing_desk":"","mrt":"","open_time":""},{"id":"f7654e4b-d4e5-46b0-9948-6fbc910d7c8a","name":"B . COFFEE dax","city":"hsinchu","wifi":5,"seat":5,"quiet":4,"tasty":4,"cheap":3,"music":4,"url":"https://instagram.com/b.coffeedax?igshid=NTc4MTIwNjQ2YQ==","address":"302新竹縣竹北市華興街142巷5號","latitude":"24.84044210","longitude":"121.00239000","limited_time":"no","socket":"maybe","standing_desk":"yes","mrt":"","open_time":""},{"id":"f787731f-3a06-4085-86b7-218b9e5fe6d1","name":"聽說Listen to Cafe","city":"hsinchu","wifi":0,"seat":5,"quiet":5,"tasty":5,"cheap":4,"music":5,"url":"","address":"新竹市中央路312巷1號","latitude":"24.81004790","longitude":"120.97829870","limited_time":"","socket":"","standing_desk":"","mrt":"","open_time":""},{"id":"f7d80344-f8f7-46dd-8f94-5c62a368010b","name":"水工鳥義美式餐廳","city":"hsinchu","wifi":5,"seat":5,"quiet":3,"tasty":4,"cheap":4.5,"music":4,"url":"https://www.facebook.com/%E6%B0%B4%E5%B7%A5%E9%B3%A5-901760609847035/","address":"新竹市金城一路77-1號","latitude":"24.79512190","longitude":"121.00404240","limited_time":"","socket":"","standing_desk":"","mrt":"","open_time":""},{"id":"f7dfa7d7-5483-49c7-b3af-b0c20b1c1533","name":"陶匠咖啡","city":"hsinchu","wifi":0,"seat":0,"quiet":0,"tasty":0,"cheap":0,"music":0,"url":"","address":"300新竹市東區鐵道路一段58號","latitude":"24.81226990","longitude":"120.98388910","limited_time":"","socket":"","standing_desk":"","mrt":"","open_time":""},{"id":"fdc4df17-c9fa-4f1d-8040-588e092cd3a7","name":"過日子咖啡館","city":"hsinchu","wifi":4,"seat":4,"quiet":5,"tasty":3,"cheap":3,"music":5,"url":"https://www.facebook.com/livelifecafe/","address":"新竹市北區水田街91巷9號","latitude":"24.81583000","longitude":"120.96744200","limited_time":"","socket":"","standing_desk":"","mrt":"","open_time":""}]